{
  "name": "Botswana",
  "lat": -22,
  "lng": 24,
  "cities": [
    {
      "name": "Central",
      "lat": -21.4790187,
      "lng": 26.2154174,
      "districts": [
        {
          "name": "Gobojango",
          "lat": -21.8327,
          "lng": 28.72882
        },
        {
          "name": "Gweta",
          "lat": -20.18333,
          "lng": 25.23333
        },
        {
          "name": "Kalamare",
          "lat": -22.93369,
          "lng": 26.57032
        },
        {
          "name": "Letlhakane",
          "lat": -21.41494,
          "lng": 25.59263
        },
        {
          "name": "Letsheng",
          "lat": -22.66384,
          "lng": 27.2239
        },
        {
          "name": "Maapi",
          "lat": -22.75785,
          "lng": 27.35001
        },
        {
          "name": "Machaneng",
          "lat": -23.18621,
          "lng": 27.48856
        },
        {
          "name": "Mahalapye",
          "lat": -23.10407,
          "lng": 26.81421
        },
        {
          "name": "Makobeng",
          "lat": -22.99637,
          "lng": 27.66766
        },
        {
          "name": "Makwata",
          "lat": -23.28333,
          "lng": 27.3
        },
        {
          "name": "Mathakola",
          "lat": -22.72125,
          "lng": 27.31057
        },
        {
          "name": "Mathambgwane",
          "lat": -20.99075,
          "lng": 27.33158
        },
        {
          "name": "Mathathane",
          "lat": -22.26875,
          "lng": 28.74946
        },
        {
          "name": "Maunatlala",
          "lat": -22.59701,
          "lng": 27.63006
        },
        {
          "name": "Mogapi",
          "lat": -22.32301,
          "lng": 27.83492
        },
        {
          "name": "Moijabana",
          "lat": -22.43333,
          "lng": 26.41667
        },
        {
          "name": "Mookane",
          "lat": -23.68805,
          "lng": 26.65948
        },
        {
          "name": "Mopipi",
          "lat": -21.18333,
          "lng": 24.88333
        },
        {
          "name": "Mosetse",
          "lat": -20.75,
          "lng": 26.65
        },
        {
          "name": "Nata",
          "lat": -20.21667,
          "lng": 26.18333
        },
        {
          "name": "Orapa",
          "lat": -21.3115,
          "lng": 25.37642
        },
        {
          "name": "Palapye",
          "lat": -22.54605,
          "lng": 27.12507
        },
        {
          "name": "Pilikwe",
          "lat": -22.79904,
          "lng": 27.19376
        },
        {
          "name": "Rakops",
          "lat": -21.02257,
          "lng": 24.36052
        },
        {
          "name": "Ramokgonami",
          "lat": -22.8645,
          "lng": 27.42391
        },
        {
          "name": "Ratholo",
          "lat": -22.72454,
          "lng": 27.57199
        },
        {
          "name": "Sefophe",
          "lat": -22.18333,
          "lng": 27.96667
        },
        {
          "name": "Serowe",
          "lat": -22.38754,
          "lng": 26.71077
        },
        {
          "name": "Sua",
          "lat": -20.05,
          "lng": 26.2
        },
        {
          "name": "Tamasane",
          "lat": -22.4184,
          "lng": 27.40127
        },
        {
          "name": "Tobane",
          "lat": -21.95,
          "lng": 27.9
        },
        {
          "name": "Tonota",
          "lat": -21.44236,
          "lng": 27.46153
        }
      ]
    },
    {
      "name": "Chobe",
      "lat": -18.5,
      "lng": 25,
      "districts": []
    },
    {
      "name": "Francistown",
      "lat": -21.17361111,
      "lng": 27.5125,
      "districts": []
    },
    {
      "name": "Gaborone",
      "lat": -24.65805556,
      "lng": 25.91222222,
      "districts": []
    },
    {
      "name": "Ghanzi",
      "lat": -21.6968123,
      "lng": 21.6457062,
      "districts": [
        {
          "name": "Dekar",
          "lat": -21.53333,
          "lng": 21.93333
        },
        {
          "name": "Ghanzi",
          "lat": -21.69785,
          "lng": 21.64581
        }
      ]
    },
    {
      "name": "Jwaneng",
      "lat": -24.60194444,
      "lng": 24.72833333,
      "districts": []
    },
    {
      "name": "Kgalagadi",
      "lat": -24.8490576,
      "lng": 21.7883349,
      "districts": [
        {
          "name": "Hukuntsi",
          "lat": -23.9988,
          "lng": 21.77962
        },
        {
          "name": "Kang",
          "lat": -23.67518,
          "lng": 22.78762
        },
        {
          "name": "Lehututu",
          "lat": -23.96667,
          "lng": 21.86667
        },
        {
          "name": "Manyana",
          "lat": -23.4,
          "lng": 21.71667
        },
        {
          "name": "Tshabong",
          "lat": -26.05,
          "lng": 22.45
        },
        {
          "name": "Werda",
          "lat": -25.26667,
          "lng": 23.28333
        }
      ]
    },
    {
      "name": "Kgatleng",
      "lat": -24.134085,
      "lng": 26.4177246,
      "districts": [
        {
          "name": "Bokaa",
          "lat": -24.45,
          "lng": 26.01667
        },
        {
          "name": "Mmathubudukwane",
          "lat": -24.6,
          "lng": 26.43333
        },
        {
          "name": "Mochudi",
          "lat": -24.41667,
          "lng": 26.15
        },
        {
          "name": "Pilane",
          "lat": -24.45,
          "lng": 26.13333
        }
      ]
    },
    {
      "name": "Kweneng",
      "lat": -23.9028101,
      "lng": 24.9214122,
      "districts": [
        {
          "name": "Botlhapatlou",
          "lat": -24.02591,
          "lng": 25.48976
        },
        {
          "name": "Dutlwe",
          "lat": -23.98333,
          "lng": 23.9
        },
        {
          "name": "Gabane",
          "lat": -24.66667,
          "lng": 25.78222
        },
        {
          "name": "Gaphatshwe",
          "lat": -24.57389,
          "lng": 25.83417
        },
        {
          "name": "Khudumelapye",
          "lat": -23.88333,
          "lng": 24.75
        },
        {
          "name": "Lenchwe Le Tau",
          "lat": -24.38333,
          "lng": 25.85
        },
        {
          "name": "Letlhakeng",
          "lat": -24.09442,
          "lng": 25.02977
        },
        {
          "name": "Metsemotlhaba",
          "lat": -24.55139,
          "lng": 25.80306
        },
        {
          "name": "Mmopone",
          "lat": -24.56694,
          "lng": 25.87417
        },
        {
          "name": "Mogoditshane",
          "lat": -24.62694,
          "lng": 25.86556
        },
        {
          "name": "Molepolole",
          "lat": -24.40659,
          "lng": 25.49508
        },
        {
          "name": "Nkoyaphiri",
          "lat": -24.63222,
          "lng": 25.83139
        },
        {
          "name": "Thamaga",
          "lat": -24.67014,
          "lng": 25.53975
        }
      ]
    },
    {
      "name": "Lobatse",
      "lat": -25.21666667,
      "lng": 25.66666667,
      "districts": []
    },
    {
      "name": "North-East",
      "lat": -21.0244816,
      "lng": 27.5147504,
      "districts": [
        {
          "name": "Dukwe",
          "lat": -20.58333,
          "lng": 26.41667
        },
        {
          "name": "Makaleng",
          "lat": -20.9,
          "lng": 27.28333
        },
        {
          "name": "Masunga",
          "lat": -20.62455,
          "lng": 27.44875
        },
        {
          "name": "Sebina",
          "lat": -20.86667,
          "lng": 27.25
        }
      ]
    },
    {
      "name": "North-West",
      "lat": -19.3893529,
      "lng": 23.267951,
      "districts": [
        {
          "name": "Maun",
          "lat": -19.98333,
          "lng": 23.41667
        },
        {
          "name": "Nokaneng",
          "lat": -19.66667,
          "lng": 22.26667
        },
        {
          "name": "Pandamatenga",
          "lat": -18.52779,
          "lng": 25.62698
        },
        {
          "name": "Sehithwa",
          "lat": -20.46667,
          "lng": 22.71667
        },
        {
          "name": "Shakawe",
          "lat": -18.36536,
          "lng": 21.84219
        }
      ]
    },
    {
      "name": "Selibe Phikwe",
      "lat": -21.97583333,
      "lng": 27.84,
      "districts": []
    },
    {
      "name": "South-East",
      "lat": -24.6563846,
      "lng": 26.0575429,
      "districts": [
        {
          "name": "Gaborone",
          "lat": -24.76234,
          "lng": 25.7995,
          "iscapital": true
        },
        {
          "name": "Janeng",
          "lat": -25.41667,
          "lng": 25.55
        },
        {
          "name": "Kopong",
          "lat": -24.48333,
          "lng": 25.88333
        },
        {
          "name": "Otse",
          "lat": -25.01667,
          "lng": 25.73333
        },
        {
          "name": "Ramotswa",
          "lat": -24.87158,
          "lng": 25.86989
        }
      ]
    },
    {
      "name": "Southern",
      "lat": -24.7998688,
      "lng": 24.5800692,
      "districts": [
        {
          "name": "Kanye",
          "lat": -24.96675,
          "lng": 25.33273
        },
        {
          "name": "Khakhea",
          "lat": -24.68954,
          "lng": 23.49403
        },
        {
          "name": "Mosopa",
          "lat": -24.7718,
          "lng": 25.42156
        },
        {
          "name": "Sekoma",
          "lat": -24.4,
          "lng": 23.88333
        }
      ]
    },
    {
      "name": "Sowa Town",
      "lat": -20.56361111,
      "lng": 26.22444444,
      "districts": []
    }
  ]
}
