{
  "name": "Brazil",
  "lat": -10,
  "lng": -55,
  "cities": [
    {
      "name": "Acre",
      "lat": -9.0478679,
      "lng": -70.5264976,
      "districts": [
        {
          "name": "Rio Branco",
          "lat": -9.97472,
          "lng": -67.81,
          "subdistricts": [
            {
              "name": "Acrelândia",
              "lat": -9.98045,
              "lng": -66.84388
            },
            {
              "name": "Assis Brasil",
              "lat": -10.88334,
              "lng": -70.01314
            },
            {
              "name": "Brasiléia",
              "lat": -11.01611,
              "lng": -68.74806
            },
            {
              "name": "Bujari",
              "lat": -9.57859,
              "lng": -68.17197
            },
            {
              "name": "Capixaba",
              "lat": -10.48782,
              "lng": -67.84831
            },
            {
              "name": "Cruzeiro do Sul",
              "lat": -7.62759,
              "lng": -72.67756
            },
            {
              "name": "Epitaciolândia",
              "lat": -10.93542,
              "lng": -68.44411
            },
            {
              "name": "Feijó",
              "lat": -8.1654,
              "lng": -70.35486
            },
            {
              "name": "Jordão",
              "lat": -9.09166,
              "lng": -71.84069
            },
            {
              "name": "Mâncio Lima",
              "lat": -7.61417,
              "lng": -72.89583
            },
            {
              "name": "Manoel Urbano",
              "lat": -8.83889,
              "lng": -69.25972
            },
            {
              "name": "Marechal Thaumaturgo",
              "lat": -8.94111,
              "lng": -72.79167
            },
            {
              "name": "Plácido de Castro",
              "lat": -10.33528,
              "lng": -67.18556
            },
            {
              "name": "Porto Acre",
              "lat": -9.65038,
              "lng": -67.77733
            },
            {
              "name": "Porto Walter",
              "lat": -8.26861,
              "lng": -72.74389
            },
            {
              "name": "Rodrigues Alves",
              "lat": -7.85286,
              "lng": -73.23613
            },
            {
              "name": "Santa Rosa do Purus",
              "lat": -9.4773,
              "lng": -70.39032
            },
            {
              "name": "Sena Madureira",
              "lat": -9.06341,
              "lng": -68.67245
            },
            {
              "name": "Senador Guiomard",
              "lat": -10.1497,
              "lng": -67.73741
            },
            {
              "name": "Tarauacá",
              "lat": -8.16139,
              "lng": -70.76556
            },
            {
              "name": "Xapuri",
              "lat": -10.59663,
              "lng": -68.64891
            }
          ]
        }
      ]
    },
    {
      "name": "Alagoas",
      "lat": -9.6611661,
      "lng": -36.6502426,
      "districts": [
        {
          "name": "Arapiraca",
          "lat": -9.7438,
          "lng": -36.59315,
          "subdistricts": [
            {
              "name": "Água Branca",
              "lat": -9.26988,
              "lng": -37.91917
            },
            {
              "name": "Batalha",
              "lat": -9.73256,
              "lng": -37.08877
            },
            {
              "name": "Belo Monte",
              "lat": -9.80521,
              "lng": -37.19157
            },
            {
              "name": "Cajueiro",
              "lat": -9.71667,
              "lng": -36.45
            },
            {
              "name": "Campo Alegre",
              "lat": -9.78194,
              "lng": -36.35083
            },
            {
              "name": "Campo Grande",
              "lat": -9.94997,
              "lng": -36.75593
            },
            {
              "name": "Carneiros",
              "lat": -9.46467,
              "lng": -37.35559
            },
            {
              "name": "Coité do Nóia",
              "lat": -9.62616,
              "lng": -36.60044
            },
            {
              "name": "Coruripe",
              "lat": -10.12556,
              "lng": -36.17556
            },
            {
              "name": "Craíbas",
              "lat": -9.60115,
              "lng": -36.80273
            },
            {
              "name": "Delmiro Gouveia",
              "lat": -9.38861,
              "lng": -37.99917
            },
            {
              "name": "Dois Riachos",
              "lat": -9.3925,
              "lng": -37.10056
            },
            {
              "name": "Feira Grande",
              "lat": -9.9247,
              "lng": -36.66953
            },
            {
              "name": "Feliz Deserto",
              "lat": -10.2908,
              "lng": -36.35367
            },
            {
              "name": "Girau do Ponciano",
              "lat": -9.88417,
              "lng": -36.82889
            },
            {
              "name": "Igreja Nova",
              "lat": -10.1666,
              "lng": -36.61724
            },
            {
              "name": "Inhapi",
              "lat": -9.22139,
              "lng": -37.74861
            },
            {
              "name": "Jacaré dos Homens",
              "lat": -9.67278,
              "lng": -37.22275
            },
            {
              "name": "Jaramataia",
              "lat": -9.65053,
              "lng": -36.96036
            },
            {
              "name": "Junqueiro",
              "lat": -9.88524,
              "lng": -36.4564
            },
            {
              "name": "Lagoa da Canoa",
              "lat": -9.82972,
              "lng": -36.73778
            },
            {
              "name": "Limoeiro de Anadia",
              "lat": -9.72685,
              "lng": -36.45407
            },
            {
              "name": "Major Isidoro",
              "lat": -9.53222,
              "lng": -36.985
            },
            {
              "name": "Monteirópolis",
              "lat": -9.62019,
              "lng": -37.2935
            },
            {
              "name": "Olho d'Água das Flores",
              "lat": -9.54034,
              "lng": -37.25214
            },
            {
              "name": "Olho d'Água do Casado",
              "lat": -9.45648,
              "lng": -37.83496
            },
            {
              "name": "Olho d'Água Grande",
              "lat": -10.05622,
              "lng": -36.79522
            },
            {
              "name": "Olivença",
              "lat": -9.51861,
              "lng": -37.19056
            },
            {
              "name": "Palestina",
              "lat": -9.67504,
              "lng": -37.331
            },
            {
              "name": "Pão de Açúcar",
              "lat": -9.68353,
              "lng": -37.45431
            },
            {
              "name": "Pariconha",
              "lat": -9.22039,
              "lng": -38.0167
            },
            {
              "name": "Penedo",
              "lat": -10.24448,
              "lng": -36.46992
            },
            {
              "name": "Piaçabuçu",
              "lat": -10.40556,
              "lng": -36.43444
            },
            {
              "name": "Piranhas",
              "lat": -9.54806,
              "lng": -37.74529
            },
            {
              "name": "Poço das Trincheiras",
              "lat": -9.3125,
              "lng": -37.28556
            },
            {
              "name": "Porto Real do Colégio",
              "lat": -10.10538,
              "lng": -36.72695
            },
            {
              "name": "Santana do Ipanema",
              "lat": -9.37833,
              "lng": -37.24528
            },
            {
              "name": "São Brás",
              "lat": -10.12409,
              "lng": -36.85043
            },
            {
              "name": "São José da Tapera",
              "lat": -9.55833,
              "lng": -37.38111
            },
            {
              "name": "São Sebastião",
              "lat": -9.96698,
              "lng": -36.5528
            },
            {
              "name": "Senador Rui Palmeira",
              "lat": -9.33827,
              "lng": -37.55968
            },
            {
              "name": "Teotônio Vilela",
              "lat": -9.99012,
              "lng": -36.43273
            },
            {
              "name": "Traipu",
              "lat": -9.8924,
              "lng": -36.97849
            }
          ]
        },
        {
          "name": "Belém",
          "lat": -9.54424,
          "lng": -36.50196,
          "subdistricts": [
            {
              "name": "Anadia",
              "lat": -9.67495,
              "lng": -36.3379
            },
            {
              "name": "Boca da Mata",
              "lat": -9.64651,
              "lng": -36.14134
            },
            {
              "name": "Branquinha",
              "lat": -9.21168,
              "lng": -36.08956
            },
            {
              "name": "Cacimbinhas",
              "lat": -9.40028,
              "lng": -36.99028
            },
            {
              "name": "Canapi",
              "lat": -9.17327,
              "lng": -37.51985
            },
            {
              "name": "Capela",
              "lat": -9.39342,
              "lng": -36.1239
            },
            {
              "name": "Chã Preta",
              "lat": -9.22921,
              "lng": -36.33049
            },
            {
              "name": "Estrela de Alagoas",
              "lat": -9.39858,
              "lng": -36.76219
            },
            {
              "name": "Igaci",
              "lat": -9.53694,
              "lng": -36.63361
            },
            {
              "name": "Mar Vermelho",
              "lat": -9.49247,
              "lng": -36.35042
            },
            {
              "name": "Maravilha",
              "lat": -9.22305,
              "lng": -37.37936
            },
            {
              "name": "Maribondo",
              "lat": -9.57722,
              "lng": -36.30528
            },
            {
              "name": "Mata Grande",
              "lat": -8.98543,
              "lng": -37.7615
            },
            {
              "name": "Minador do Negrão",
              "lat": -9.30528,
              "lng": -36.86472
            },
            {
              "name": "Ouro Branco",
              "lat": -9.12895,
              "lng": -37.37367
            },
            {
              "name": "Palmeira dos Índios",
              "lat": -9.40902,
              "lng": -36.60651
            },
            {
              "name": "Paulo Jacinto",
              "lat": -9.36843,
              "lng": -36.39294
            },
            {
              "name": "Pindoba",
              "lat": -9.47492,
              "lng": -36.30343
            },
            {
              "name": "Quebrangulo",
              "lat": -9.31889,
              "lng": -36.47111
            },
            {
              "name": "Santana do Mundaú",
              "lat": -9.16806,
              "lng": -36.22222
            },
            {
              "name": "São José da Laje",
              "lat": -9.00972,
              "lng": -36.05833
            },
            {
              "name": "Tanque d'Arca",
              "lat": -9.56069,
              "lng": -36.40824
            },
            {
              "name": "Taquarana",
              "lat": -9.64342,
              "lng": -36.49419
            },
            {
              "name": "União dos Palmares",
              "lat": -9.13251,
              "lng": -36.08182
            },
            {
              "name": "Viçosa",
              "lat": -9.36022,
              "lng": -36.32095
            }
          ]
        },
        {
          "name": "Maceió",
          "lat": -9.66583,
          "lng": -35.73528,
          "subdistricts": [
            {
              "name": "Atalaia",
              "lat": -9.50194,
              "lng": -36.02278
            },
            {
              "name": "Barra de Santo Antônio",
              "lat": -9.40472,
              "lng": -35.50722
            },
            {
              "name": "Barra de São Miguel",
              "lat": -9.8123,
              "lng": -35.96087
            },
            {
              "name": "Campestre",
              "lat": -8.89393,
              "lng": -35.53237
            },
            {
              "name": "Colônia Leopoldina",
              "lat": -8.94183,
              "lng": -35.76005
            },
            {
              "name": "Coqueiro Seco",
              "lat": -9.64656,
              "lng": -35.80938
            },
            {
              "name": "Flexeiras",
              "lat": -9.20061,
              "lng": -35.78
            },
            {
              "name": "Ibateguara",
              "lat": -8.9725,
              "lng": -35.93944
            },
            {
              "name": "Jacuípe",
              "lat": -8.87722,
              "lng": -35.45885
            },
            {
              "name": "Japaratinga",
              "lat": -9.099,
              "lng": -35.29631
            },
            {
              "name": "Jequiá da Praia",
              "lat": -9.91151,
              "lng": -36.09896
            },
            {
              "name": "Joaquim Gomes",
              "lat": -9.10352,
              "lng": -35.73739
            },
            {
              "name": "Jundiá",
              "lat": -8.93472,
              "lng": -35.57361
            },
            {
              "name": "Maragogi",
              "lat": -9.01222,
              "lng": -35.2225
            },
            {
              "name": "Marechal Deodoro",
              "lat": -9.71028,
              "lng": -35.895
            },
            {
              "name": "Matriz de Camaragibe",
              "lat": -9.15167,
              "lng": -35.53333
            },
            {
              "name": "Messias",
              "lat": -9.38333,
              "lng": -35.84167
            },
            {
              "name": "Murici",
              "lat": -9.29835,
              "lng": -35.89999
            },
            {
              "name": "Novo Lino",
              "lat": -8.88091,
              "lng": -35.61948
            },
            {
              "name": "Paripueira",
              "lat": -9.4294,
              "lng": -35.58979
            },
            {
              "name": "Passo de Camaragibe",
              "lat": -9.29865,
              "lng": -35.42788
            },
            {
              "name": "Pilar",
              "lat": -9.61752,
              "lng": -36.06323
            },
            {
              "name": "Porto Calvo",
              "lat": -9.045,
              "lng": -35.39833
            },
            {
              "name": "Porto de Pedras",
              "lat": -9.11562,
              "lng": -35.39158
            },
            {
              "name": "Rio Largo",
              "lat": -9.47833,
              "lng": -35.85333
            },
            {
              "name": "Roteiro",
              "lat": -9.85906,
              "lng": -35.98311
            },
            {
              "name": "Santa Luzia do Norte",
              "lat": -9.61082,
              "lng": -35.82917
            },
            {
              "name": "São Luís do Quitunde",
              "lat": -9.31833,
              "lng": -35.56111
            },
            {
              "name": "São Miguel dos Campos",
              "lat": -9.78111,
              "lng": -36.09361
            },
            {
              "name": "São Miguel dos Milagres",
              "lat": -9.25423,
              "lng": -35.38419
            },
            {
              "name": "Satuba",
              "lat": -9.56333,
              "lng": -35.82444
            }
          ]
        }
      ]
    },
    {
      "name": "Amapá",
      "lat": 1.3545442,
      "lng": -51.9161977,
      "districts": [
        {
          "name": "Macapá",
          "lat": 0.03889,
          "lng": -51.06639,
          "subdistricts": [
            {
              "name": "Amapá",
              "lat": 1.85706,
              "lng": -50.84374
            },
            {
              "name": "Calçoene",
              "lat": 2.36098,
              "lng": -51.45285
            },
            {
              "name": "Cutias",
              "lat": 0.99713,
              "lng": -50.52041
            },
            {
              "name": "Ferreira Gomes",
              "lat": 0.91012,
              "lng": -51.35442
            },
            {
              "name": "Itaubal",
              "lat": 0.57732,
              "lng": -50.67833
            },
            {
              "name": "Oiapoque",
              "lat": 2.70795,
              "lng": -52.16963
            },
            {
              "name": "Pracuúba",
              "lat": 1.67076,
              "lng": -51.2449
            },
            {
              "name": "Serra do Navio",
              "lat": 1.65803,
              "lng": -52.28195
            },
            {
              "name": "Tartarugalzinho",
              "lat": 1.263,
              "lng": -51.10973
            }
          ]
        },
        {
          "name": "Santana",
          "lat": -0.05833,
          "lng": -51.18167,
          "subdistricts": [
            {
              "name": "Laranjal do Jari",
              "lat": 0.93828,
              "lng": -53.22949
            },
            {
              "name": "Mazagão",
              "lat": -0.115,
              "lng": -51.28944
            },
            {
              "name": "Pedra Branca do Amapari",
              "lat": 1.14843,
              "lng": -52.40118
            },
            {
              "name": "Porto Grande",
              "lat": 0.56553,
              "lng": -51.71181
            },
            {
              "name": "Vitória do Jari",
              "lat": -0.95653,
              "lng": -52.03443
            }
          ]
        }
      ]
    },
    {
      "name": "Amazonas",
      "lat": -3.2001766,
      "lng": -59.4989288,
      "districts": [
        {
          "name": "Itacoatiara",
          "lat": -3.13435,
          "lng": -58.43353,
          "subdistricts": [
            {
              "name": "Autazes",
              "lat": -3.57972,
              "lng": -59.13056
            },
            {
              "name": "Boa Vista do Ramos",
              "lat": -3.15779,
              "lng": -57.90517
            },
            {
              "name": "Guajará",
              "lat": -2.96667,
              "lng": -57.66667
            },
            {
              "name": "Itapiranga",
              "lat": -2.516,
              "lng": -58.5573
            },
            {
              "name": "Maués",
              "lat": -3.38361,
              "lng": -57.71861
            },
            {
              "name": "Nova Olinda do Norte",
              "lat": -3.89174,
              "lng": -59.09542
            },
            {
              "name": "São Sebastião do Uatumã",
              "lat": -1.93197,
              "lng": -58.74216
            },
            {
              "name": "Silves",
              "lat": -2.76846,
              "lng": -58.62751
            },
            {
              "name": "Urucará",
              "lat": -2.53639,
              "lng": -57.76
            },
            {
              "name": "Urucurituba",
              "lat": -3.12845,
              "lng": -58.15856
            }
          ]
        },
        {
          "name": "Manacapuru",
          "lat": -3.29972,
          "lng": -60.62056,
          "subdistricts": [
            {
              "name": "Alvarães",
              "lat": -3.22083,
              "lng": -64.80417
            },
            {
              "name": "Amaturá",
              "lat": -3.38926,
              "lng": -68.22698
            },
            {
              "name": "Anamã",
              "lat": -3.4799,
              "lng": -61.71689
            },
            {
              "name": "Anori",
              "lat": -3.77278,
              "lng": -61.64417
            },
            {
              "name": "Apuí",
              "lat": -7.78922,
              "lng": -59.34104
            },
            {
              "name": "Atalaia do Norte",
              "lat": -5.66448,
              "lng": -71.82776
            },
            {
              "name": "Barcelos",
              "lat": -0.97357,
              "lng": -62.9269
            },
            {
              "name": "Benjamin Constant",
              "lat": -4.37555,
              "lng": -70.03179
            },
            {
              "name": "Beruri",
              "lat": -4.34371,
              "lng": -61.75126
            },
            {
              "name": "Boca do Acre",
              "lat": -8.75222,
              "lng": -67.39778
            },
            {
              "name": "Caapiranga",
              "lat": -3.12981,
              "lng": -61.74406
            },
            {
              "name": "Canutama",
              "lat": -6.53389,
              "lng": -64.38306
            },
            {
              "name": "Carauari",
              "lat": -4.88278,
              "lng": -66.89583
            },
            {
              "name": "Careiro",
              "lat": -3.78706,
              "lng": -60.3479
            },
            {
              "name": "Coari",
              "lat": -4.085,
              "lng": -63.14139
            },
            {
              "name": "Codajás",
              "lat": -3.83667,
              "lng": -62.05694
            },
            {
              "name": "Eirunepé",
              "lat": -6.66028,
              "lng": -69.87361
            },
            {
              "name": "Envira",
              "lat": -7.3,
              "lng": -70.21667
            },
            {
              "name": "Fonte Boa",
              "lat": -2.51389,
              "lng": -66.09167
            },
            {
              "name": "Humaitá",
              "lat": -7.51651,
              "lng": -63.03105
            },
            {
              "name": "Ipixuna",
              "lat": -7.1191,
              "lng": -71.3759
            },
            {
              "name": "Itamarati",
              "lat": -6.76472,
              "lng": -68.03926
            },
            {
              "name": "Japurá",
              "lat": -1.55349,
              "lng": -68.24526
            },
            {
              "name": "Juruá",
              "lat": -3.27526,
              "lng": -66.24211
            },
            {
              "name": "Jutaí",
              "lat": -5.18333,
              "lng": -68.9
            },
            {
              "name": "Lábrea",
              "lat": -8.18437,
              "lng": -66.075
            },
            {
              "name": "Manaquiri",
              "lat": -3.31667,
              "lng": -60.35
            },
            {
              "name": "Manicoré",
              "lat": -5.80917,
              "lng": -61.30028
            },
            {
              "name": "Maraã",
              "lat": -1.82403,
              "lng": -65.35883
            },
            {
              "name": "Novo Airão",
              "lat": -1.98386,
              "lng": -61.78513
            },
            {
              "name": "Novo Aripuanã",
              "lat": -5.12056,
              "lng": -60.37972
            },
            {
              "name": "Pauini",
              "lat": -7.71361,
              "lng": -66.97639
            },
            {
              "name": "Santa Isabel do Rio Negro",
              "lat": -0.41389,
              "lng": -65.01917
            },
            {
              "name": "Santo Antônio do Içá",
              "lat": -3.10222,
              "lng": -67.93972
            },
            {
              "name": "São Gabriel da Cachoeira",
              "lat": -0.1181,
              "lng": -67.08527
            },
            {
              "name": "São Paulo de Olivença",
              "lat": -3.37833,
              "lng": -68.8725
            },
            {
              "name": "Tabatinga",
              "lat": -3.96298,
              "lng": -69.60265
            },
            {
              "name": "Tapauá",
              "lat": -6.21423,
              "lng": -65.69985
            },
            {
              "name": "Tefé",
              "lat": -3.36841,
              "lng": -64.72054
            },
            {
              "name": "Tonantins",
              "lat": -2.87306,
              "lng": -67.80222
            },
            {
              "name": "Uarini",
              "lat": -3.14736,
              "lng": -65.42036
            }
          ]
        },
        {
          "name": "Manaus",
          "lat": -3.04361,
          "lng": -60.01282,
          "subdistricts": [
            {
              "name": "Borba",
              "lat": -4.39143,
              "lng": -59.58864
            },
            {
              "name": "Careiro da Várzea",
              "lat": -3.19695,
              "lng": -59.82674
            },
            {
              "name": "Iranduba",
              "lat": -3.28472,
              "lng": -60.18611
            },
            {
              "name": "Presidente Figueiredo",
              "lat": -1.28344,
              "lng": -59.98317
            },
            {
              "name": "Rio Preto da Eva",
              "lat": -2.69795,
              "lng": -59.70172
            }
          ]
        },
        {
          "name": "Parintins",
          "lat": -2.62833,
          "lng": -56.73583,
          "subdistricts": [
            {
              "name": "Barreirinha",
              "lat": -2.79333,
              "lng": -57.07
            },
            {
              "name": "Nhamundá",
              "lat": -2.18611,
              "lng": -56.71306
            }
          ]
        }
      ]
    },
    {
      "name": "Bahia",
      "lat": -12.285251,
      "lng": -41.9294776,
      "districts": [
        {
          "name": "Alagoinhas",
          "lat": -12.0058,
          "lng": -38.36146,
          "subdistricts": [
            {
              "name": "Acajutiba",
              "lat": -11.60682,
              "lng": -38.03594
            },
            {
              "name": "Água Fria",
              "lat": -11.74762,
              "lng": -38.73497
            },
            {
              "name": "Aporá",
              "lat": -11.75439,
              "lng": -38.22784
            },
            {
              "name": "Araçás",
              "lat": -12.14681,
              "lng": -38.17233
            },
            {
              "name": "Araci",
              "lat": -11.13564,
              "lng": -39.07003
            },
            {
              "name": "Aramari",
              "lat": -12.04618,
              "lng": -38.55762
            },
            {
              "name": "Biritinga",
              "lat": -11.67075,
              "lng": -38.78931
            },
            {
              "name": "Cardeal da Silva",
              "lat": -11.99798,
              "lng": -37.92468
            },
            {
              "name": "Catu",
              "lat": -12.35306,
              "lng": -38.37889
            },
            {
              "name": "Cipó",
              "lat": -11.09972,
              "lng": -38.51361
            },
            {
              "name": "Conde",
              "lat": -11.81361,
              "lng": -37.61056
            },
            {
              "name": "Crisópolis",
              "lat": -11.45532,
              "lng": -38.13933
            },
            {
              "name": "Entre Rios",
              "lat": -11.94194,
              "lng": -38.08444
            },
            {
              "name": "Esplanada",
              "lat": -11.79611,
              "lng": -37.945
            },
            {
              "name": "Inhambupe",
              "lat": -11.78444,
              "lng": -38.35306
            },
            {
              "name": "Itanagra",
              "lat": -12.30982,
              "lng": -38.11328
            },
            {
              "name": "Itapicuru",
              "lat": -11.31667,
              "lng": -38.23333
            },
            {
              "name": "Jandaíra",
              "lat": -11.61099,
              "lng": -37.61845
            },
            {
              "name": "Nova Soure",
              "lat": -11.23333,
              "lng": -38.48333
            },
            {
              "name": "Olindina",
              "lat": -11.36667,
              "lng": -38.33333
            },
            {
              "name": "Ouriçangas",
              "lat": -12.00343,
              "lng": -38.65208
            },
            {
              "name": "Pedrão",
              "lat": -12.13311,
              "lng": -38.60621
            },
            {
              "name": "Quijingue",
              "lat": -10.7525,
              "lng": -39.20917
            },
            {
              "name": "Ribeira do Amparo",
              "lat": -11.00558,
              "lng": -38.38732
            },
            {
              "name": "Ribeira do Pombal",
              "lat": -10.83444,
              "lng": -38.53583
            },
            {
              "name": "Rio Real",
              "lat": -11.48472,
              "lng": -37.93278
            },
            {
              "name": "Sátiro Dias",
              "lat": -11.63166,
              "lng": -38.48886
            },
            {
              "name": "Tucano",
              "lat": -10.99427,
              "lng": -38.86249
            }
          ]
        },
        {
          "name": "Barreiras",
          "lat": -12.15278,
          "lng": -44.99,
          "subdistricts": [
            {
              "name": "Angical",
              "lat": -11.9628,
              "lng": -44.7498
            },
            {
              "name": "Baianópolis",
              "lat": -12.48331,
              "lng": -44.53105
            },
            {
              "name": "Barra",
              "lat": -11.08944,
              "lng": -43.14167
            },
            {
              "name": "Beira Rio",
              "lat": -12.25438,
              "lng": -42.75529
            },
            {
              "name": "Bom Jesus da Lapa",
              "lat": -13.255,
              "lng": -43.41806
            },
            {
              "name": "Boquira",
              "lat": -12.82306,
              "lng": -42.73056
            },
            {
              "name": "Brejolândia",
              "lat": -12.41237,
              "lng": -43.92822
            },
            {
              "name": "Brotas de Macaúbas",
              "lat": -12.10605,
              "lng": -42.51108
            },
            {
              "name": "Buritirama",
              "lat": -10.57081,
              "lng": -43.68863
            },
            {
              "name": "Canápolis",
              "lat": -13.12516,
              "lng": -44.25095
            },
            {
              "name": "Carinhanha",
              "lat": -14.30472,
              "lng": -43.765
            },
            {
              "name": "Catolândia",
              "lat": -12.29613,
              "lng": -44.67528
            },
            {
              "name": "Cocos",
              "lat": -14.59438,
              "lng": -45.2796
            },
            {
              "name": "Coribe",
              "lat": -13.72337,
              "lng": -44.43538
            },
            {
              "name": "Correntina",
              "lat": -13.34333,
              "lng": -44.63667
            },
            {
              "name": "Cotegipe",
              "lat": -11.58844,
              "lng": -44.17
            },
            {
              "name": "Cristópolis",
              "lat": -12.21789,
              "lng": -44.24987
            },
            {
              "name": "Feira da Mata",
              "lat": -14.13203,
              "lng": -44.25281
            },
            {
              "name": "Formosa do Rio Preto",
              "lat": -11.04833,
              "lng": -45.19306
            },
            {
              "name": "Gentio do Ouro",
              "lat": -11.36279,
              "lng": -42.54827
            },
            {
              "name": "Ibitiara",
              "lat": -12.56582,
              "lng": -42.3899
            },
            {
              "name": "Ibotirama",
              "lat": -12.18528,
              "lng": -43.22056
            },
            {
              "name": "Ipupiara",
              "lat": -11.76946,
              "lng": -42.43301
            },
            {
              "name": "Jaborandi",
              "lat": -14.0385,
              "lng": -45.18408
            },
            {
              "name": "Macaúbas",
              "lat": -13.01944,
              "lng": -42.69861
            },
            {
              "name": "Malhada",
              "lat": -14.19145,
              "lng": -43.63151
            },
            {
              "name": "Mansidão",
              "lat": -11.2078,
              "lng": -44.14109
            },
            {
              "name": "Morpará",
              "lat": -11.75265,
              "lng": -43.09133
            },
            {
              "name": "Muquém de São Francisco",
              "lat": -12.19886,
              "lng": -43.51311
            },
            {
              "name": "Oliveira dos Brejinhos",
              "lat": -12.31694,
              "lng": -42.89611
            },
            {
              "name": "Paratinga",
              "lat": -12.69056,
              "lng": -43.18417
            },
            {
              "name": "Pilão Arcado",
              "lat": -10.00201,
              "lng": -43.39371
            },
            {
              "name": "Riachão das Neves",
              "lat": -11.74611,
              "lng": -44.91
            },
            {
              "name": "Riacho de Santana",
              "lat": -13.60917,
              "lng": -42.93889
            },
            {
              "name": "Santa Maria da Vitória",
              "lat": -13.38814,
              "lng": -44.19868
            },
            {
              "name": "Santa Rita de Cássia",
              "lat": -11.02715,
              "lng": -44.59582
            },
            {
              "name": "São Desidério",
              "lat": -12.36333,
              "lng": -44.97333
            },
            {
              "name": "São Félix do Coribe",
              "lat": -13.41471,
              "lng": -43.98138
            },
            {
              "name": "Serra do Ramalho",
              "lat": -13.41101,
              "lng": -43.77849
            },
            {
              "name": "Serra Dourada",
              "lat": -12.91499,
              "lng": -43.796
            },
            {
              "name": "Sítio do Mato",
              "lat": -13.00385,
              "lng": -43.54537
            },
            {
              "name": "Tabocas do Brejo Velho",
              "lat": -12.36943,
              "lng": -44.08362
            },
            {
              "name": "Wanderley",
              "lat": -11.765,
              "lng": -43.99378
            },
            {
              "name": "Xique Xique",
              "lat": -10.82294,
              "lng": -42.72815
            }
          ]
        },
        {
          "name": "Camaçari",
          "lat": -12.6975,
          "lng": -38.32417,
          "subdistricts": [
            {
              "name": "Dias d'Ávila",
              "lat": -12.60625,
              "lng": -38.33717
            },
            {
              "name": "Mata de São João",
              "lat": -12.53028,
              "lng": -38.29917
            },
            {
              "name": "Pojuca",
              "lat": -12.36588,
              "lng": -38.24332
            },
            {
              "name": "São Sebastião do Passé",
              "lat": -12.5125,
              "lng": -38.49528
            }
          ]
        },
        {
          "name": "Eunápolis",
          "lat": -16.3775,
          "lng": -39.58028,
          "subdistricts": [
            {
              "name": "Guaratinga",
              "lat": -16.58564,
              "lng": -39.78189
            },
            {
              "name": "Itabela",
              "lat": -16.71635,
              "lng": -39.57325
            },
            {
              "name": "Itagimirim",
              "lat": -16.13473,
              "lng": -39.81646
            },
            {
              "name": "Itapebi",
              "lat": -15.88751,
              "lng": -39.68792
            },
            {
              "name": "Itarantim",
              "lat": -15.65972,
              "lng": -40.06556
            },
            {
              "name": "Potiraguá",
              "lat": -15.70117,
              "lng": -39.76689
            }
          ]
        },
        {
          "name": "Feira de Santana",
          "lat": -12.26667,
          "lng": -38.96667,
          "subdistricts": [
            {
              "name": "Amélia Rodrigues",
              "lat": -12.38975,
              "lng": -38.75153
            },
            {
              "name": "Anguera",
              "lat": -12.18221,
              "lng": -39.21384
            },
            {
              "name": "Antônio Cardoso",
              "lat": -12.38641,
              "lng": -39.14549
            },
            {
              "name": "Baixa Grande",
              "lat": -11.97735,
              "lng": -40.17993
            },
            {
              "name": "Barrocas",
              "lat": -11.6019,
              "lng": -39.12267
            },
            {
              "name": "Cabaceiras do Paraguaçu",
              "lat": -12.55423,
              "lng": -39.19596
            },
            {
              "name": "Cachoeira",
              "lat": -12.60139,
              "lng": -38.96576
            },
            {
              "name": "Caém",
              "lat": -11.14182,
              "lng": -40.29142
            },
            {
              "name": "Candeal",
              "lat": -11.89504,
              "lng": -39.2039
            },
            {
              "name": "Capela do Alto Alegre",
              "lat": -11.61838,
              "lng": -39.83227
            },
            {
              "name": "Capim Grosso",
              "lat": -11.38111,
              "lng": -40.01278
            },
            {
              "name": "Conceição da Feira",
              "lat": -12.50583,
              "lng": -38.99861
            },
            {
              "name": "Conceição do Coité",
              "lat": -11.56389,
              "lng": -39.28278
            },
            {
              "name": "Conceição do Jacuípe",
              "lat": -12.31667,
              "lng": -38.76667
            },
            {
              "name": "Coração de Maria",
              "lat": -12.23333,
              "lng": -38.75
            },
            {
              "name": "Gavião",
              "lat": -11.48891,
              "lng": -39.77412
            },
            {
              "name": "Governador Mangabeira",
              "lat": -12.57719,
              "lng": -39.03115
            },
            {
              "name": "Ichu",
              "lat": -11.70344,
              "lng": -39.18722
            },
            {
              "name": "Ipecaetá",
              "lat": -12.33777,
              "lng": -39.32835
            },
            {
              "name": "Ipirá",
              "lat": -12.15833,
              "lng": -39.73722
            },
            {
              "name": "Irará",
              "lat": -12.05,
              "lng": -38.76667
            },
            {
              "name": "Lamarão",
              "lat": -11.77625,
              "lng": -38.90341
            },
            {
              "name": "Mairi",
              "lat": -11.71139,
              "lng": -40.14889
            },
            {
              "name": "Miguel Calmon",
              "lat": -11.42889,
              "lng": -40.595
            },
            {
              "name": "Morro do Chapéu",
              "lat": -11.54852,
              "lng": -41.15804
            },
            {
              "name": "Mundo Novo",
              "lat": -11.85889,
              "lng": -40.4725
            },
            {
              "name": "Nordestina",
              "lat": -10.89685,
              "lng": -39.45141
            },
            {
              "name": "Nova Fátima",
              "lat": -11.56608,
              "lng": -39.58609
            },
            {
              "name": "Pé de Serra",
              "lat": -11.88974,
              "lng": -39.61937
            },
            {
              "name": "Pintadas",
              "lat": -11.92312,
              "lng": -39.97782
            },
            {
              "name": "Piritiba",
              "lat": -11.73028,
              "lng": -40.55528
            },
            {
              "name": "Queimadas",
              "lat": -10.97833,
              "lng": -39.62639
            },
            {
              "name": "Quixabeira",
              "lat": -11.41345,
              "lng": -40.13302
            },
            {
              "name": "Retirolândia",
              "lat": -11.47733,
              "lng": -39.40649
            },
            {
              "name": "Riachão do Jacuípe",
              "lat": -11.80694,
              "lng": -39.38556
            },
            {
              "name": "Santa Bárbara",
              "lat": -11.9177,
              "lng": -38.99206
            },
            {
              "name": "Santaluz",
              "lat": -11.25583,
              "lng": -39.37472
            },
            {
              "name": "Santanópolis",
              "lat": -12.02416,
              "lng": -38.88007
            },
            {
              "name": "Santo Amaro",
              "lat": -12.54667,
              "lng": -38.71194
            },
            {
              "name": "Santo Estêvão",
              "lat": -12.43028,
              "lng": -39.25139
            },
            {
              "name": "São Domingos",
              "lat": -11.48464,
              "lng": -39.59916
            },
            {
              "name": "São Gonçalo dos Campos",
              "lat": -12.43333,
              "lng": -38.96667
            },
            {
              "name": "São José do Jacuípe",
              "lat": -11.46833,
              "lng": -39.90377
            },
            {
              "name": "Serra Preta",
              "lat": -12.06913,
              "lng": -39.3005
            },
            {
              "name": "Serrinha",
              "lat": -11.66417,
              "lng": -39.0075
            },
            {
              "name": "Serrolândia",
              "lat": -11.54018,
              "lng": -40.24783
            },
            {
              "name": "Tanquinho",
              "lat": -11.95674,
              "lng": -39.09608
            },
            {
              "name": "Tapiramutá",
              "lat": -11.84722,
              "lng": -40.79139
            },
            {
              "name": "Teodoro Sampaio",
              "lat": -12.26547,
              "lng": -38.61211
            },
            {
              "name": "Teofilândia",
              "lat": -11.53412,
              "lng": -38.94519
            },
            {
              "name": "Terra Nova",
              "lat": -12.38537,
              "lng": -38.61874
            },
            {
              "name": "Valente",
              "lat": -11.43393,
              "lng": -39.48472
            },
            {
              "name": "Várzea da Roça",
              "lat": -11.53905,
              "lng": -40.07647
            },
            {
              "name": "Várzea do Poço",
              "lat": -11.53021,
              "lng": -40.30918
            }
          ]
        },
        {
          "name": "Ilhéus",
          "lat": -14.79364,
          "lng": -39.03949,
          "subdistricts": [
            {
              "name": "Camamu",
              "lat": -13.94472,
              "lng": -39.10389
            },
            {
              "name": "Itacaré",
              "lat": -14.2789,
              "lng": -38.99584
            },
            {
              "name": "Maraú",
              "lat": -14.10395,
              "lng": -39.0149
            }
          ]
        },
        {
          "name": "Itabuna",
          "lat": -14.78556,
          "lng": -39.28028,
          "subdistricts": [
            {
              "name": "Almadina",
              "lat": -14.67608,
              "lng": -39.69066
            },
            {
              "name": "Arataca",
              "lat": -15.24607,
              "lng": -39.42481
            },
            {
              "name": "Aurelino Leal",
              "lat": -14.3631,
              "lng": -39.47961
            },
            {
              "name": "Barro Preto",
              "lat": -14.75795,
              "lng": -39.40711
            },
            {
              "name": "Buerarema",
              "lat": -14.95944,
              "lng": -39.29972
            },
            {
              "name": "Camacan",
              "lat": -15.42769,
              "lng": -39.50818
            },
            {
              "name": "Coaraci",
              "lat": -14.64083,
              "lng": -39.55111
            },
            {
              "name": "Firmino Alves",
              "lat": -14.9136,
              "lng": -39.91192
            },
            {
              "name": "Floresta Azul",
              "lat": -14.8445,
              "lng": -39.75503
            },
            {
              "name": "Gongogi",
              "lat": -14.29995,
              "lng": -39.60138
            },
            {
              "name": "Ibicaraí",
              "lat": -14.865,
              "lng": -39.5875
            },
            {
              "name": "Ibicuí",
              "lat": -14.84167,
              "lng": -39.98667
            },
            {
              "name": "Ibirapitanga",
              "lat": -14.16417,
              "lng": -39.37361
            },
            {
              "name": "Iguaí",
              "lat": -14.75639,
              "lng": -40.08917
            },
            {
              "name": "Itaju do Colônia",
              "lat": -15.15505,
              "lng": -39.71598
            },
            {
              "name": "Itajuípe",
              "lat": -14.67806,
              "lng": -39.375
            },
            {
              "name": "Itapé",
              "lat": -14.91851,
              "lng": -39.48637
            },
            {
              "name": "Itapitanga",
              "lat": -14.46369,
              "lng": -39.62565
            },
            {
              "name": "Itororó",
              "lat": -15.11694,
              "lng": -40.07028
            },
            {
              "name": "Jussari",
              "lat": -15.15451,
              "lng": -39.51559
            },
            {
              "name": "Mascote",
              "lat": -15.56306,
              "lng": -39.3025
            },
            {
              "name": "Pau Brasil",
              "lat": -15.46417,
              "lng": -39.65111
            },
            {
              "name": "Santa Cruz da Vitória",
              "lat": -14.90311,
              "lng": -39.79148
            },
            {
              "name": "Santa Luzia",
              "lat": -15.46388,
              "lng": -39.27671
            },
            {
              "name": "São José da Vitória",
              "lat": -15.07185,
              "lng": -39.35016
            },
            {
              "name": "Ubaitaba",
              "lat": -14.3125,
              "lng": -39.32333
            },
            {
              "name": "Una",
              "lat": -15.16451,
              "lng": -39.20568
            },
            {
              "name": "Uruçuca",
              "lat": -14.59306,
              "lng": -39.28444
            }
          ]
        },
        {
          "name": "Jequié",
          "lat": -13.85875,
          "lng": -40.08512,
          "subdistricts": [
            {
              "name": "Abaíra",
              "lat": -13.32129,
              "lng": -41.69759
            },
            {
              "name": "Aiquara",
              "lat": -14.11135,
              "lng": -39.87641
            },
            {
              "name": "Andaraí",
              "lat": -12.84167,
              "lng": -41.27679
            },
            {
              "name": "Apuarema",
              "lat": -13.83005,
              "lng": -39.73444
            },
            {
              "name": "Barra da Estiva",
              "lat": -13.62611,
              "lng": -41.32694
            },
            {
              "name": "Barra do Mendes",
              "lat": -12.16094,
              "lng": -42.03542
            },
            {
              "name": "Barra do Rocha",
              "lat": -14.0751,
              "lng": -39.59068
            },
            {
              "name": "Barro Alto",
              "lat": -11.76083,
              "lng": -41.91167
            },
            {
              "name": "Boa Nova",
              "lat": -14.36412,
              "lng": -40.22378
            },
            {
              "name": "Boa Vista do Tupim",
              "lat": -12.87313,
              "lng": -40.62823
            },
            {
              "name": "Bom Jesus da Serra",
              "lat": -14.3838,
              "lng": -40.53982
            },
            {
              "name": "Boninal",
              "lat": -12.80363,
              "lng": -41.68338
            },
            {
              "name": "Bonito",
              "lat": -12.00488,
              "lng": -41.31779
            },
            {
              "name": "Botuporã",
              "lat": -13.29549,
              "lng": -42.52593
            },
            {
              "name": "Canarana",
              "lat": -11.68472,
              "lng": -41.76889
            },
            {
              "name": "Caturama",
              "lat": -13.18601,
              "lng": -42.3025
            },
            {
              "name": "Contendas do Sincorá",
              "lat": -13.79599,
              "lng": -41.05002
            },
            {
              "name": "Cravolândia",
              "lat": -13.47018,
              "lng": -39.75493
            },
            {
              "name": "Dário Meira",
              "lat": -14.4234,
              "lng": -39.95935
            },
            {
              "name": "Dom Basílio",
              "lat": -13.79717,
              "lng": -41.70877
            },
            {
              "name": "Érico Cardoso",
              "lat": -13.43695,
              "lng": -42.10325
            },
            {
              "name": "Gandu",
              "lat": -13.74389,
              "lng": -39.48667
            },
            {
              "name": "Ibicoara",
              "lat": -13.37664,
              "lng": -41.34081
            },
            {
              "name": "Ibipitanga",
              "lat": -12.88655,
              "lng": -42.37115
            },
            {
              "name": "Ibiquera",
              "lat": -12.57265,
              "lng": -40.84158
            },
            {
              "name": "Ibirataia",
              "lat": -14.06694,
              "lng": -39.64056
            },
            {
              "name": "Ibititá",
              "lat": -11.69354,
              "lng": -41.84148
            },
            {
              "name": "Ipiaú",
              "lat": -14.13449,
              "lng": -39.73948
            },
            {
              "name": "Irajuba",
              "lat": -13.17999,
              "lng": -39.9953
            },
            {
              "name": "Iramaia",
              "lat": -13.54627,
              "lng": -40.82834
            },
            {
              "name": "Iraquara",
              "lat": -12.28624,
              "lng": -41.59153
            },
            {
              "name": "Itaeté",
              "lat": -13.08598,
              "lng": -41.02566
            },
            {
              "name": "Itagi",
              "lat": -14.16278,
              "lng": -40.00611
            },
            {
              "name": "Itagibá",
              "lat": -14.28361,
              "lng": -39.84278
            },
            {
              "name": "Itamari",
              "lat": -13.7859,
              "lng": -39.68416
            },
            {
              "name": "Itaquara",
              "lat": -13.4472,
              "lng": -39.9103
            },
            {
              "name": "Itiruçu",
              "lat": -13.53167,
              "lng": -40.15028
            },
            {
              "name": "Ituaçu",
              "lat": -13.81333,
              "lng": -41.29667
            },
            {
              "name": "Jaguaquara",
              "lat": -13.53056,
              "lng": -39.97083
            },
            {
              "name": "Jitaúna",
              "lat": -14.01274,
              "lng": -39.89833
            },
            {
              "name": "Jussiape",
              "lat": -13.4881,
              "lng": -41.62335
            },
            {
              "name": "Lafaiete Coutinho",
              "lat": -13.62029,
              "lng": -40.20444
            },
            {
              "name": "Lajedinho",
              "lat": -12.42698,
              "lng": -41.15097
            },
            {
              "name": "Lajedo do Tabocal",
              "lat": -13.37125,
              "lng": -40.23004
            },
            {
              "name": "Lençóis",
              "lat": -12.47259,
              "lng": -41.30815
            },
            {
              "name": "Livramento do Brumado",
              "lat": -13.65145,
              "lng": -41.84564
            },
            {
              "name": "Manoel Vitorino",
              "lat": -14.00487,
              "lng": -40.48008
            },
            {
              "name": "Maracás",
              "lat": -13.44111,
              "lng": -40.43083
            },
            {
              "name": "Marcionílio Souza",
              "lat": -13.11581,
              "lng": -40.62915
            },
            {
              "name": "Mirante",
              "lat": -14.18613,
              "lng": -40.7831
            },
            {
              "name": "Mucugê",
              "lat": -13.14869,
              "lng": -41.51742
            },
            {
              "name": "Mulungu do Morro",
              "lat": -12.00797,
              "lng": -41.42582
            },
            {
              "name": "Nova Ibiá",
              "lat": -13.8623,
              "lng": -39.58877
            },
            {
              "name": "Nova Redenção",
              "lat": -12.87403,
              "lng": -41.12335
            },
            {
              "name": "Novo Horizonte",
              "lat": -12.87886,
              "lng": -42.13834
            },
            {
              "name": "Palmeiras",
              "lat": -12.51485,
              "lng": -41.57707
            },
            {
              "name": "Paramirim",
              "lat": -13.4425,
              "lng": -42.23889
            },
            {
              "name": "Piatã",
              "lat": -13.12099,
              "lng": -41.89093
            },
            {
              "name": "Piraí do Norte",
              "lat": -13.84971,
              "lng": -39.39208
            },
            {
              "name": "Planaltino",
              "lat": -13.27349,
              "lng": -40.22316
            },
            {
              "name": "Poções",
              "lat": -14.52972,
              "lng": -40.36528
            },
            {
              "name": "Rio de Contas",
              "lat": -13.62169,
              "lng": -41.68702
            },
            {
              "name": "Rio do Pires",
              "lat": -13.11134,
              "lng": -42.17747
            },
            {
              "name": "Santa Inês",
              "lat": -13.29222,
              "lng": -39.81889
            },
            {
              "name": "Seabra",
              "lat": -12.41713,
              "lng": -41.77049
            },
            {
              "name": "Souto Soares",
              "lat": -11.94603,
              "lng": -41.94815
            },
            {
              "name": "Tanhaçu",
              "lat": -14.0701,
              "lng": -41.13506
            },
            {
              "name": "Ubatã",
              "lat": -14.05629,
              "lng": -39.52278
            },
            {
              "name": "Utinga",
              "lat": -12.04274,
              "lng": -41.19475
            },
            {
              "name": "Wagner",
              "lat": -12.2593,
              "lng": -41.22095
            },
            {
              "name": "Wenceslau Guimarães",
              "lat": -13.61819,
              "lng": -39.58092
            }
          ]
        },
        {
          "name": "Juazeiro",
          "lat": -9.39679,
          "lng": -40.23381,
          "subdistricts": [
            {
              "name": "Abaré",
              "lat": -8.80961,
              "lng": -39.27062
            },
            {
              "name": "América Dourada",
              "lat": -11.4694,
              "lng": -41.47335
            },
            {
              "name": "Andorinha",
              "lat": -10.22216,
              "lng": -39.86387
            },
            {
              "name": "Antônio Gonçalves",
              "lat": -10.62282,
              "lng": -40.40933
            },
            {
              "name": "Caldeirão Grande",
              "lat": -11.04347,
              "lng": -40.29515
            },
            {
              "name": "Campo Alegre de Lourdes",
              "lat": -9.50097,
              "lng": -42.98275
            },
            {
              "name": "Campo Formoso",
              "lat": -10.5075,
              "lng": -40.32139
            },
            {
              "name": "Cansanção",
              "lat": -10.73105,
              "lng": -39.47418
            },
            {
              "name": "Casa Nova",
              "lat": -9.10439,
              "lng": -41.15736
            },
            {
              "name": "Central",
              "lat": -11.15424,
              "lng": -42.08146
            },
            {
              "name": "Curaçá",
              "lat": -8.99028,
              "lng": -39.90944
            },
            {
              "name": "Filadélfia",
              "lat": -10.76635,
              "lng": -40.20555
            },
            {
              "name": "Ibipeba",
              "lat": -11.64083,
              "lng": -42.01111
            },
            {
              "name": "Irecê",
              "lat": -11.30417,
              "lng": -41.85583
            },
            {
              "name": "Itaguaçu da Bahia",
              "lat": -10.64259,
              "lng": -42.21083
            },
            {
              "name": "Itiúba",
              "lat": -10.79357,
              "lng": -39.80381
            },
            {
              "name": "Jacobina",
              "lat": -11.18143,
              "lng": -40.51372
            },
            {
              "name": "Jaguarari",
              "lat": -10.26389,
              "lng": -40.19583
            },
            {
              "name": "João Dourado",
              "lat": -11.14883,
              "lng": -41.40438
            },
            {
              "name": "Jussara",
              "lat": -10.96408,
              "lng": -41.85572
            },
            {
              "name": "Laje",
              "lat": -10.18708,
              "lng": -40.97076
            },
            {
              "name": "Lapão",
              "lat": -11.38333,
              "lng": -41.83194
            },
            {
              "name": "Mirangaba",
              "lat": -10.80362,
              "lng": -40.67056
            },
            {
              "name": "Monte Santo",
              "lat": -10.43778,
              "lng": -39.33278
            },
            {
              "name": "Ourolândia",
              "lat": -10.83804,
              "lng": -41.02839
            },
            {
              "name": "Pindobaçu",
              "lat": -10.74167,
              "lng": -40.36083
            },
            {
              "name": "Ponto Novo",
              "lat": -10.86278,
              "lng": -40.13361
            },
            {
              "name": "Presidente Dutra",
              "lat": -11.29503,
              "lng": -41.98563
            },
            {
              "name": "Remanso",
              "lat": -9.54115,
              "lng": -42.36956
            },
            {
              "name": "São Gabriel",
              "lat": -10.95576,
              "lng": -41.55411
            },
            {
              "name": "Saúde",
              "lat": -10.84463,
              "lng": -40.3751
            },
            {
              "name": "Senhor do Bonfim",
              "lat": -10.46139,
              "lng": -40.18944
            },
            {
              "name": "Sento Sé",
              "lat": -10.21251,
              "lng": -41.57947
            },
            {
              "name": "Uauá",
              "lat": -9.84143,
              "lng": -39.23025
            },
            {
              "name": "Uibaí",
              "lat": -11.3906,
              "lng": -42.15615
            },
            {
              "name": "Umburanas",
              "lat": -10.5086,
              "lng": -41.17419
            },
            {
              "name": "Várzea Nova",
              "lat": -11.05523,
              "lng": -41.2323
            }
          ]
        },
        {
          "name": "Lauro de Freitas",
          "lat": -12.89444,
          "lng": -38.32722
        },
        {
          "name": "Luís Eduardo Magalhães",
          "lat": -12.23208,
          "lng": -46.1146
        },
        {
          "name": "Paulo Afonso",
          "lat": -9.55234,
          "lng": -38.16905,
          "subdistricts": [
            {
              "name": "Adustina",
              "lat": -10.48227,
              "lng": -37.98446
            },
            {
              "name": "Antas",
              "lat": -10.42138,
              "lng": -38.30341
            },
            {
              "name": "Banzaê",
              "lat": -10.61578,
              "lng": -38.62688
            },
            {
              "name": "Canudos",
              "lat": -9.87981,
              "lng": -39.14723
            },
            {
              "name": "Chorrochó",
              "lat": -9.3055,
              "lng": -39.15652
            },
            {
              "name": "Cícero Dantas",
              "lat": -10.6,
              "lng": -38.38333
            },
            {
              "name": "Coronel João Sá",
              "lat": -10.38878,
              "lng": -37.94281
            },
            {
              "name": "Euclides da Cunha",
              "lat": -10.5075,
              "lng": -39.01583
            },
            {
              "name": "Fátima",
              "lat": -10.546,
              "lng": -38.22367
            },
            {
              "name": "Glória",
              "lat": -9.11097,
              "lng": -38.40655
            },
            {
              "name": "Heliópolis",
              "lat": -10.72863,
              "lng": -38.2549
            },
            {
              "name": "Jeremoabo",
              "lat": -9.92088,
              "lng": -38.72629
            },
            {
              "name": "Macururé",
              "lat": -9.28091,
              "lng": -38.91463
            },
            {
              "name": "Novo Triunfo",
              "lat": -10.34787,
              "lng": -38.40211
            },
            {
              "name": "Paripiranga",
              "lat": -10.6875,
              "lng": -37.86167
            },
            {
              "name": "Pedro Alexandre",
              "lat": -9.97693,
              "lng": -37.91489
            },
            {
              "name": "Rodelas",
              "lat": -9.21767,
              "lng": -38.64607
            },
            {
              "name": "Santa Brígida",
              "lat": -9.67904,
              "lng": -38.11371
            },
            {
              "name": "Sítio do Quinto",
              "lat": -10.34321,
              "lng": -38.07346
            }
          ]
        },
        {
          "name": "Porto Seguro",
          "lat": -16.44972,
          "lng": -39.06472,
          "subdistricts": [
            {
              "name": "Belmonte",
              "lat": -15.86126,
              "lng": -38.87982
            },
            {
              "name": "Canavieiras",
              "lat": -15.675,
              "lng": -38.94722
            },
            {
              "name": "Santa Cruz Cabrália",
              "lat": -16.27806,
              "lng": -39.02472
            }
          ]
        },
        {
          "name": "Salvador",
          "lat": -12.97111,
          "lng": -38.51083,
          "subdistricts": [
            {
              "name": "Itaparica",
              "lat": -12.90598,
              "lng": -38.66383
            },
            {
              "name": "Salinas da Margarida",
              "lat": -12.90667,
              "lng": -38.78043
            },
            {
              "name": "Saubara",
              "lat": -12.7375,
              "lng": -38.76861
            },
            {
              "name": "Vera Cruz",
              "lat": -13.0255,
              "lng": -38.70906
            }
          ]
        },
        {
          "name": "Santo Antônio de Jesus",
          "lat": -12.96889,
          "lng": -39.26139,
          "subdistricts": [
            {
              "name": "Amargosa",
              "lat": -13.0497,
              "lng": -39.6072
            },
            {
              "name": "Aratuípe",
              "lat": -13.09363,
              "lng": -39.08259
            },
            {
              "name": "Brejões",
              "lat": -13.07059,
              "lng": -39.82099
            },
            {
              "name": "Cafarnaum",
              "lat": -11.69361,
              "lng": -41.46833
            },
            {
              "name": "Cairu",
              "lat": -13.52662,
              "lng": -38.94814
            },
            {
              "name": "Castro Alves",
              "lat": -12.74937,
              "lng": -39.37691
            },
            {
              "name": "Conceição do Almeida",
              "lat": -12.77944,
              "lng": -39.17
            },
            {
              "name": "Cruz das Almas",
              "lat": -12.67,
              "lng": -39.10194
            },
            {
              "name": "Dom Macedo Costa",
              "lat": -12.93379,
              "lng": -39.14621
            },
            {
              "name": "Elísio Medrado",
              "lat": -12.95431,
              "lng": -39.50579
            },
            {
              "name": "Iaçu",
              "lat": -12.76722,
              "lng": -40.21167
            },
            {
              "name": "Igrapiúna",
              "lat": -13.85607,
              "lng": -39.19363
            },
            {
              "name": "Itaberaba",
              "lat": -12.5275,
              "lng": -40.30694
            },
            {
              "name": "Itatim",
              "lat": -12.62835,
              "lng": -39.68234
            },
            {
              "name": "Ituberá",
              "lat": -13.73538,
              "lng": -39.14785
            },
            {
              "name": "Jaguaripe",
              "lat": -13.12834,
              "lng": -39.01339
            },
            {
              "name": "Jiquiriçá",
              "lat": -13.31081,
              "lng": -39.58091
            },
            {
              "name": "Macajuba",
              "lat": -12.14371,
              "lng": -40.30199
            },
            {
              "name": "Maragogipe",
              "lat": -12.77778,
              "lng": -38.91944
            },
            {
              "name": "Milagres",
              "lat": -12.95591,
              "lng": -39.81783
            },
            {
              "name": "Muniz Ferreira",
              "lat": -13.00146,
              "lng": -39.10601
            },
            {
              "name": "Muritiba",
              "lat": -12.91667,
              "lng": -39.25
            },
            {
              "name": "Mutuípe",
              "lat": -13.22861,
              "lng": -39.50472
            },
            {
              "name": "Nazaré",
              "lat": -12.95002,
              "lng": -38.97869
            },
            {
              "name": "Nilo Peçanha",
              "lat": -13.64812,
              "lng": -39.23876
            },
            {
              "name": "Nova Itarana",
              "lat": -13.04028,
              "lng": -40.00784
            },
            {
              "name": "Presidente Tancredo Neves",
              "lat": -13.46145,
              "lng": -39.42126
            },
            {
              "name": "Rafael Jambeiro",
              "lat": -12.50087,
              "lng": -39.50915
            },
            {
              "name": "Ruy Barbosa",
              "lat": -12.28389,
              "lng": -40.49389
            },
            {
              "name": "Santa Teresinha",
              "lat": -12.7700356,
              "lng": -39.5452056
            },
            {
              "name": "Santa Terezinha",
              "lat": -12.6712,
              "lng": -39.55082
            },
            {
              "name": "São Félix",
              "lat": -12.67807,
              "lng": -38.99979
            },
            {
              "name": "São Miguel das Matas",
              "lat": -13.04308,
              "lng": -39.43403
            },
            {
              "name": "Sapeaçu",
              "lat": -12.772,
              "lng": -39.23848
            },
            {
              "name": "Sobradinho",
              "lat": -12.83333,
              "lng": -39.1
            },
            {
              "name": "Taperoá",
              "lat": -13.56959,
              "lng": -39.2202
            },
            {
              "name": "Teolândia",
              "lat": -13.57031,
              "lng": -39.46492
            },
            {
              "name": "Ubaíra",
              "lat": -13.287,
              "lng": -39.69347
            },
            {
              "name": "Valença",
              "lat": -13.37213,
              "lng": -39.24002
            },
            {
              "name": "Varzedo",
              "lat": -12.99662,
              "lng": -39.37091
            }
          ]
        },
        {
          "name": "Simões Filho",
          "lat": -12.78444,
          "lng": -38.40389,
          "subdistricts": [
            {
              "name": "Candeias",
              "lat": -12.65569,
              "lng": -38.487
            },
            {
              "name": "Madre de Deus",
              "lat": -12.74083,
              "lng": -38.62083
            },
            {
              "name": "São Francisco do Conde",
              "lat": -12.64556,
              "lng": -38.63335
            }
          ]
        },
        {
          "name": "Teixeira de Freitas",
          "lat": -17.42402,
          "lng": -39.78697,
          "subdistricts": [
            {
              "name": "Alcobaça",
              "lat": -17.46365,
              "lng": -39.37401
            },
            {
              "name": "Caravelas",
              "lat": -17.65842,
              "lng": -39.35989
            },
            {
              "name": "Ibirapuã",
              "lat": -17.75567,
              "lng": -39.97365
            },
            {
              "name": "Itamaraju",
              "lat": -17.03917,
              "lng": -39.53111
            },
            {
              "name": "Itanhém",
              "lat": -17.16639,
              "lng": -40.33
            },
            {
              "name": "Jucuruçu",
              "lat": -16.84832,
              "lng": -40.08414
            },
            {
              "name": "Lajedão",
              "lat": -17.57112,
              "lng": -40.31123
            },
            {
              "name": "Medeiros Neto",
              "lat": -17.37389,
              "lng": -40.22056
            },
            {
              "name": "Mucuri",
              "lat": -18.08639,
              "lng": -39.55083
            },
            {
              "name": "Nova Viçosa",
              "lat": -17.89194,
              "lng": -39.37194
            },
            {
              "name": "Posto da Mata",
              "lat": -17.88828,
              "lng": -39.85593
            },
            {
              "name": "Prado",
              "lat": -17.31655,
              "lng": -39.23355
            },
            {
              "name": "Vereda",
              "lat": -17.14998,
              "lng": -40.04873
            }
          ]
        },
        {
          "name": "Vitória da Conquista",
          "lat": -15.27953,
          "lng": -40.96575,
          "subdistricts": [
            {
              "name": "Anagé",
              "lat": -14.66168,
              "lng": -41.14703
            },
            {
              "name": "Aracatu",
              "lat": -14.39011,
              "lng": -41.36331
            },
            {
              "name": "Barra do Choça",
              "lat": -15.01024,
              "lng": -40.66731
            },
            {
              "name": "Belo Campo",
              "lat": -14.87419,
              "lng": -41.22671
            },
            {
              "name": "Brumado",
              "lat": -14.20361,
              "lng": -41.66528
            },
            {
              "name": "Caatiba",
              "lat": -14.9761,
              "lng": -40.39048
            },
            {
              "name": "Caculé",
              "lat": -14.38829,
              "lng": -42.41516
            },
            {
              "name": "Caetanos",
              "lat": -14.29234,
              "lng": -41.01004
            },
            {
              "name": "Caetité",
              "lat": -13.97883,
              "lng": -42.49334
            },
            {
              "name": "Candiba",
              "lat": -14.46972,
              "lng": -42.87386
            },
            {
              "name": "Cândido Sales",
              "lat": -15.46082,
              "lng": -41.16353
            },
            {
              "name": "Caraíbas",
              "lat": -14.60631,
              "lng": -41.25763
            },
            {
              "name": "Condeúba",
              "lat": -14.93275,
              "lng": -42.00693
            },
            {
              "name": "Cordeiros",
              "lat": -14.99846,
              "lng": -41.89749
            },
            {
              "name": "Encruzilhada",
              "lat": -15.56839,
              "lng": -40.90789
            },
            {
              "name": "Guajeru",
              "lat": -14.57881,
              "lng": -42.03986
            },
            {
              "name": "Guanambi",
              "lat": -14.22333,
              "lng": -42.78139
            },
            {
              "name": "Ibiassucê",
              "lat": -14.20285,
              "lng": -42.30214
            },
            {
              "name": "Igaporã",
              "lat": -13.89064,
              "lng": -42.76046
            },
            {
              "name": "Itambé",
              "lat": -15.245,
              "lng": -40.62444
            },
            {
              "name": "Itapetinga",
              "lat": -15.24889,
              "lng": -40.24778
            },
            {
              "name": "Iuiu",
              "lat": -14.65015,
              "lng": -43.6487
            },
            {
              "name": "Jacaraci",
              "lat": -14.83523,
              "lng": -42.40112
            },
            {
              "name": "Lagoa Real",
              "lat": -14.10985,
              "lng": -42.21697
            },
            {
              "name": "Licínio de Almeida",
              "lat": -14.70644,
              "lng": -42.50442
            },
            {
              "name": "Livramento de Nossa Senhora",
              "lat": -13.8068,
              "lng": -41.99709
            },
            {
              "name": "Macarani",
              "lat": -15.557,
              "lng": -40.39049
            },
            {
              "name": "Maetinga",
              "lat": -14.6653,
              "lng": -41.49055
            },
            {
              "name": "Maiquinique",
              "lat": -15.69897,
              "lng": -40.26411
            },
            {
              "name": "Malhada de Pedras",
              "lat": -14.27766,
              "lng": -41.89207
            },
            {
              "name": "Matina",
              "lat": -13.89342,
              "lng": -42.98279
            },
            {
              "name": "Mortugaba",
              "lat": -14.9848,
              "lng": -42.40555
            },
            {
              "name": "Nova Canaã",
              "lat": -14.84621,
              "lng": -40.17826
            },
            {
              "name": "Palmas de Monte Alto",
              "lat": -14.26722,
              "lng": -43.16194
            },
            {
              "name": "Pindaí",
              "lat": -14.52319,
              "lng": -42.67822
            },
            {
              "name": "Piripá",
              "lat": -14.92617,
              "lng": -41.75304
            },
            {
              "name": "Planalto",
              "lat": -14.72862,
              "lng": -40.38025
            },
            {
              "name": "Presidente Jânio Quadros",
              "lat": -14.82942,
              "lng": -41.78616
            },
            {
              "name": "Ribeirão do Largo",
              "lat": -15.38558,
              "lng": -40.65886
            },
            {
              "name": "Rio do Antônio",
              "lat": -14.22674,
              "lng": -42.16613
            },
            {
              "name": "Santana",
              "lat": -14.46667,
              "lng": -41.8
            },
            {
              "name": "São Felipe",
              "lat": -14.8386,
              "lng": -41.39174
            },
            {
              "name": "Sebastião Laranjeiras",
              "lat": -14.56848,
              "lng": -43.13729
            },
            {
              "name": "Tanque Novo",
              "lat": -13.58365,
              "lng": -42.54311
            },
            {
              "name": "Tremedal",
              "lat": -14.9008,
              "lng": -41.32339
            },
            {
              "name": "Urandi",
              "lat": -14.734,
              "lng": -42.66544
            }
          ]
        }
      ]
    },
    {
      "name": "Ceará",
      "lat": -5.3264703,
      "lng": -39.7156073,
      "districts": [
        {
          "name": "Caucaia",
          "lat": -3.73611,
          "lng": -38.65306,
          "subdistricts": [
            {
              "name": "Paracuru",
              "lat": -3.41,
              "lng": -39.03056
            },
            {
              "name": "São Gonçalo do Amarante",
              "lat": -3.60722,
              "lng": -38.96833
            }
          ]
        },
        {
          "name": "Crato",
          "lat": -7.14714,
          "lng": -39.47132,
          "subdistricts": [
            {
              "name": "Aiuaba",
              "lat": -6.58896,
              "lng": -40.23948
            },
            {
              "name": "Altaneira",
              "lat": -6.98737,
              "lng": -39.7274
            },
            {
              "name": "Antonina do Norte",
              "lat": -6.73622,
              "lng": -39.97882
            },
            {
              "name": "Araripe",
              "lat": -7.20462,
              "lng": -40.11426
            },
            {
              "name": "Assaré",
              "lat": -6.89746,
              "lng": -39.82906
            },
            {
              "name": "Campos Sales",
              "lat": -6.92527,
              "lng": -40.22188
            },
            {
              "name": "Farias Brito",
              "lat": -6.88662,
              "lng": -39.53406
            },
            {
              "name": "Nova Olinda",
              "lat": -7.08567,
              "lng": -39.67195
            },
            {
              "name": "Potengi",
              "lat": -7.03279,
              "lng": -40.04012
            },
            {
              "name": "Salitre",
              "lat": -7.13795,
              "lng": -40.28978
            },
            {
              "name": "Santana do Cariri",
              "lat": -7.17968,
              "lng": -39.78451
            },
            {
              "name": "Tarrafas",
              "lat": -6.73736,
              "lng": -39.72329
            }
          ]
        },
        {
          "name": "Fortaleza",
          "lat": -3.71722,
          "lng": -38.54306
        },
        {
          "name": "Iguatu",
          "lat": -6.3555,
          "lng": -39.27683,
          "subdistricts": [
            {
              "name": "Acopiara",
              "lat": -6.11312,
              "lng": -39.51756
            },
            {
              "name": "Alto Santo",
              "lat": -5.5241,
              "lng": -38.20916
            },
            {
              "name": "Arneiroz",
              "lat": -6.23607,
              "lng": -40.094
            },
            {
              "name": "Baixio",
              "lat": -6.70726,
              "lng": -38.75748
            },
            {
              "name": "Banabuiú",
              "lat": -5.23555,
              "lng": -38.87457
            },
            {
              "name": "Cariús",
              "lat": -6.65619,
              "lng": -39.47496
            },
            {
              "name": "Catarina",
              "lat": -6.25016,
              "lng": -39.9487
            },
            {
              "name": "Cedro",
              "lat": -6.59104,
              "lng": -39.12042
            },
            {
              "name": "Deputado Irapuan Pinheiro",
              "lat": -5.88737,
              "lng": -39.25923
            },
            {
              "name": "Ererê",
              "lat": -5.99731,
              "lng": -38.3118
            },
            {
              "name": "Icó",
              "lat": -6.35186,
              "lng": -38.75674
            },
            {
              "name": "Independência",
              "lat": -5.47187,
              "lng": -40.32314
            },
            {
              "name": "Ipaumirim",
              "lat": -6.80882,
              "lng": -38.73227
            },
            {
              "name": "Iracema",
              "lat": -5.81274,
              "lng": -38.35285
            },
            {
              "name": "Jaguaretama",
              "lat": -5.4833,
              "lng": -38.75595
            },
            {
              "name": "Jaguaribara",
              "lat": -5.65027,
              "lng": -38.51031
            },
            {
              "name": "Jaguaribe",
              "lat": -5.97256,
              "lng": -38.68571
            },
            {
              "name": "Jucás",
              "lat": -6.44677,
              "lng": -39.62005
            },
            {
              "name": "Lavras da Mangabeira",
              "lat": -6.75333,
              "lng": -38.96444
            },
            {
              "name": "Milhã",
              "lat": -5.66904,
              "lng": -39.22525
            },
            {
              "name": "Mombaça",
              "lat": -5.79217,
              "lng": -39.77985
            },
            {
              "name": "Novo Oriente",
              "lat": -5.58278,
              "lng": -40.74014
            },
            {
              "name": "Orós",
              "lat": -6.25502,
              "lng": -38.96761
            },
            {
              "name": "Parambu",
              "lat": -6.25405,
              "lng": -40.60876
            },
            {
              "name": "Pedra Branca",
              "lat": -5.49336,
              "lng": -39.85259
            },
            {
              "name": "Pereiro",
              "lat": -6.04085,
              "lng": -38.48892
            },
            {
              "name": "Piquet Carneiro",
              "lat": -5.86038,
              "lng": -39.4558
            },
            {
              "name": "Potiretama",
              "lat": -5.75401,
              "lng": -38.18249
            },
            {
              "name": "Quiterianópolis",
              "lat": -5.88995,
              "lng": -40.72808
            },
            {
              "name": "Quixelô",
              "lat": -6.15064,
              "lng": -39.11702
            },
            {
              "name": "Quixeramobim",
              "lat": -5.13424,
              "lng": -39.33459
            },
            {
              "name": "Saboeiro",
              "lat": -6.47813,
              "lng": -39.88569
            },
            {
              "name": "São João dos Inhamuns",
              "lat": -6,
              "lng": -40.28333
            },
            {
              "name": "Senador Pompeu",
              "lat": -5.58806,
              "lng": -39.37167
            },
            {
              "name": "Solonópole",
              "lat": -5.87073,
              "lng": -39.0121
            },
            {
              "name": "Tauá",
              "lat": -5.90848,
              "lng": -40.27279
            },
            {
              "name": "Umari",
              "lat": -6.60924,
              "lng": -38.71952
            },
            {
              "name": "Várzea Alegre",
              "lat": -5.35,
              "lng": -40.38333
            }
          ]
        },
        {
          "name": "Itapipoca",
          "lat": -3.49444,
          "lng": -39.57861,
          "subdistricts": [
            {
              "name": "Acaraú",
              "lat": -2.95424,
              "lng": -40.08597
            },
            {
              "name": "Amontada",
              "lat": -3.27941,
              "lng": -39.80582
            },
            {
              "name": "Apuiarés",
              "lat": -3.95004,
              "lng": -39.30373
            },
            {
              "name": "Bela Cruz",
              "lat": -3.05056,
              "lng": -40.16778
            },
            {
              "name": "Cruz",
              "lat": -2.89619,
              "lng": -40.33573
            },
            {
              "name": "General Sampaio",
              "lat": -4.05016,
              "lng": -39.44451
            },
            {
              "name": "Itapagé",
              "lat": -3.68667,
              "lng": -39.58611
            },
            {
              "name": "Itapajé",
              "lat": -3.73339,
              "lng": -39.56508
            },
            {
              "name": "Itarema",
              "lat": -3.08336,
              "lng": -39.89698
            },
            {
              "name": "Morrinhos",
              "lat": -3.28421,
              "lng": -40.09125
            },
            {
              "name": "Paraipaba",
              "lat": -3.43944,
              "lng": -39.14833
            },
            {
              "name": "São Luís do Curu",
              "lat": -3.64119,
              "lng": -39.24877
            },
            {
              "name": "Trairi",
              "lat": -3.33156,
              "lng": -39.38032
            },
            {
              "name": "Tururu",
              "lat": -3.53335,
              "lng": -39.37556
            },
            {
              "name": "Umirim",
              "lat": -3.70599,
              "lng": -39.39689
            },
            {
              "name": "Uruburetama",
              "lat": -3.62829,
              "lng": -39.5476
            }
          ]
        },
        {
          "name": "Juazeiro do Norte",
          "lat": -7.21306,
          "lng": -39.31528,
          "subdistricts": [
            {
              "name": "Abaiara",
              "lat": -7.33642,
              "lng": -39.06129
            },
            {
              "name": "Aurora",
              "lat": -7.00011,
              "lng": -38.97042
            },
            {
              "name": "Barbalha",
              "lat": -7.43604,
              "lng": -39.35273
            },
            {
              "name": "Barro",
              "lat": -7.13537,
              "lng": -38.73373
            },
            {
              "name": "Brejo Santo",
              "lat": -7.62229,
              "lng": -38.88195
            },
            {
              "name": "Caririaçu",
              "lat": -7.0417,
              "lng": -39.25423
            },
            {
              "name": "Granjeiro",
              "lat": -6.91745,
              "lng": -39.27944
            },
            {
              "name": "Jardim",
              "lat": -7.63821,
              "lng": -39.24037
            },
            {
              "name": "Jati",
              "lat": -7.7047,
              "lng": -38.94361
            },
            {
              "name": "Mauriti",
              "lat": -7.38806,
              "lng": -38.63645
            },
            {
              "name": "Milagres",
              "lat": -7.26057,
              "lng": -38.96244
            },
            {
              "name": "Missão Velha",
              "lat": -7.23707,
              "lng": -39.11196
            },
            {
              "name": "Penaforte",
              "lat": -7.80046,
              "lng": -39.04704
            },
            {
              "name": "Porteiras",
              "lat": -7.59509,
              "lng": -39.07443
            }
          ]
        },
        {
          "name": "Maracanaú",
          "lat": -3.87667,
          "lng": -38.62556,
          "subdistricts": [
            {
              "name": "Aquiraz",
              "lat": -3.90157,
              "lng": -38.39127
            },
            {
              "name": "Aracati",
              "lat": -4.56513,
              "lng": -37.76688
            },
            {
              "name": "Beberibe",
              "lat": -4.17972,
              "lng": -38.13056
            },
            {
              "name": "Cascavel",
              "lat": -4.27004,
              "lng": -38.27377
            },
            {
              "name": "Eusébio",
              "lat": -3.8695,
              "lng": -38.45545
            },
            {
              "name": "Fortim",
              "lat": -4.44714,
              "lng": -37.85289
            },
            {
              "name": "Icapuí",
              "lat": -4.72337,
              "lng": -37.41335
            },
            {
              "name": "Itaitinga",
              "lat": -3.96944,
              "lng": -38.52806
            },
            {
              "name": "Pacatuba",
              "lat": -3.97623,
              "lng": -38.62922
            },
            {
              "name": "Pindoretama",
              "lat": -4.06156,
              "lng": -38.2945
            }
          ]
        },
        {
          "name": "Maranguape",
          "lat": -3.99581,
          "lng": -38.72969,
          "subdistricts": [
            {
              "name": "Acarape",
              "lat": -4.20565,
              "lng": -38.6916
            },
            {
              "name": "Aracoiaba",
              "lat": -4.49045,
              "lng": -38.67765
            },
            {
              "name": "Aratuba",
              "lat": -4.41898,
              "lng": -39.04818
            },
            {
              "name": "Barreira",
              "lat": -4.37049,
              "lng": -38.61021
            },
            {
              "name": "Baturité",
              "lat": -4.37308,
              "lng": -38.85915
            },
            {
              "name": "Canindé",
              "lat": -4.40473,
              "lng": -39.41746
            },
            {
              "name": "Capistrano",
              "lat": -4.4623,
              "lng": -38.92072
            },
            {
              "name": "Caridade",
              "lat": -4.201,
              "lng": -39.14149
            },
            {
              "name": "Choró",
              "lat": -4.77277,
              "lng": -39.17779
            },
            {
              "name": "Chorozinho",
              "lat": -4.29181,
              "lng": -38.48895
            },
            {
              "name": "Guaiúba",
              "lat": -4.03972,
              "lng": -38.63722
            },
            {
              "name": "Guaramiranga",
              "lat": -4.22177,
              "lng": -38.96451
            },
            {
              "name": "Horizonte",
              "lat": -4.11458,
              "lng": -38.51498
            },
            {
              "name": "Ibaretama",
              "lat": -4.75045,
              "lng": -38.66571
            },
            {
              "name": "Ibicuitinga",
              "lat": -4.96187,
              "lng": -38.52019
            },
            {
              "name": "Itaiçaba",
              "lat": -4.70171,
              "lng": -37.82908
            },
            {
              "name": "Itapiúna",
              "lat": -4.61918,
              "lng": -38.9313
            },
            {
              "name": "Jaguaruana",
              "lat": -4.81405,
              "lng": -37.79248
            },
            {
              "name": "Limoeiro do Norte",
              "lat": -5.17406,
              "lng": -38.02656
            },
            {
              "name": "Madalena",
              "lat": -4.87622,
              "lng": -39.47587
            },
            {
              "name": "Morada Nova",
              "lat": -5.10667,
              "lng": -38.3725
            },
            {
              "name": "Mulungu",
              "lat": -4.30636,
              "lng": -38.98955
            },
            {
              "name": "Ocara",
              "lat": -4.49083,
              "lng": -38.59667
            },
            {
              "name": "Pacajus",
              "lat": -4.1725,
              "lng": -38.46056
            },
            {
              "name": "Pacoti",
              "lat": -4.19575,
              "lng": -38.90252
            },
            {
              "name": "Palhano",
              "lat": -4.66056,
              "lng": -38.04453
            },
            {
              "name": "Palmácia",
              "lat": -4.12964,
              "lng": -38.84258
            },
            {
              "name": "Paramoti",
              "lat": -4.14739,
              "lng": -39.36219
            },
            {
              "name": "Pentecoste",
              "lat": -3.85116,
              "lng": -39.1985
            },
            {
              "name": "Quixadá",
              "lat": -4.97056,
              "lng": -39.01812
            },
            {
              "name": "Quixeré",
              "lat": -5.07417,
              "lng": -37.98861
            },
            {
              "name": "Redenção",
              "lat": -4.22583,
              "lng": -38.73056
            },
            {
              "name": "Russas",
              "lat": -4.8399,
              "lng": -38.19597
            },
            {
              "name": "São João do Jaguaribe",
              "lat": -5.31884,
              "lng": -38.26878
            },
            {
              "name": "Tabuleiro do Norte",
              "lat": -5.29109,
              "lng": -38.07247
            }
          ]
        },
        {
          "name": "Sobral",
          "lat": -3.85932,
          "lng": -40.04376,
          "subdistricts": [
            {
              "name": "Alcântaras",
              "lat": -3.58733,
              "lng": -40.55517
            },
            {
              "name": "Ararendá",
              "lat": -4.77058,
              "lng": -40.75389
            },
            {
              "name": "Barroquinha",
              "lat": -3.01889,
              "lng": -41.13611
            },
            {
              "name": "Boa Viagem",
              "lat": -5.02536,
              "lng": -39.84169
            },
            {
              "name": "Camocim",
              "lat": -2.90222,
              "lng": -40.84111
            },
            {
              "name": "Cariré",
              "lat": -3.93586,
              "lng": -40.54679
            },
            {
              "name": "Carnaubal",
              "lat": -4.12097,
              "lng": -41.01368
            },
            {
              "name": "Catunda",
              "lat": -4.60469,
              "lng": -40.1863
            },
            {
              "name": "Chaval",
              "lat": -3.07497,
              "lng": -41.23723
            },
            {
              "name": "Coreaú",
              "lat": -3.68827,
              "lng": -40.72725
            },
            {
              "name": "Crateús",
              "lat": -5.25084,
              "lng": -40.74335
            },
            {
              "name": "Croatá",
              "lat": -4.39092,
              "lng": -40.86795
            },
            {
              "name": "Forquilha",
              "lat": -3.83354,
              "lng": -40.23431
            },
            {
              "name": "Frecheirinha",
              "lat": -3.72816,
              "lng": -40.82027
            },