{
  "name": "Canada",
  "lat": 60,
  "lng": -95,
  "cities": [
    {
      "name": "Alberta",
      "lat": 55.001251,
      "lng": -115.002136,
      "districts": [
        {
          "name": "Calgary",
          "lat": 51.05011,
          "lng": -114.08529,
          "subdistricts": [
            {
              "name": "Airdrie",
              "lat": 51.30011,
              "lng": -114.03528
            },
            {
              "name": "Banff",
              "lat": 51.17622,
              "lng": -115.56982
            },
            {
              "name": "Bassano",
              "lat": 50.78342,
              "lng": -112.46854
            },
            {
              "name": "Black Diamond",
              "lat": 50.70011,
              "lng": -114.2353
            },
            {
              "name": "Bow Island",
              "lat": 49.86676,
              "lng": -111.36843
            },
            {
              "name": "Brooks",
              "lat": 50.58341,
              "lng": -111.88509
            },
            {
              "name": "Canmore",
              "lat": 51.08335,
              "lng": -115.35206
            },
            {
              "name": "Cardston",
              "lat": 49.19998,
              "lng": -113.3019
            },
            {
              "name": "Carstairs",
              "lat": 51.56681,
              "lng": -114.102
            },
            {
              "name": "Chestermere",
              "lat": 51.03341,
              "lng": -113.81867
            },
            {
              "name": "Claresholm",
              "lat": 50.03332,
              "lng": -113.58524
            },
            {
              "name": "Coaldale",
              "lat": 49.7167,
              "lng": -112.61854
            },
            {
              "name": "Coalhurst",
              "lat": 49.7464,
              "lng": -112.93246
            },
            {
              "name": "Cochrane",
              "lat": 51.18341,
              "lng": -114.46871
            },
            {
              "name": "Crossfield",
              "lat": 51.43341,
              "lng": -114.03528
            },
            {
              "name": "Didsbury",
              "lat": 51.66681,
              "lng": -114.13529
            },
            {
              "name": "Fort Macleod",
              "lat": 49.71671,
              "lng": -113.41857
            },
            {
              "name": "Heritage Pointe",
              "lat": 50.84213,
              "lng": -114.00493
            },
            {
              "name": "High River",
              "lat": 50.58341,
              "lng": -113.86867
            },
            {
              "name": "Irricana",
              "lat": 51.32372,
              "lng": -113.60475
            },
            {
              "name": "Lethbridge",
              "lat": 49.69999,
              "lng": -112.81856
            },
            {
              "name": "Magrath",
              "lat": 49.41668,
              "lng": -112.86856
            },
            {
              "name": "Medicine Hat",
              "lat": 50.03928,
              "lng": -110.67661
            },
            {
              "name": "Nanton",
              "lat": 50.35008,
              "lng": -113.76866
            },
            {
              "name": "Okotoks",
              "lat": 50.72885,
              "lng": -113.98281
            },
            {
              "name": "Picture Butte",
              "lat": 49.8833,
              "lng": -112.78516
            },
            {
              "name": "Pincher Creek",
              "lat": 49.48328,
              "lng": -113.95195
            },
            {
              "name": "Raymond",
              "lat": 49.44998,
              "lng": -112.65185
            },
            {
              "name": "Strathmore",
              "lat": 51.05011,
              "lng": -113.38523
            },
            {
              "name": "Sundre",
              "lat": 51.8001,
              "lng": -114.63532
            },
            {
              "name": "Taber",
              "lat": 49.78703,
              "lng": -112.14603
            },
            {
              "name": "Vulcan",
              "lat": 50.40008,
              "lng": -113.25189
            }
          ]
        },
        {
          "name": "Edmonton",
          "lat": 53.55014,
          "lng": -113.46871,
          "subdistricts": [
            {
              "name": "Athabasca",
              "lat": 54.71687,
              "lng": -113.28537
            },
            {
              "name": "Barrhead",
              "lat": 54.13345,
              "lng": -114.40211
            },
            {
              "name": "Beaumont",
              "lat": 53.35013,
              "lng": -113.41871
            },
            {
              "name": "Beaverlodge",
              "lat": 55.21664,
              "lng": -119.43605
            },
            {
              "name": "Bon Accord",
              "lat": 53.83345,
              "lng": -113.41872
            },
            {
              "name": "Bonnyville",
              "lat": 54.26684,
              "lng": -110.73505
            },
            {
              "name": "Calmar",
              "lat": 53.26683,
              "lng": -113.81874
            },
            {
              "name": "Camrose",
              "lat": 53.01684,
              "lng": -112.83525
            },
            {
              "name": "Cold Lake",
              "lat": 54.46525,
              "lng": -110.18154
            },
            {
              "name": "Devon",
              "lat": 53.36683,
              "lng": -113.73533
            },
            {
              "name": "Elk Point",
              "lat": 53.90017,
              "lng": -110.9017
            },
            {
              "name": "Fairview",
              "lat": 56.06675,
              "lng": -118.38606
            },
            {
              "name": "Falher",
              "lat": 55.73339,
              "lng": -117.20262
            },
            {
              "name": "Fort McMurray",
              "lat": 56.72676,
              "lng": -111.38103
            },
            {
              "name": "Fort Saskatchewan",
              "lat": 53.71684,
              "lng": -113.2187
            },
            {
              "name": "Fox Creek",
              "lat": 54.40007,
              "lng": -116.80238
            },
            {
              "name": "Gibbons",
              "lat": 53.83345,
              "lng": -113.33531
            },
            {
              "name": "Grand Centre",
              "lat": 54.41628,
              "lng": -110.21304
            },
            {
              "name": "Grande Prairie",
              "lat": 55.16667,
              "lng": -118.80271
            },
            {
              "name": "Grimshaw",
              "lat": 56.18339,
              "lng": -117.6027
            },
            {
              "name": "High Level",
              "lat": 58.51688,
              "lng": -117.13605
            },
            {
              "name": "High Prairie",
              "lat": 55.4334,
              "lng": -116.4858
            },
            {
              "name": "Killam",
              "lat": 52.78344,
              "lng": -111.85175
            },
            {
              "name": "Lac La Biche",
              "lat": 54.7669,
              "lng": -111.96861
            },
            {
              "name": "Lamont",
              "lat": 53.76686,
              "lng": -112.80195
            },
            {
              "name": "Larkspur",
              "lat": 53.47942,
              "lng": -113.38142
            },
            {
              "name": "Laurel",
              "lat": 53.44667,
              "lng": -113.38197
            },
            {
              "name": "Leduc",
              "lat": 53.26682,
              "lng": -113.55201
            },
            {
              "name": "Lloydminster",
              "lat": 53.27237,
              "lng": -110.02256
            },
            {
              "name": "Manning",
              "lat": 56.91683,
              "lng": -117.61945
            },
            {
              "name": "Mannville",
              "lat": 53.33764,
              "lng": -111.1775
            },
            {
              "name": "Maple Ridge",
              "lat": 53.50172,
              "lng": -113.36274
            },
            {
              "name": "Mayerthorpe",
              "lat": 53.95015,
              "lng": -115.13547
            },
            {
              "name": "Mill Woods Town Centre",
              "lat": 53.45639,
              "lng": -113.42751
            },
            {
              "name": "Millet",
              "lat": 53.10013,
              "lng": -113.4687
            },
            {
              "name": "Morinville",
              "lat": 53.80014,
              "lng": -113.65203
            },
            {
              "name": "Peace River",
              "lat": 56.23715,
              "lng": -117.29176
            },
            {
              "name": "Provost",
              "lat": 52.35014,
              "lng": -110.26828
            },
            {
              "name": "Rideau Park",
              "lat": 53.47899,
              "lng": -113.5047
            },
            {
              "name": "Sexsmith",
              "lat": 55.34998,
              "lng": -118.78602
            },
            {
              "name": "Sherwood Park",
              "lat": 53.51684,
              "lng": -113.3187
            },
            {
              "name": "Silver Berry",
              "lat": 53.45787,
              "lng": -113.3817
            },
            {
              "name": "Slave Lake",
              "lat": 55.28344,
              "lng": -114.76896
            },
            {
              "name": "Smoky Lake",
              "lat": 54.11687,
              "lng": -112.46863
            },
            {
              "name": "Spirit River",
              "lat": 55.78327,
              "lng": -118.83607
            },
            {
              "name": "Spruce Grove",
              "lat": 53.53344,
              "lng": -113.91874
            },
            {
              "name": "St. Albert",
              "lat": 53.63344,
              "lng": -113.63533
            },
            {
              "name": "Stony Plain",
              "lat": 53.53343,
              "lng": -114.00205
            },
            {
              "name": "Swan Hills",
              "lat": 54.71681,
              "lng": -115.40226
            },
            {
              "name": "Tamarack",
              "lat": 53.46441,
              "lng": -113.36235
            },
            {
              "name": "Tofield",
              "lat": 53.36684,
              "lng": -112.66862
            },
            {
              "name": "Two Hills",
              "lat": 53.71686,
              "lng": -111.75181
            },
            {
              "name": "Valleyview",
              "lat": 55.06673,
              "lng": -117.28585
            },
            {
              "name": "Vegreville",
              "lat": 53.50015,
              "lng": -112.05182
            },
            {
              "name": "Vermilion",
              "lat": 53.35409,
              "lng": -110.85849
            },
            {
              "name": "Viking",
              "lat": 53.10014,
              "lng": -111.76844
            },
            {
              "name": "Wainwright",
              "lat": 52.83482,
              "lng": -110.85342
            },
            {
              "name": "Wembley",
              "lat": 55.14995,
              "lng": -119.13602
            },
            {
              "name": "Westlake",
              "lat": 55.22228,
              "lng": -118.80415
            },
            {
              "name": "Westlock",
              "lat": 54.15016,
              "lng": -113.86876
            },
            {
              "name": "Wetaskiwin",
              "lat": 52.96683,
              "lng": -113.36869
            },
            {
              "name": "Whitecourt",
              "lat": 54.15015,
              "lng": -115.68548
            },
            {
              "name": "Wild Rose",
              "lat": 53.4708,
              "lng": -113.38119
            }
          ]
        },
        {
          "name": "Red Deer",
          "lat": 52.26682,
          "lng": -113.802,
          "subdistricts": [
            {
              "name": "Blackfalds",
              "lat": 52.38342,
              "lng": -113.7853
            },
            {
              "name": "Drayton Valley",
              "lat": 53.21682,
              "lng": -114.98544
            },
            {
              "name": "Edson",
              "lat": 53.58345,
              "lng": -116.43559
            },
            {
              "name": "Grande Cache",
              "lat": 53.88335,
              "lng": -119.13585
            },
            {
              "name": "Hanna",
              "lat": 51.63343,
              "lng": -111.90181
            },
            {
              "name": "Hinton",
              "lat": 53.40009,
              "lng": -117.58567
            },
            {
              "name": "Jasper Park Lodge",
              "lat": 52.88633,
              "lng": -118.05625
            },
            {
              "name": "Lacombe",
              "lat": 52.46681,
              "lng": -113.7353
            },
            {
              "name": "Olds",
              "lat": 51.78341,
              "lng": -114.10199
            },
            {
              "name": "Penhold",
              "lat": 52.13342,
              "lng": -113.8687
            },
            {
              "name": "Ponoka",
              "lat": 52.6768,
              "lng": -113.58147
            },
            {
              "name": "Rimbey",
              "lat": 52.6334,
              "lng": -114.23532
            },
            {
              "name": "Rocky Mountain House",
              "lat": 52.36683,
              "lng": -114.9188
            },
            {
              "name": "Springbrook",
              "lat": 52.1792,
              "lng": -113.87981
            },
            {
              "name": "Stettler",
              "lat": 52.31683,
              "lng": -112.71861
            },
            {
              "name": "Sylvan Lake",
              "lat": 52.311,
              "lng": -114.08375
            },
            {
              "name": "Three Hills",
              "lat": 51.70012,
              "lng": -113.26863
            }
          ]
        }
      ]
    },
    {
      "name": "British Columbia",
      "lat": 55.001251,
      "lng": -125.002441,
      "districts": [
        {
          "name": "Abbotsford",
          "lat": 49.05798,
          "lng": -122.25257,
          "subdistricts": [
            {
              "name": "Aldergrove East",
              "lat": 49.05593,
              "lng": -122.42299
            },
            {
              "name": "Chilliwack",
              "lat": 49.16638,
              "lng": -121.95257
            },
            {
              "name": "Mission",
              "lat": 49.13298,
              "lng": -122.30258
            }
          ]
        },
        {
          "name": "Burnaby",
          "lat": 49.26636,
          "lng": -122.95263
        },
        {
          "name": "Coquitlam",
          "lat": 49.2846,
          "lng": -122.78217,
          "subdistricts": [
            {
              "name": "Anmore",
              "lat": 49.31637,
              "lng": -122.85263
            },
            {
              "name": "Pitt Meadows",
              "lat": 49.22119,
              "lng": -122.68965
            },
            {
              "name": "Port Coquitlam",
              "lat": 49.26637,
              "lng": -122.76932
            },
            {
              "name": "Port Moody",
              "lat": 49.28124,
              "lng": -122.82457
            }
          ]
        },
        {
          "name": "Delta",
          "lat": 49.14399,
          "lng": -122.9068,
          "subdistricts": [
            {
              "name": "New Westminster",
              "lat": 49.20678,
              "lng": -122.91092
            }
          ]
        },
        {
          "name": "Fraser Valley Regional",
          "lat": 49.58299,
          "lng": -121.83587,
          "subdistricts": [
            {
              "name": "Agassiz",
              "lat": 49.23298,
              "lng": -121.76926
            },
            {
              "name": "Ashcroft",
              "lat": 50.72372,
              "lng": -121.28207
            },
            {
              "name": "Cache Creek",
              "lat": 50.81011,
              "lng": -121.3246
            },
            {
              "name": "Fort Nelson",
              "lat": 58.80533,
              "lng": -122.7002
            },
            {
              "name": "Hope",
              "lat": 49.38299,
              "lng": -121.44144
            },
            {
              "name": "Lillooet",
              "lat": 50.6856,
              "lng": -121.942
            },
            {
              "name": "Logan Lake",
              "lat": 50.49976,
              "lng": -120.80253
            },
            {
              "name": "Mackenzie",
              "lat": 55.33637,
              "lng": -123.09374
            },
            {
              "name": "Merritt",
              "lat": 50.11225,
              "lng": -120.7942
            },
            {
              "name": "Peace River Regional",
              "lat": 56.6665,
              "lng": -122.75302
            },
            {
              "name": "Prince George",
              "lat": 53.9166,
              "lng": -122.75301
            },
            {
              "name": "Quesnel",
              "lat": 52.97842,
              "lng": -122.4931
            },
            {
              "name": "Williams Lake",
              "lat": 52.14153,
              "lng": -122.14451
            }
          ]
        },
        {
          "name": "Kelowna",
          "lat": 49.88307,
          "lng": -119.48568,
          "subdistricts": [
            {
              "name": "Grand Forks",
              "lat": 49.03309,
              "lng": -118.4356
            },
            {
              "name": "Okanagan Falls",
              "lat": 49.35,
              "lng": -119.56667
            },
            {
              "name": "Oliver",
              "lat": 49.18306,
              "lng": -119.5524
            },
            {
              "name": "Osoyoos",
              "lat": 49.03306,
              "lng": -119.45237
            },
            {
              "name": "Peachland",
              "lat": 49.76647,
              "lng": -119.73568
            },
            {
              "name": "Penticton",
              "lat": 49.48062,
              "lng": -119.58584
            },
            {
              "name": "Princeton",
              "lat": 49.45802,
              "lng": -120.51076
            },
            {
              "name": "Summerland",
              "lat": 49.59977,
              "lng": -119.66911
            },
            {
              "name": "West Kelowna",
              "lat": 49.8625,
              "lng": -119.58333
            }
          ]
        },
        {
          "name": "Langley",
          "lat": 49.10107,
          "lng": -122.65883,
          "subdistricts": [
            {
              "name": "Aldergrove",
              "lat": 49.05801,
              "lng": -122.47087
            },
            {
              "name": "Maple Ridge",
              "lat": 49.21939,
              "lng": -122.60193
            },
            {
              "name": "Walnut Grove",
              "lat": 49.16473,
              "lng": -122.64042
            }
          ]
        },
        {
          "name": "Metro Vancouver Regional",
          "lat": 49.33296,
          "lng": -123.00264,
          "subdistricts": [
            {
              "name": "Burns Lake",
              "lat": 54.22972,
              "lng": -125.76084
            },
            {
              "name": "Hanceville",
              "lat": 51.91922,
              "lng": -123.04458
            },
            {
              "name": "Houston",
              "lat": 54.39976,
              "lng": -126.67008
            },
            {
              "name": "North Vancouver",
              "lat": 49.31636,
              "lng": -123.06934
            },
            {
              "name": "Pemberton",
              "lat": 50.31641,
              "lng": -122.80273
            },
            {
              "name": "Vanderhoof",
              "lat": 54.01657,
              "lng": -124.01982
            },
            {
              "name": "Whistler",
              "lat": 50.11817,
              "lng": -122.95396
            }
          ]
        },
        {
          "name": "Regional District of Central Okanagan",
          "lat": 49.99978,
          "lng": -119.41908,
          "subdistricts": [
            {
              "name": "Armstrong",
              "lat": 50.44979,
              "lng": -119.20235
            },
            {
              "name": "Barrière",
              "lat": 51.18308,
              "lng": -120.1192
            },
            {
              "name": "Castlegar",
              "lat": 49.32317,
              "lng": -117.65831
            },
            {
              "name": "Chase",
              "lat": 50.8165,
              "lng": -119.68571
            },
            {
              "name": "Chetwynd",
              "lat": 55.69988,
              "lng": -121.63627
            },
            {
              "name": "Cranbrook",
              "lat": 49.49991,
              "lng": -115.76879
            },
            {
              "name": "Creston",
              "lat": 49.09987,
              "lng": -116.50211
            },
            {
              "name": "Dawson Creek",
              "lat": 55.75984,
              "lng": -120.2403
            },
            {
              "name": "Duck Lake",
              "lat": 50.0088,
              "lng": -119.39672
            },
            {
              "name": "Elkford",
              "lat": 50.05007,
              "lng": -114.8854
            },
            {
              "name": "Ellison",
              "lat": 49.93307,
              "lng": -119.36907
            },
            {
              "name": "Enderby",
              "lat": 50.5498,
              "lng": -119.15234
            },
            {
              "name": "Fernie",
              "lat": 49.49996,
              "lng": -115.06871
            },
            {
              "name": "Fort St. John",
              "lat": 56.24988,
              "lng": -120.85292
            },
            {
              "name": "Fruitvale",
              "lat": 49.11654,
              "lng": -117.55222
            },
            {
              "name": "Golden",
              "lat": 51.29995,
              "lng": -116.9689
            },
            {
              "name": "Invermere",
              "lat": 50.51666,
              "lng": -116.03538
            },
            {
              "name": "Kamloops",
              "lat": 50.66648,
              "lng": -120.3192
            },
            {
              "name": "Kimberley",
              "lat": 49.67071,
              "lng": -115.9776
            },
            {
              "name": "Lumby",
              "lat": 50.24979,
              "lng": -118.96904
            },
            {
              "name": "Nakusp",
              "lat": 50.24987,
              "lng": -117.80226
            },
            {
              "name": "Nelson",
              "lat": 49.49985,
              "lng": -117.28553
            },
            {
              "name": "Okanagan",
              "lat": 50.36386,
              "lng": -119.34997
            },
            {
              "name": "Revelstoke",
              "lat": 50.99712,
              "lng": -118.1953
            },
            {
              "name": "Rossland",
              "lat": 49.08313,
              "lng": -117.80224
            },
            {
              "name": "Salmo",
              "lat": 49.19986,
              "lng": -117.2689
            },
            {
              "name": "Salmon Arm",
              "lat": 50.6998,
              "lng": -119.30237
            },
            {
              "name": "Sicamous",
              "lat": 50.83312,
              "lng": -118.98565
            },
            {
              "name": "Sparwood",
              "lat": 49.73332,
              "lng": -114.88532
            },
            {
              "name": "Trail",
              "lat": 49.09983,
              "lng": -117.70223
            },
            {
              "name": "Tumbler Ridge",
              "lat": 55.13027,
              "lng": -120.99415
            },
            {
              "name": "Vernon",
              "lat": 50.26729,
              "lng": -119.27337
            }
          ]
        },
        {
          "name": "Richmond",
          "lat": 49.17003,
          "lng": -123.13683,
          "subdistricts": [
            {
              "name": "Cedar",
              "lat": 49.11633,
              "lng": -123.8527
            },
            {
              "name": "Coombs",
              "lat": 49.29963,
              "lng": -124.41946
            },
            {
              "name": "Cumberland",
              "lat": 49.61634,
              "lng": -125.03613
            },
            {
              "name": "Denman Island",
              "lat": 49.53294,
              "lng": -124.8195
            },
            {
              "name": "Denman Island Trust Area",
              "lat": 49.55189,
              "lng": -124.79881
            },
            {
              "name": "East Wellington",
              "lat": 49.17385,
              "lng": -124.01745
            },
            {
              "name": "Fairwinds",
              "lat": 49.27588,
              "lng": -124.12782
            },
            {
              "name": "French Creek",
              "lat": 49.34123,
              "lng": -124.35541
            },
            {
              "name": "Hornby Island",
              "lat": 49.53448,
              "lng": -124.66923
            },
            {
              "name": "Ladner",
              "lat": 49.08938,
              "lng": -123.08241
            },
            {
              "name": "Ladysmith",
              "lat": 48.99016,
              "lng": -123.81699
            },
            {
              "name": "Nanaimo",
              "lat": 49.16638,
              "lng": -123.94003
            },
            {
              "name": "North Oyster/Yellow Point",
              "lat": 49.04807,
              "lng": -123.83395
            },
            {
              "name": "Parksville",
              "lat": 49.31947,
              "lng": -124.31575
            },
            {
              "name": "Tsawwassen",
              "lat": 49.01667,
              "lng": -123.08333
            }
          ]
        },
        {
          "name": "Surrey",
          "lat": 49.10635,
          "lng": -122.82509,
          "subdistricts": [
            {
              "name": "White Rock",
              "lat": 49.01636,
              "lng": -122.8026
            }
          ]
        },
        {
          "name": "Vancouver",
          "lat": 49.24966,
          "lng": -123.11934,
          "subdistricts": [
            {
              "name": "Arbutus Ridge",
              "lat": 49.24966,
              "lng": -123.16934
            },
            {
              "name": "Bowen Island",
              "lat": 49.3847,
              "lng": -123.33622
            },
            {
              "name": "Campbell River",
              "lat": 50.01634,
              "lng": -125.24459
            },
            {
              "name": "Central Coast Regional",
              "lat": 52.16638,
              "lng": -127.00323
            },
            {
              "name": "Courtenay",
              "lat": 49.68657,
              "lng": -124.9936
            },
            {
              "name": "Gibsons",
              "lat": 49.39539,
              "lng": -123.50555
            },
            {
              "name": "Kitimat",
              "lat": 54.05244,
              "lng": -128.65342
            },
            {
              "name": "Lions Bay",
              "lat": 49.45218,
              "lng": -123.2376
            },
            {
              "name": "Port McNeill",
              "lat": 50.58716,
              "lng": -127.08053
            },
            {
              "name": "Powell River",
              "lat": 49.83278,
              "lng": -124.52368
            },
            {
              "name": "Prince Rupert",
              "lat": 54.31507,
              "lng": -130.32098
            },
            {
              "name": "Puntledge",
              "lat": 49.66168,
              "lng": -125.05686
            },
            {
              "name": "Royston",
              "lat": 49.64703,
              "lng": -124.9467
            },
            {
              "name": "Sechelt",
              "lat": 49.47512,
              "lng": -123.75903
            },
            {
              "name": "Smithers",
              "lat": 54.78036,
              "lng": -127.17428
            },
            {
              "name": "South Pender Harbour",
              "lat": 49.62202,
              "lng": -124.02484
            },
            {
              "name": "Terrace",
              "lat": 54.51634,
              "lng": -128.60345
            },
            {
              "name": "Welcome Beach",
              "lat": 49.47959,
              "lng": -123.89239
            },
            {
              "name": "West End",
              "lat": 49.28333,
              "lng": -123.13333
            },
            {
              "name": "West Vancouver",
              "lat": 49.36672,
              "lng": -123.16652
            }
          ]
        },
        {
          "name": "Victoria",
          "lat": 48.4359,
          "lng": -123.35155,
          "subdistricts": [
            {
              "name": "Chemainus",
              "lat": 48.91633,
              "lng": -123.71937
            },
            {
              "name": "Colwood",
              "lat": 48.43293,
              "lng": -123.48591
            },
            {
              "name": "Cowichan Bay",
              "lat": 48.73366,
              "lng": -123.61739
            },
            {
              "name": "Duncan",
              "lat": 48.78293,
              "lng": -123.70266
            },
            {
              "name": "Lake Cowichan",
              "lat": 48.82495,
              "lng": -124.05461
            },
            {
              "name": "Langford",
              "lat": 48.44963,
              "lng": -123.50261
            },
            {
              "name": "Metchosin",
              "lat": 48.38293,
              "lng": -123.53591
            },
            {
              "name": "North Cowichan",
              "lat": 48.84133,
              "lng": -123.68596
            },
            {
              "name": "North Saanich",
              "lat": 48.66634,
              "lng": -123.41933
            },
            {
              "name": "Oak Bay",
              "lat": 48.44964,
              "lng": -123.3026
            },
            {
              "name": "Port Alberni",
              "lat": 49.24133,
              "lng": -124.8028
            },
            {
              "name": "Regional District of Alberni-Clayoquot",
              "lat": 49.24962,
              "lng": -125.33615
            },
            {
              "name": "Salt Spring Island",
              "lat": 48.81852,
              "lng": -123.49061
            },
            {
              "name": "Saltair",
              "lat": 48.94963,
              "lng": -123.76939
            },
            {
              "name": "Six Mile",
              "lat": 48.45767,
              "lng": -123.46088
            },
            {
              "name": "Sooke",
              "lat": 48.37463,
              "lng": -123.72762
            },
            {
              "name": "Tofino",
              "lat": 49.15314,
              "lng": -125.90744
            },
            {
              "name": "Ucluelet",
              "lat": 48.94153,
              "lng": -125.54635
            }
          ]
        }
      ]
    },
    {
      "name": "Manitoba",
      "lat": 55.001251,
      "lng": -97.001038,
      "districts": [
        {
          "name": "Winnipeg",
          "lat": 49.8844,
          "lng": -97.14704,
          "subdistricts": [
            {
              "name": "Altona",
              "lat": 49.10469,
              "lng": -97.55961
            },
            {
              "name": "Beausejour",
              "lat": 50.0622,
              "lng": -96.51669
            },
            {
              "name": "Boissevain",
              "lat": 49.23062,
              "lng": -100.05586
            },
            {
              "name": "Brandon",
              "lat": 49.84692,
              "lng": -99.95306
            },
            {
              "name": "Carberry",
              "lat": 49.86893,
              "lng": -99.36021
            },
            {
              "name": "Carman",
              "lat": 49.4992,
              "lng": -98.00156
            },
            {
              "name": "Cross Lake 19A",
              "lat": 54.65135,
              "lng": -97.76848
            },
            {
              "name": "Dauphin",
              "lat": 51.14941,
              "lng": -100.05023
            },
            {
              "name": "De Salaberry",
              "lat": 49.39999,
              "lng": -97.00894
            },
            {
              "name": "Deloraine",
              "lat": 49.19082,
              "lng": -100.49477
            },
            {
              "name": "Flin Flon",
              "lat": 54.76703,
              "lng": -101.87433
            },
            {
              "name": "Gimli",
              "lat": 50.63362,
              "lng": -96.99066
            },
            {
              "name": "Grunthal",
              "lat": 49.40668,
              "lng": -96.85873
            },
            {
              "name": "Headingley",
              "lat": 49.8753,
              "lng": -97.40896
            },
            {
              "name": "Ile des Chênes",
              "lat": 49.7106,
              "lng": -96.98893
            },
            {
              "name": "Killarney",
              "lat": 49.18332,
              "lng": -99.66364
            },
            {
              "name": "La Broquerie",
              "lat": 49.51688,
              "lng": -96.50029
            },
            {
              "name": "Lac du Bonnet",
              "lat": 50.2536,
              "lng": -96.06116
            },
            {
              "name": "Landmark",
              "lat": 49.67169,
              "lng": -96.82232
            },
            {
              "name": "Lorette",
              "lat": 49.73919,
              "lng": -96.87232
            },
            {
              "name": "Melita",
              "lat": 49.26811,
              "lng": -100.99669
            },
            {
              "name": "Minnedosa",
              "lat": 50.24532,
              "lng": -99.84364
            },
            {
              "name": "Moose Lake",
              "lat": 49.20559,
              "lng": -95.30629
            },
            {
              "name": "Morden",
              "lat": 49.1919,
              "lng": -98.10136
            },
            {
              "name": "Morris",
              "lat": 49.35499,
              "lng": -97.36567
            },
            {
              "name": "Neepawa",
              "lat": 50.22892,
              "lng": -99.46642
            },
            {
              "name": "Niverville",
              "lat": 49.60559,
              "lng": -97.04234
            },
            {
              "name": "Portage la Prairie",
              "lat": 49.97282,
              "lng": -98.29263
            },
            {
              "name": "Rivers",
              "lat": 50.03081,
              "lng": -100.24029
            },
            {
              "name": "Roblin",
              "lat": 51.22999,
              "lng": -101.3565
            },
            {
              "name": "Selkirk",
              "lat": 50.1436,
              "lng": -96.88452
            },
            {
              "name": "Shilo",
              "lat": 49.80509,
              "lng": -99.63175
            },
            {
              "name": "Souris",
              "lat": 49.6172,
              "lng": -100.2612
            },
            {
              "name": "St. Adolphe",
              "lat": 49.6744,
              "lng": -97.11124
            },
            {
              "name": "Steinbach",
              "lat": 49.52579,
              "lng": -96.68451
            },
            {
              "name": "Stonewall",
              "lat": 50.13441,
              "lng": -97.32676
            },
            {
              "name": "Swan River",
              "lat": 52.1058,
              "lng": -101.26759
            },
            {
              "name": "The Pas",
              "lat": 53.82509,
              "lng": -101.25413
            },
            {
              "name": "Thompson",
              "lat": 55.7435,
              "lng": -97.85579
            },
            {
              "name": "Virden",
              "lat": 49.8508,
              "lng": -100.93262
            },
            {
              "name": "West St. Paul",
              "lat": 49.9994,
              "lng": -97.16284
            },
            {
              "name": "Winkler",
              "lat": 49.1817,
              "lng": -97.94104
            }
          ]
        }
      ]
    },
    {
      "name": "New Brunswick",
      "lat": 46.500283,
      "lng": -66.750183,
      "districts": [
        {
          "name": "Moncton",
          "lat": 46.09454,
          "lng": -64.7965,
          "subdistricts": [
            {
              "name": "Saint John",
              "lat": 45.27271,
              "lng": -66.06766
            },
            {
              "name": "Fredericton",
              "lat": 45.94541,
              "lng": -66.66558
            },
            {
              "name": "Dieppe",
              "lat": 46.07844,
              "lng": -64.68735
            },
            {
              "name": "Miramichi",
              "lat": 47.02895,
              "lng": -65.50186
            },
            {
              "name": "Edmundston",
              "lat": 47.3737,
              "lng": -68.32512
            },
            {
              "name": "Lutes Mountain",
              "lat": 46.13544,
              "lng": -64.90504
            },
            {
              "name": "Bathurst",
              "lat": 47.61814,
              "lng": -65.65112
            },
            {
              "name": "Oromocto",
              "lat": 45.83512,
              "lng": -66.47917
            },
            {
              "name": "Campbellton",
              "lat": 48.00751,
              "lng": -66.67272
            },
            {
              "name": "Shediac",
              "lat": 46.21981,
              "lng": -64.54107
            },
            {
              "name": "Sussex",
              "lat": 45.72266,
              "lng": -65.50663
            },
            {
              "name": "New Maryland",
              "lat": 45.87932,
              "lng": -66.66828
            },
            {
              "name": "Hampton",
              "lat": 45.52876,
              "lng": -65.85354
            },
            {
              "name": "Tracadie-Sheila",
              "lat": 47.51444,
              "lng": -64.91806
            },
            {
              "name": "Saint-Léonard",
              "lat": 47.16317,
              "lng": -67.9246
            },
            {
              "name": "Shippagan",
              "lat": 47.74424,
              "lng": -64.70804
            },
            {
              "name": "Lincoln",
              "lat": 45.90012,
              "lng": -66.58218
            },
            {
              "name": "Bouctouche",
              "lat": 46.46844,
              "lng": -64.73905
            },
            {
              "name": "Grande-Digue",
              "lat": 46.30014,
              "lng": -64.56546
            },
            {
              "name": "Saint Andrews",
              "lat": 45.0737,
              "lng": -67.05312
            },
            {
              "name": "Keswick Ridge",
              "lat": 46.00011,
              "lng": -66.88218
            },
            {
              "name": "Florenceville-Bristol",
              "lat": 46.44353,
              "lng": -67.61536
            },
            {
              "name": "Salisbury",
              "lat": 46.03905,
              "lng": -65.04628
            },
            {
              "name": "McEwen",
              "lat": 46.1452,
              "lng": -64.78615
            },
            {
              "name": "Richibucto",
              "lat": 46.68073,
              "lng": -64.88044
            },
            {
              "name": "Baie Ste. Anne",
              "lat": 47.05231,
              "lng": -64.95355
            },
            {
              "name": "Saint-Antoine",
              "lat": 46.36294,
              "lng": -64.74985
            },
            {
              "name": "Fundy Bay",
              "lat": 44.741,
              "lng": -66.76041
            },
            {
              "name": "Shediac Bridge-Shediac River",
              "lat": 46.26886,
              "lng": -64.60047
            },
            {
              "name": "Noonan",
              "lat": 45.96682,
              "lng": -66.53218
            },
            {
              "name": "Greater Lakeburn",
              "lat": 46.07651,
              "lng": -64.66818
            },
            {
              "name": "Nackawic",
              "lat": 45.99666,
              "lng": -67.24028
            },
            {
              "name": "Wells",
              "lat": 45.39274,
              "lng": -65.92313
            },
            {
              "name": "Harrison Brook",
              "lat": 47.21304,
              "lng": -67.92847
            },
            {
              "name": "Sackville",
              "lat": 45.91875,
              "lng": -64.38455
            },
            {
              "name": "Starlight Village",
              "lat": 45.88308,
              "lng": -66.76905
            }
          ]
        }
      ]
    },
    {
      "name": "Newfoundland and Labrador",
      "lat": 53.8217327,
      "lng": -61.2295532,
      "districts": [
        {
          "name": "St. John's",
          "lat": 47.56494,
          "lng": -52.70931,
          "subdistricts": [
            {
              "name": "Bay Roberts",
              "lat": 47.59989,
              "lng": -53.26478
            },
            {
              "name": "Bay St. George South",
              "lat": 48.22781,
              "lng": -58.84162
            },
            {
              "name": "Bonavista",
              "lat": 48.64989,
              "lng": -53.11474
            },
            {
              "name": "Botwood",
              "lat": 49.14994,
              "lng": -55.34819
            },
            {
              "name": "Burgeo",
              "lat": 47.61668,
              "lng": -57.61516
            },
            {
              "name": "Carbonear",
              "lat": 47.73319,
              "lng": -53.21478
            },
            {
              "name": "Catalina",
              "lat": 48.51659,
              "lng": -53.08135
            },
            {
              "name": "Channel-Port aux Basques",
              "lat": 47.57286,
              "lng": -59.13808
            },
            {
              "name": "Clarenville-Shoal Harbour",
              "lat": 48.1805,
              "lng": -53.96982
            },
            {
              "name": "Conception Bay South",
              "lat": 47.49989,
              "lng": -52.99806
            },
            {
              "name": "Corner Brook",
              "lat": 48.95001,
              "lng": -57.95202
            },
            {
              "name": "Deer Lake",
              "lat": 49.16671,
              "lng": -57.43163
            },
            {
              "name": "Fogo Island",
              "lat": 49.71649,
              "lng": -54.16981
            },
            {
              "name": "Gambo",
              "lat": 48.7832,
              "lng": -54.21482
            },
            {
              "name": "Goulds",
              "lat": 47.45532,
              "lng": -52.77552
            },
            {
              "name": "Grand Bank",
              "lat": 47.09995,
              "lng": -55.76504
            },
            {
              "name": "Grand Falls-Windsor",
              "lat": 48.93324,
              "lng": -55.66492
            },
            {
              "name": "Happy Valley-Goose Bay",
              "lat": 53.3038,
              "lng": -60.32576
            },
            {
              "name": "Harbour Breton",
              "lat": 47.48325,
              "lng": -55.79833
            },
            {
              "name": "Labrador City",
              "lat": 52.94626,
              "lng": -66.91137
            },
            {
              "name": "Lewisporte",
              "lat": 49.24993,
              "lng": -55.04816
            },
            {
              "name": "Marystown",
              "lat": 47.16663,
              "lng": -55.14829
            },
            {
              "name": "Mount Pearl",
              "lat": 47.51659,
              "lng": -52.78135
            },
            {
              "name": "Pasadena",
              "lat": 49.01671,
              "lng": -57.59837
            },
            {
              "name": "Springdale",
              "lat": 49.49995,
              "lng": -56.06492
            },
            {
              "name": "St. Anthony",
              "lat": 51.37039,
              "lng": -55.59743
            },
            {
              "name": "Stephenville",
              "lat": 48.55001,
              "lng": -58.5818
            },
            {
              "name": "Stephenville Crossing",
              "lat": 48.50001,
              "lng": -58.4318
            },
            {
              "name": "Torbay",
              "lat": 47.66659,
              "lng": -52.73135
            },
            {
              "name": "Upper Island Cove",
              "lat": 47.64989,
              "lng": -53.21478
            },
            {
              "name": "Wabana",
              "lat": 47.63319,
              "lng": -52.94806
            }
          ]
        }
      ]
    },
    {
      "name": "Northwest Territories",
      "lat": 65.0000004,
      "lng": -118,
      "districts": [
        {
          "name": "Yellowknife",
          "lat": 62.45411,
          "lng": -114.37248,
          "subdistricts": [
            {
              "name": "Hay River",
              "lat": 60.81555,
              "lng": -115.79993
            },
            {
              "name": "Inuvik",
              "lat": 68.34986,
              "lng": -133.72181
            },
            {
              "name": "Fort Smith",
              "lat": 60.00439,
              "lng": -111.88871
            },
            {
              "name": "Behchokǫ̀",
              "lat": 62.8025,
              "lng": -116.04639
            },
            {
              "name": "Norman Wells",
              "lat": 65.28201,
              "lng": -126.8329
            },
            {
              "name": "Fort McPherson",
              "lat": 67.43863,
              "lng": -134.88543
            }
          ]
        }
      ]
    },
    {
      "name": "Nova Scotia",
      "lat": 45.1960403,
      "lng": -63.1653789,
      "districts": [
        {
          "name": "Dartmouth",
          "lat": 44.67134,
          "lng": -63.57719,
          "subdistricts": [
            {
              "name": "Amherst",
              "lat": 45.83345,
              "lng": -64.19874
            },
            {
              "name": "Annapolis",
              "lat": 44.58345,
              "lng": -65.16551
            },
            {
              "name": "Antigonish",
              "lat": 45.61685,
              "lng": -61.99858
            },
            {
              "name": "Berwick",
              "lat": 45.05015,
              "lng": -64.73208
            },
            {
              "name": "Chester",
              "lat": 44.54225,
              "lng": -64.23891
            },
            {
              "name": "Colchester",
              "lat": 45.33345,
              "lng": -63.24868
            },
            {
              "name": "Digby",
              "lat": 44.62188,
              "lng": -65.7586
            },
            {
              "name": "Digby County",
              "lat": 44.36685,
              "lng": -65.69884
            },
            {
              "name": "English Corner",
              "lat": 44.73345,
              "lng": -63.78201
            },
            {
              "name": "Fall River",
              "lat": 44.81685,
              "lng": -63.6154
            },
            {
              "name": "Greenwood",
              "lat": 44.97413,
              "lng": -64.93169
            },
            {
              "name": "Hantsport",
              "lat": 45.06685,
              "lng": -64.16544
            },
            {
              "name": "Hayes Subdivision",
              "lat": 45.05519,
              "lng": -64.58795
            },
            {
              "name": "Kentville",
              "lat": 45.0771,
              "lng": -64.49605
            },
            {
              "name": "Lake Echo",
              "lat": 44.73345,
              "lng": -63.38198
            },
            {
              "name": "Lantz",
              "lat": 44.98345,
              "lng": -63.48199
            },
            {
              "name": "Lower Sackville",
              "lat": 44.77599,
              "lng": -63.67865
            },
            {
              "name": "Middleton",
              "lat": 44.94284,
              "lng": -65.07022
            },
            {
              "name": "New Glasgow",
              "lat": 45.58344,
              "lng": -62.64863
            },
            {
              "name": "Oxford",
              "lat": 45.73345,
              "lng": -63.86542
            },
            {
              "name": "Parrsboro",
              "lat": 45.40567,
              "lng": -64.32585
            },
            {
              "name": "Pictou",
              "lat": 45.67875,
              "lng": -62.70936
            },
            {
              "name": "Pictou County",
              "lat": 45.50015,
              "lng": -62.58193
            },
            {
              "name": "Port Williams",
              "lat": 45.10015,
              "lng": -64.41546
            },
            {
              "name": "Springhill",
              "lat": 45.65015,
              "lng": -64.04873
            },
            {
              "name": "Truro",
              "lat": 45.36685,
              "lng": -63.26538
            },
            {
              "name": "Windsor",
              "lat": 44.98345,
              "lng": -64.13204
            },
            {
              "name": "Wolfville",
              "lat": 45.08345,
              "lng": -64.36546
            }
          ]
        },
        {
          "name": "Halifax",
          "lat": 44.64533,
          "lng": -63.57239,
          "subdistricts": [
            {
              "name": "Bridgewater",
              "lat": 44.37856,
              "lng": -64.51882
            },
            {
              "name": "Cole Harbour",
              "lat": 44.67244,
              "lng": -63.47506
            },
            {
              "name": "Cow Bay",
              "lat": 44.63141,
              "lng": -63.43218
            },
            {
              "name": "Lunenburg",
              "lat": 44.37847,
              "lng": -64.31658
            },
            {
              "name": "Shelburne",
              "lat": 43.76325,
              "lng": -65.32355
            },
            {
              "name": "Yarmouth",
              "lat": 43.83345,
              "lng": -66.11557
            }
          ]
        },
        {
          "name": "Sydney",
          "lat": 46.1351,
          "lng": -60.1831,
          "subdistricts": [
            {
              "name": "Cape Breton",
              "lat": 46.00014,
              "lng": -60.31516
            },
            {
              "name": "Eskasoni 3",
              "lat": 45.94522,
              "lng": -60.61617
            },
            {
              "name": "Glace Bay",
              "lat": 46.19695,
              "lng": -59.95698
            },
            {
              "name": "Port Hawkesbury",
              "lat": 45.61685,
              "lng": -61.34853
            },
            {
              "name": "Princeville",
              "lat": 45.76684,
              "lng": -61.29853
            },
            {
              "name": "Sydney Mines",
              "lat": 46.23669,
              "lng": -60.21767
            }
          ]
        }
      ]
    },
    {
      "name": "Nunavut",
      "lat": 65.0377727,
      "lng": -92.5540791,
      "districts": [
        {
          "name": "Iqaluit",
          "lat": 63.74697,
          "lng": -68.51727,
          "subdistricts": [
            {
              "name": "Rankin Inlet",
              "lat": 62.80906,
              "lng": -92.08534
            },
            {
              "name": "Pangnirtung",
              "lat": 66.14642,
              "lng": -65.69996
            },
            {
              "name": "Kugluktuk",
              "lat": 67.82743,
              "lng": -115.09649
            },
            {
              "name": "Gjoa Haven",
              "lat": 68.62602,
              "lng": -95.87836
            },
            {
              "name": "Clyde River",
              "lat": 70.47233,
              "lng": -68.58987
            }
          ]
        }
      ]
    },
    {
      "name": "Ontario",
      "lat": 50.000678,
      "lng": -86.000977,
      "districts": [
        {
          "name": "Ajax",
          "lat": 43.85012,
          "lng": -79.03288,
          "subdistricts": [
            {
              "name": "Pickering",
              "lat": 43.90012,
              "lng": -79.13289
            },
            {
              "name": "Uxbridge",
              "lat": 44.10012,
              "lng": -79.11628
            }
          ]
        },
        {
          "name": "Algoma",
          "lat": 47.88364,
          "lng": -84.42406,
          "subdistricts": [
            {
              "name": "Attawapiskat",
              "lat": 52.92774,
              "lng": -82.41669
            },
            {
              "name": "Cochrane",
              "lat": 50.00022,
              "lng": -82.99979
            },
            {
              "name": "Hearst",
              "lat": 49.68351,
              "lng": -83.66654
            },
            {
              "name": "Hornepayne",
              "lat": 49.21451,
              "lng": -84.77617
            },
            {
              "name": "Kapuskasing",
              "lat": 49.41694,
              "lng": -82.43308
            },
            {
              "name": "Manitouwadge",
              "lat": 49.12152,
              "lng": -85.8403
            },
            {
              "name": "Marathon",
              "lat": 48.7501,
              "lng": -86.43322
            },
            {
              "name": "Sault Ste. Marie",
              "lat": 46.51677,
              "lng": -84.33325
            },
            {
              "name": "Thessalon",
              "lat": 46.25006,
              "lng": -83.5666
            },
            {
              "name": "Wawa",
              "lat": 47.98877,
              "lng": -84.77411
            }
          ]
        },
        {
          "name": "Barrie",
          "lat": 44.40011,
          "lng": -79.66634,
          "subdistricts": [
            {
              "name": "Alliston",
              "lat": 44.15011,
              "lng": -79.86635
            },
            {
              "name": "Amigo Beach",
              "lat": 44.70011,
              "lng": -79.39963
            },
            {
              "name": "Angus",
              "lat": 44.31681,
              "lng": -79.88295
            },
            {
              "name": "Bracebridge",
              "lat": 45.03341,
              "lng": -79.31633
            },
            {
              "name": "Collingwood",
              "lat": 44.4834,
              "lng": -80.21638
            },
            {
              "name": "Cookstown",
              "lat": 44.18341,
              "lng": -79.69964
            },
            {
              "name": "Elmvale",
              "lat": 44.5834,
              "lng": -79.86636
            },
            {
              "name": "Gravenhurst",
              "lat": 44.91681,
              "lng": -79.36633
            },
            {
              "name": "Huntsville",
              "lat": 45.33341,
              "lng": -79.21632
            },
            {
              "name": "Innisfil",
              "lat": 44.30011,
              "lng": -79.64964
            },
            {
              "name": "Keswick",
              "lat": 44.25011,
              "lng": -79.46632
            },
            {
              "name": "Mattawa",
              "lat": 46.31681,
              "lng": -78.69957
            },
            {
              "name": "Meaford",
              "lat": 44.60725,
              "lng": -80.61081
            },
            {
              "name": "Midland",
              "lat": 44.7501,
              "lng": -79.88296
            },
            {
              "name": "Nipissing",
              "lat": 46.0001,
              "lng": -78.99959
            },
            {
              "name": "Orillia",
              "lat": 44.60868,
              "lng": -79.42068
            },
            {
              "name": "Parry Sound",
              "lat": 45.34732,
              "lng": -80.03527
            },
            {
              "name": "Parry Sound District",
              "lat": 45.75011,
              "lng": -79.83297
            },
            {
              "name": "Powassan",
              "lat": 46.0334,
              "lng": -79.34961
            },
            {
              "name": "South River",
              "lat": 45.8334,
              "lng": -79.38293
            },
            {
              "name": "Stoney Point",
              "lat": 44.26681,
              "lng": -79.53292
            },
            {
              "name": "Wasaga Beach",
              "lat": 44.5168,
              "lng": -80.01637
            }
          ]
        },
        {
          "name": "Brampton",
          "lat": 43.68341,
          "lng": -79.76633,
          "subdistricts": [
            {
              "name": "Peel",
              "lat": 43.75011,
              "lng": -79.78293
            },
            {
              "name": "Tottenham",
              "lat": 44.02437,
              "lng": -79.80553
            }
          ]
        },
        {
          "name": "Brantford",
          "lat": 43.1334,
          "lng": -80.26636,
          "subdistricts": [
            {
              "name": "Brant",
              "lat": 43.1334,
              "lng": -80.34967
            },
            {
              "name": "Burford",
              "lat": 43.10292,
              "lng": -80.42869
            },
            {
              "name": "Jarvis",
              "lat": 42.88341,
              "lng": -80.09965
            },
            {
              "name": "Norfolk County",
              "lat": 42.8334,
              "lng": -80.38297
            },
            {
              "name": "Paris",
              "lat": 43.2,
              "lng": -80.38333
            },
            {
              "name": "Port Rowan",
              "lat": 42.6168,
              "lng": -80.46638
            },
            {
              "name": "Simcoe",
              "lat": 42.8334,
              "lng": -80.29967
            },
            {
              "name": "St. George",
              "lat": 43.24495,
              "lng": -80.25144
            },
            {
              "name": "Waterford",
              "lat": 42.9334,
              "lng": -80.28296
            }
          ]
        },
        {
          "name": "Burlington",
          "lat": 43.38621,
          "lng": -79.83713
        },
        {
          "name": "Cambridge",
          "lat": 43.3601,
          "lng": -80.31269
        },
        {
          "name": "East York",
          "lat": 43.69053,
          "lng": -79.32794
        },
        {
          "name": "Greater Sudbury",
          "lat": 46.49,
          "lng": -80.99001,
          "subdistricts": [
            {
              "name": "Azilda",
              "lat": 46.55008,
              "lng": -81.09975
            },
            {
              "name": "Capreol",
              "lat": 46.70626,
              "lng": -80.92109
            },
            {
              "name": "Dowling",
              "lat": 46.59111,
              "lng": -81.33917
            },
            {
              "name": "Elliot Lake",
              "lat": 46.38336,
              "lng": -82.63315
            },
            {
              "name": "Englehart",
              "lat": 47.81686,
              "lng": -79.8664
            },
            {
              "name": "Espanola",
              "lat": 46.25837,
              "lng": -81.76649
            },
            {
              "name": "Iroquois Falls",
              "lat": 48.76688,
              "lng": -80.68307
            },
            {
              "name": "Kirkland Lake",
              "lat": 48.14461,
              "lng": -80.03767
            },
            {
              "name": "Little Current",
              "lat": 45.97927,
              "lng": -81.9248
            },
            {
              "name": "Lively",
              "lat": 46.43338,
              "lng": -81.14975
            },
            {
              "name": "Manitoulin",
              "lat": 45.75007,
              "lng": -82.49985
            },
            {
              "name": "Moose Factory",
              "lat": 51.26689,
              "lng": -80.61624
            },
            {
              "name": "Moosonee",
              "lat": 51.27931,
              "lng": -80.6345
            },
            {
              "name": "North Bay",
              "lat": 46.3168,
              "lng": -79.46633
            },
            {
              "name": "Rayside-Balfour",
              "lat": 46.60873,
              "lng": -81.20763
            },
            {
              "name": "Sudbury",
              "lat": 47.16679,
              "lng": -81.9998
            },
            {
              "name": "Temiskaming Shores",
              "lat": 47.49376,
              "lng": -79.71529
            },
            {
              "name": "Timiskaming",
              "lat": 47.75016,
              "lng": -80.33303
            },
            {
              "name": "Timmins",
              "lat": 48.46686,
              "lng": -81.33312
            },
            {
              "name": "Tobermory",
              "lat": 45.25007,
              "lng": -81.66647
            },
            {
              "name": "Valley East",
              "lat": 46.66773,
              "lng": -81.00028
            }
          ]
        },
        {
          "name": "Guelph",
          "lat": 43.54594,
          "lng": -80.25599,
          "subdistricts": [
            {
              "name": "Orangeville",
              "lat": 43.9168,
              "lng": -80.09967
            },
            {
              "name": "Rockwood",
              "lat": 43.61899,
              "lng": -80.14441
            },
            {
              "name": "Shelburne",
              "lat": 44.0787,
              "lng": -80.20408
            }
          ]
        },
        {
          "name": "Halton",
          "lat": 43.50011,
          "lng": -79.88294
        },
        {
          "name": "Hamilton",
          "lat": 43.25011,
          "lng": -79.84963,
          "subdistricts": [
            {
              "name": "Ancaster",
              "lat": 43.21806,
              "lng": -79.98716
            },
            {
              "name": "Binbrook",
              "lat": 43.12135,
              "lng": -79.81104
            },
            {
              "name": "Haldimand",
              "lat": 42.98341,
              "lng": -79.86633
            }
          ]
        },
        {
          "name": "Kanata",
          "lat": 45.3001,
          "lng": -75.91606,
          "subdistricts": [
            {
              "name": "Arnprior",
              "lat": 45.43341,
              "lng": -76.34939
            },
            {
              "name": "Bells Corners",
              "lat": 45.31588,
              "lng": -75.83012
            },
            {
              "name": "Brockville",
              "lat": 44.59132,
              "lng": -75.68705
            },
            {
              "name": "Carleton Place",
              "lat": 45.13341,
              "lng": -76.14938
            },
            {
              "name": "Constance Bay",
              "lat": 45.50011,
              "lng": -76.08267
            },
            {
              "name": "Deep River",
              "lat": 46.10012,
              "lng": -77.49949
            },
            {
              "name": "Pembroke",
              "lat": 45.81681,
              "lng": -77.11616
            },
            {
              "name": "Perth",
              "lat": 44.90011,
              "lng": -76.24939
            },
            {
              "name": "Petawawa",
              "lat": 45.89452,
              "lng": -77.28007
            },
            {
              "name": "Renfrew",
              "lat": 45.46681,
              "lng": -76.68272
            },
            {
              "name": "Richmond",
              "lat": 45.1834,
              "lng": -75.83266
            },
            {
              "name": "Smiths Falls",
              "lat": 44.90452,
              "lng": -76.02333
            }
          ]
        },
        {
          "name": "Kingston",
          "lat": 44.22976,
          "lng": -76.48098,
          "subdistricts": [
            {
              "name": "Bath",
              "lat": 44.18342,
              "lng": -76.78273
            },
            {
              "name": "Belleville",
              "lat": 44.16682,
              "lng": -77.38277
            },
            {
              "name": "Deseronto",
              "lat": 44.20012,
              "lng": -77.04944
            },
            {
              "name": "Gananoque",
              "lat": 44.33342,
              "lng": -76.16607
            },
            {
              "name": "Greater Napanee",
              "lat": 44.2473883,
              "lng": -76.9505543
            },
            {
              "name": "Madoc",
              "lat": 44.50842,
              "lng": -77.47448
            },
            {
              "name": "Napanee Downtown",
              "lat": 44.24832,
              "lng": -76.95069
            },
            {
              "name": "Picton",
              "lat": 44.00012,
              "lng": -77.13275
            },
            {
              "name": "Prince Edward",
              "lat": 44.00012,
              "lng": -77.24946
            },
            {
              "name": "Quinte West",
              "lat": 44.18342,
              "lng": -77.56618
            },
            {
              "name": "Skatepark",
              "lat": 44.25122,
              "lng": -76.94424
            },
            {
              "name": "Stirling",
              "lat": 44.30012,
              "lng": -77.54948
            },
            {
              "name": "Tweed",
              "lat": 44.47512,
              "lng": -77.31616
            }
          ]
        },
        {
          "name": "Kitchener",
          "lat": 43.42537,
          "lng": -80.5112,
          "subdistricts": [
            {
              "name": "New Hamburg",
              "lat": 43.38339,
              "lng": -80.6997
            },
            {
              "name": "Plattsville",
              "lat": 43.3001,
              "lng": -80.61639
            },
            {
              "name": "Stratford",
              "lat": 43.36679,
              "lng": -80.94972
            },
            {
              "name": "Tavistock",
              "lat": 43.31679,
              "lng": -80.83302
            },
            {
              "name": "Woodstock",
              "lat": 43.13339,
              "lng": -80.7497
            }
          ]
        },
        {
          "name": "London",
          "lat": 42.98339,
          "lng": -81.23304,
          "subdistricts": [
            {
              "name": "Aylmer",
              "lat": 42.76679,
              "lng": -80.98302
            },
            {
              "name": "Belmont",
              "lat": 42.88339,
              "lng": -81.08303
            },
            {
              "name": "Bluewater",
              "lat": 43.46679,
              "lng": -81.59977
            },
            {
              "name": "Brussels",
              "lat": 43.73339,
              "lng": -81.24975
            },
            {
              "name": "Camlachie",
              "lat": 43.03596,
              "lng": -82.1616
            },
            {
              "name": "Delaware",
              "lat": 42.91679,
              "lng": -81.41646
            },
            {
              "name": "Dorchester",
              "lat": 42.98339,
              "lng": -81.06643
            },
            {
              "name": "Exeter",
              "lat": 43.3435863,
              "lng": -81.4972602
            },
            {
              "name": "Glencoe",
              "lat": 42.75009,
              "lng": -81.71648
            },
            {
              "name": "Goderich",
              "lat": 43.74171,
              "lng": -81.71339
            },
            {
              "name": "Huron East",
              "lat": 43.61679,
              "lng": -81.29975
            },
            {
              "name": "Ingersoll",
              "lat": 43.03339,
              "lng": -80.88302
            },
            {
              "name": "Kincardine",
              "lat": 44.18339,
              "lng": -81.63307
            },
            {
              "name": "Lambton Shores",
              "lat": 43.16678,
              "lng": -81.93309
            },
            {
              "name": "Lucan",
              "lat": 43.18339,
              "lng": -81.39976
            },
            {
              "name": "Mount Brydges",
              "lat": 42.90009,
              "lng": -81.48306
            },
            {
              "name": "Parkhill",
              "lat": 43.15993,
              "lng": -81.68464
            },
            {
              "name": "Petrolia",
              "lat": 42.86678,
              "lng": -82.14981
            },
            {
              "name": "Port Stanley",
              "lat": 42.66679,
              "lng": -81.21644
            },
            {
              "name": "Ridgetown",
              "lat": 42.43339,
              "lng": -81.89978
            },
            {
              "name": "Seaforth",
              "lat": 43.55009,
              "lng": -81.39976
            },
            {
              "name": "South Huron",
              "lat": 43.31679,
              "lng": -81.51647
            },
            {
              "name": "St. Thomas",
              "lat": 42.77361,
              "lng": -81.18038
            },
            {
              "name": "Watford",
              "lat": 42.95008,
              "lng": -81.88309
            },
            {
              "name": "West Lorne",
              "lat": 42.60009,
              "lng": -81.59976
            }
          ]
        },
        {
          "name": "Markham",
          "lat": 43.86682,
          "lng": -79.2663,
          "subdistricts": [
            {
              "name": "Ballantrae",
              "lat": 44.03342,
              "lng": -79.2996
            },
            {
              "name": "Mount Albert",
              "lat": 44.13341,
              "lng": -79.3163
            }
          ]
        },
        {
          "name": "Milton",
          "lat": 43.51681,
          "lng": -79.88294
        },
        {
          "name": "Mississauga",
          "lat": 43.5789,
          "lng": -79.6583,
          "subdistricts": [
            {
              "name": "Etobicoke",
              "lat": 43.65421,
              "lng": -79.56711
            }
          ]
        },
        {
          "name": "Nepean",
          "lat": 45.35215,
          "lng": -75.73975,
          "subdistricts": [
            {
              "name": "Morrisburg",
              "lat": 44.9001,
              "lng": -75.18261
            },
            {
              "name": "Osgoode",
              "lat": 45.14887,
              "lng": -75.59778
            },
            {
              "name": "Prescott",
              "lat": 44.71681,
              "lng": -75.51604
            },
            {
              "name": "Winchester",
              "lat": 45.0834,
              "lng": -75.34933
            }
          ]
        },
        {
          "name": "North York",
          "lat": 43.76681,
          "lng": -79.4163,
          "subdistricts": [
            {
              "name": "Willowdale",
              "lat": 43.76672,
              "lng": -79.39909
            }
          ]
        },
        {
          "name": "Oakville",
          "lat": 43.45011,
          "lng": -79.68292
        },
        {
          "name": "Oshawa",
          "lat": 43.90012,
          "lng": -78.84957,
          "subdistricts": [
            {
              "name": "Bancroft",
              "lat": 45.05752,
              "lng": -77.85702
            },
            {
              "name": "Cobourg",
              "lat": 43.95977,
              "lng": -78.16515
            },
            {
              "name": "Durham",
              "lat": 44.20012,
              "lng": -78.99957
            },
            {
              "name": "Haliburton Village",
              "lat": 45.05154,
              "lng": -78.52245
            },
            {
              "name": "Kawartha Lakes",
              "lat": 44.58342,
              "lng": -78.83288
            },
            {
              "name": "Lakefield",
              "lat": 44.43342,
              "lng": -78.26623
            },
            {
              "name": "Lindsay",
              "lat": 44.35012,
              "lng": -78.73286
            },
            {
              "name": "Millbrook",
              "lat": 44.15012,
              "lng": -78.44954
            },
            {
              "name": "Norwood",
              "lat": 44.38342,
              "lng": -77.98281
            },
            {
              "name": "Omemee",
              "lat": 44.29897,
              "lng": -78.55989
            },
            {
              "name": "Peterborough",
              "lat": 44.30012,
              "lng": -78.31623
            },
            {
              "name": "Port Hope",
              "lat": 44.01682,
              "lng": -78.39953
            }
          ]
        },
        {
          "name": "Ottawa",
          "lat": 45.41117,
          "lng": -75.69812,
          "iscapital": true,
          "subdistricts": [
            {
              "name": "Bourget",
              "lat": 45.4334,
              "lng": -75.1493
            },
            {
              "name": "Casselman",
              "lat": 45.3168,
              "lng": -75.0826
            },
            {
              "name": "Clarence-Rockland",
              "lat": 45.5501,
              "lng": -75.29101
            },
            {
              "name": "Cornwall",
              "lat": 45.01809,
              "lng": -74.72815
            },
            {
              "name": "Hawkesbury",
              "lat": 45.60009,
              "lng": -74.61595
            },
            {
              "name": "L'Orignal",
              "lat": 45.6198,
              "lng": -74.6915
            },
            {
              "name": "Limoges",
              "lat": 45.3334,
              "lng": -75.24931
            },
            {
              "name": "Metcalfe",
              "lat": 45.2334,
              "lng": -75.46603
            },
            {
              "name": "Plantagenet",
              "lat": 45.5326,
              "lng": -74.99369
            },
            {
              "name": "Queenswood Heights",
              "lat": 45.47083,
              "lng": -75.50556
            },
            {
              "name": "Russell",
              "lat": 45.2501,
              "lng": -75.36602
            },
            {
              "name": "Vanier",
              "lat": 45.4399,
              "lng": -75.66498
            },
            {
              "name": "Wendover",
              "lat": 45.57275,
              "lng": -75.12757
            }
          ]
        },
        {
          "name": "Regional Municipality of Waterloo",
          "lat": 43.5001,
          "lng": -80.49969,
          "subdistricts": [
            {
              "name": "Hanover",
              "lat": 44.15009,
              "lng": -81.03303
            },
            {
              "name": "Harriston",
              "lat": 43.90009,
              "lng": -80.88302
            },
            {
              "name": "Listowel",
              "lat": 43.7334,
              "lng": -80.94973
            },
            {
              "name": "Markdale",
              "lat": 44.3168,
              "lng": -80.64971
            },
            {
              "name": "Mildmay",
              "lat": 44.05009,
              "lng": -81.11644
            },
            {
              "name": "North Perth",
              "lat": 43.7251,
              "lng": -80.96723
            },
            {
              "name": "Owen Sound",
              "lat": 44.56717,
              "lng": -80.94349
            },
            {
              "name": "Paisley",
              "lat": 44.30641,
              "lng": -81.27265
            },
            {
              "name": "Wingham",
              "lat": 43.88793,
              "lng": -81.31145
            }
          ]
        },
        {
          "name": "Richmond Hill",
          "lat": 43.87111,
          "lng": -79.43725,
          "subdistricts": [
            {
              "name": "Aurora",
              "lat": 43.99973,
              "lng": -79.467545
            },
            {
              "name": "East Gwillimbury",
              "lat": 44.10087,
              "lng": -79.43785
            },
            {
              "name": "Newmarket",
              "lat": 44.05011,
              "lng": -79.46631
            },
            {
              "name": "York",
              "lat": 44.0007518,
              "lng": -79.4372217
            }
          ]
        },
        {
          "name": "Scarborough",
          "lat": 43.77223,
          "lng": -79.25666
        },
        {
          "name": "St. Catharines",
          "lat": 43.17126,
          "lng": -79.24267,
          "subdistricts": [
            {
              "name": "Fort Erie",
              "lat": 42.90012,
              "lng": -78.93286
            },
            {
              "name": "Mississauga Beach",
              "lat": 43.26682,
              "lng": -79.08287
            },
            {
              "name": "Niagara Falls",
              "lat": 43.10012,
              "lng": -79.06627
            },
            {
              "name": "Port Colborne",
              "lat": 42.90012,
              "lng": -79.23288
            },
            {
              "name": "Thorold",
              "lat": 43.11682,
              "lng": -79.19958
            },
            {
              "name": "Vineland",
              "lat": 43.15012,
              "lng": -79.3996
            },
            {
              "name": "Virgil",
              "lat": 43.21682,
              "lng": -79.13288
            },
            {
              "name": "Welland",
              "lat": 42.98342,
              "lng": -79.24958
            }
          ]
        },
        {
          "name": "Thunder Bay",
          "lat": 48.38202,
          "lng": -89.25018,
          "subdistricts": [
            {
              "name": "Atikokan",
              "lat": 48.75667,
              "lng": -91.62409
            },
            {
              "name": "Dryden",
              "lat": 49.78334,
              "lng": -92.75032
            },
            {
              "name": "Ear Falls",
              "lat": 50.63955,
              "lng": -93.23526
            },
            {
              "name": "Fort Frances",
              "lat": 48.61667,
              "lng": -93.4003
            },
            {
              "name": "Golden",
              "lat": 51.05917,
              "lng": -93.73568
            },
            {
              "name": "Kenora",
              "lat": 49.76741,
              "lng": -94.48985
            },
            {
              "name": "Lappe",
              "lat": 48.5668,
              "lng": -89.35013
            },
            {
              "name": "Neebing",
              "lat": 48.1668,
              "lng": -89.41683
            },
            {
              "name": "Rainy River",
              "lat": 48.49981,
              "lng": -92.50031
            },
            {
              "name": "Red Lake",
              "lat": 51.01678,
              "lng": -93.82736
            },
            {
              "name": "Sioux Lookout",
              "lat": 50.06676,
              "lng": -91.98358
            }
          ]
        },
        {
          "name": "Thunder Bay District",
          "lat": 49.50011,
          "lng": -88.50004,
          "subdistricts": [
            {
              "name": "Greenstone",
              "lat": 49.73343,
              "lng": -87.16668
            }
          ]
        },
        {
          "name": "Toronto",
          "lat": 43.70011,
          "lng": -79.4163,
          "subdistricts": [
            {
              "name": "Toronto county",
              "lat": 43.69655,
              "lng": -79.42909
            }
          ]
        },
        {
          "name": "Vaughan",
          "lat": 43.8361,
          "lng": -79.49827,
          "subdistricts": [
            {
              "name": "Concord",
              "lat": 43.80011,
              "lng": -79.48291
            },
            {
              "name": "King",
              "lat": 43.96514,
              "lng": -79.59011
            },
            {
              "name": "Thornhill",
              "lat": 43.8170848,
              "lng": -79.4501194
            }
          ]
        },
        {
          "name": "Waterloo",
          "lat": 43.4668,
          "lng": -80.51639,
          "subdistricts": [
            {
              "name": "Wellesley",
              "lat": 43.47691,
              "lng": -80.76209
            }
          ]
        },
        {
          "name": "Windsor",
          "lat": 42.30008,
          "lng": -83.01654,
          "subdistricts": [
            {
              "name": "Amherstburg",
              "lat": 42.10009,
              "lng": -83.09985
            },
            {
              "name": "Chatham",
              "lat": 42.41224,
              "lng": -82.18494
            },
            {
              "name": "Chatham-Kent",
              "lat": 42.40009,
              "lng": -82.1831
            },
            {
              "name": "Corunna",
              "lat": 42.88338,
              "lng": -82.43313
            },
            {
              "name": "Essex",
              "lat": 42.17509,
              "lng": -82.82483
            },
            {
              "name": "Leamington",
              "lat": 42.05009,
              "lng": -82.59981
            },
            {
              "name": "Sarnia",
              "lat": 42.97866,
              "lng": -82.40407
            },
            {
              "name": "Walpole Island",
              "lat": 42.6152,
              "lng": -82.51398
            }
          ]
        }
      ]
    },
    {
      "name": "Prince Edward Island",
      "lat": 46.5036807,
      "lng": -63.595411,
      "districts": [
        {
          "name": "Charlottetown",
          "lat": 46.23899,
          "lng": -63.13414,
          "subdistricts": [
            {
              "name": "Fallingbrook",
              "lat": 45.47558,
              "lng": -75.48401
            },
            {
              "name": "Summerside",
              "lat": 46.39593,
              "lng": -63.78762
            },
            {
              "name": "Cornwall",
              "lat": 46.22652,
              "lng": -63.21809
            },
            {
              "name": "Montague",
              "lat": 46.16681,
              "lng": -62.64866
            },
            {
              "name": "Belfast",
              "lat": 46.08341,
              "lng": -62.88197
            },
            {
              "name": "Kensington",
              "lat": 46.43343,
              "lng": -63.64871
            },
            {
              "name": "Alberton",
              "lat": 46.81685,
              "lng": -64.06542
            },
            {
              "name": "Souris",
              "lat": 46.3501,
              "lng": -62.24862
            }
          ]
        }
      ]
    },
    {
      "name": "Quebec",
      "lat": 52.4760892,
      "lng": -71.8258668,
      "districts": [
        {
          "name": "Abitibi-Témiscamingue",
          "lat": 48.10018,
          "lng": -77.7828,
          "subdistricts": [
            {
              "name": "Amos",
              "lat": 48.56688,
              "lng": -78.11624
            },
            {
              "name": "Barraute",
              "lat": 48.43349,
              "lng": -77.63279
            },
            {
              "name": "La Sarre",
              "lat": 48.80019,
              "lng": -79.19964
            },
            {
              "name": "Lebel-sur-Quévillon",
              "lat": 49.05018,
              "lng": -76.98273
            },
            {
              "name": "Macamic",
              "lat": 48.75018,
              "lng": -78.99962
            },
            {
              "name": "Malartic",
              "lat": 48.13348,
              "lng": -78.13283
            },
            {
              "name": "Matagami",
              "lat": 49.75018,
              "lng": -77.63277
            },
            {
              "name": "Notre-Dame-du-Lac",
              "lat": 46.75012,
              "lng": -79.04961
            },
            {
              "name": "Rouyn-Noranda",
              "lat": 48.23656,
              "lng": -79.02311
            },
            {
              "name": "Saint-Bruno-de-Guigues",
              "lat": 47.46685,
              "lng": -79.43296
            },
            {
              "name": "Saint-Isidore",
              "lat": 47.43345,
              "lng": -79.29965
            },
            {
              "name": "Salluit",
              "lat": 62.20411,
              "lng": -75.64344
            },
            {
              "name": "Senneterre",
              "lat": 48.39302,
              "lng": -77.23951
            },
            {
              "name": "Témiscaming",
              "lat": 46.72122,
              "lng": -79.09712
            },
            {
              "name": "Val-d'Or",
              "lat": 48.0974,
              "lng": -77.79737
            },
            {
              "name": "Ville-Marie",
              "lat": 47.33345,
              "lng": -79.43297
            },
            {
              "name": "Waskaganish",
              "lat": 51.48333,
              "lng": -78.75
            },
            {
              "name": "Waswanipi",
              "lat": 49.73346,
              "lng": -76.16604
            }
          ]
        },
        {
          "name": "Bas-Saint-Laurent",
          "lat": 48.0503,
          "lng": -68.02266,
          "subdistricts": [
            {
              "name": "Amqui",
              "lat": 48.46382,
              "lng": -67.43134
            },
            {
              "name": "Baie-Comeau",
              "lat": 49.21679,
              "lng": -68.14894
            },
            {
              "name": "Bonaventure",
              "lat": 48.04573,
              "lng": -65.49259
            },
            {
              "name": "Cabano",
              "lat": 47.68065,
              "lng": -68.8781
            },
            {
              "name": "Cacouna",
              "lat": 47.91657,
              "lng": -69.50054
            },
            {
              "name": "Cap-Chat",
              "lat": 49.10009,
              "lng": -66.68212
            },
            {
              "name": "Carleton",
              "lat": 48.09838,
              "lng": -66.10036
            },
            {
              "name": "Carleton-sur-Mer",
              "lat": 48.10749,
              "lng": -66.128
            },
            {
              "name": "Chandler",
              "lat": 48.34935,
              "lng": -64.67926
            },
            {
              "name": "Chute-aux-Outardes",
              "lat": 49.11679,
              "lng": -68.39896
            },
            {
              "name": "Côte-Nord",
              "lat": 50.86683,
              "lng": -65.81541
            },
            {
              "name": "Fermont",
              "lat": 52.78345,
              "lng": -67.08204
            },
            {
              "name": "Forestville",
              "lat": 48.73808,
              "lng": -69.08478
            },
            {
              "name": "Gaspé",
              "lat": 48.83341,
              "lng": -64.48194
            },
            {
              "name": "Gaspésie-Îles-de-la-Madeleine",
              "lat": 48.87555,
              "lng": -65.4071
            },
            {
              "name": "Godefroy",
              "lat": 51.75012,
              "lng": -68.08213
            },
            {
              "name": "Hauterive",
              "lat": 49.19572,
              "lng": -68.25813
            },
            {
              "name": "Havre-Saint-Pierre",
              "lat": 50.24342,
              "lng": -63.60264
            },
            {
              "name": "Le Bic",
              "lat": 48.37549,
              "lng": -68.69415
            },
            {
              "name": "Les Escoumins",
              "lat": 48.35191,
              "lng": -69.40724
            },
            {
              "name": "Luceville",
              "lat": 48.54498,
              "lng": -68.39658
            },
            {
              "name": "Maliotenam",
              "lat": 50.21119,
              "lng": -66.18164
            },
            {
              "name": "Maria",
              "lat": 48.1749,
              "lng": -65.98595
            },
            {
              "name": "Matane",
              "lat": 48.82857,
              "lng": -67.52197
            },
            {
              "name": "Mont-Joli",
              "lat": 48.58388,
              "lng": -68.19214
            },
            {
              "name": "New Carlisle",
              "lat": 48.00956,
              "lng": -65.33621
            },
            {
              "name": "New-Richmond",
              "lat": 48.16059,
              "lng": -65.85823
            },
            {
              "name": "Pohénégamook",
              "lat": 47.46315,
              "lng": -69.22666
            },
            {
              "name": "Port-Cartier",
              "lat": 50.03339,
              "lng": -66.86545
            },
            {
              "name": "Rimouski",
              "lat": 48.44879,
              "lng": -68.52396
            },
            {
              "name": "Rivière-du-Loup",
              "lat": 47.82699,
              "lng": -69.54243
            },
            {
              "name": "Saint-Augustin",
              "lat": 51.22602,
              "lng": -58.65017
            },
            {
              "name": "Sainte-Anne-des-Monts",
              "lat": 49.12402,
              "lng": -66.49243
            },
            {
              "name": "Sept-Îles",
              "lat": 50.20011,
              "lng": -66.38208
            }
          ]
        },
        {
          "name": "Capitale-Nationale",
          "lat": 47.376,
          "lng": -71.12337,
          "subdistricts": [
            {
              "name": "Baie-Saint-Paul",
              "lat": 47.44109,
              "lng": -70.49858
            },
            {
              "name": "La Malbaie",
              "lat": 47.654,
              "lng": -70.15268
            },
            {
              "name": "La Pocatière",
              "lat": 47.36733,
              "lng": -70.03484
            },
            {
              "name": "Saint-Pacôme",
              "lat": 47.40457,
              "lng": -69.95025
            },
            {
              "name": "Saint-Pascal",
              "lat": 47.51813,
              "lng": -69.80301
            }
          ]
        },
        {
          "name": "Centre-du-Québec",
          "lat": 46.01985,
          "lng": -71.98242,
          "subdistricts": [
            {
              "name": "Acton Vale",
              "lat": 45.65007,
              "lng": -72.56582
            },
            {
              "name": "Asbestos",
              "lat": 45.76678,
              "lng": -71.9324
            },
            {
              "name": "Danville",
              "lat": 45.78337,
              "lng": -72.0158
            },
            {
              "name": "Daveluyville",
              "lat": 46.20006,
              "lng": -72.13239
            },
            {
              "name": "Disraeli",
              "lat": 45.90007,
              "lng": -71.34907
            },
            {
              "name": "Kingsey Falls",
              "lat": 45.85007,
              "lng": -72.0658
            },
            {
              "name": "Plessisville",
              "lat": 46.21856,
              "lng": -71.76201
            },
            {
              "name": "Portneuf",
              "lat": 46.69058,
              "lng": -71.89011
            },
            {
              "name": "Princeville",
              "lat": 46.17163,
              "lng": -71.87462
            },
            {
              "name": "Saint-Joseph-de-Coleraine",
              "lat": 45.96677,
              "lng": -71.36577
            },
            {
              "name": "Saint-Rémi-de-Tingwick",
              "lat": 45.86677,
              "lng": -71.81581
            },
            {
              "name": "Victoriaville",
              "lat": 46.05007,
              "lng": -71.96579
            },
            {
              "name": "Warwick",
              "lat": 45.95007,
              "lng": -71.9824
            }
          ]
        },
        {
          "name": "Chaudière-Appalaches",
          "lat": 46.555,
          "lng": -70.8308,
          "subdistricts": [
            {
              "name": "Adstock",
              "lat": 46.05007,
              "lng": -71.08235
            },
            {
              "name": "Beauceville",
              "lat": 46.21785,
              "lng": -70.77873
            },
            {
              "name": "East Broughton",
              "lat": 46.21358,
              "lng": -71.07674
            },
            {
              "name": "Lac-Mégantic",
              "lat": 45.58338,
              "lng": -70.88234
            },
            {
              "name": "Linière",
              "lat": 46.00007,
              "lng": -70.41572
            },
            {
              "name": "Montmagny",
              "lat": 46.98043,
              "lng": -70.55493
            },
            {
              "name": "Saint-Anselme",
              "lat": 46.62922,
              "lng": -70.9734
            },
            {
              "name": "Saint-Côme-Linière",
              "lat": 46.06677,
              "lng": -70.51573
            },
            {
              "name": "Saint-Éphrem-de-Beauce",
              "lat": 46.06677,
              "lng": -70.94905
            },
            {
              "name": "Saint-Georges",
              "lat": 46.11353,
              "lng": -70.66526
            },
            {
              "name": "Saint-Joseph-de-Beauce",
              "lat": 46.3,
              "lng": -70.86667
            },
            {
              "name": "Sainte-Marie",
              "lat": 46.43401,
              "lng": -71.01168
            },
            {
              "name": "St-Jean-Port-Joli",
              "lat": 47.21418,
              "lng": -70.26969
            },
            {
              "name": "Thetford-Mines",
              "lat": 46.09371,
              "lng": -71.30539
            },
            {
              "name": "Vallée-Jonction",
              "lat": 46.37441,
              "lng": -70.91881
            }
          ]
        },
        {
          "name": "Gatineau",
          "lat": 45.47723,
          "lng": -75.70164,
          "subdistricts": [
            {
              "name": "Buckingham",
              "lat": 45.58563,
              "lng": -75.4208
            },
            {
              "name": "Cantley",
              "lat": 45.5668,
              "lng": -75.78265
            },
            {
              "name": "La Minerve",
              "lat": 46.25009,
              "lng": -74.93257
            },
            {
              "name": "Lac-Simon",
              "lat": 46.15699,
              "lng": -74.74129
            },
            {
              "name": "le Plateau",
              "lat": 45.43514,
              "lng": -75.7803
            },
            {
              "name": "Notre-Dame-du-Mont-Carmel",
              "lat": 46.0168,
              "lng": -75.08259
            },