{
  "name": "China",
  "lat": 35,
  "lng": 105,
  "cities": [
    {
      "name": "Anhui",
      "lat": 32,
      "lng": 117,
      "districts": [
        {
          "name": "Anqing",
          "lat": 30.6592336,
          "lng": 116.6302585
        },
        {
          "name": "Bagongshan",
          "lat": 32.6535882,
          "lng": 116.7852505
        },
        {
          "name": "Baohe",
          "lat": 31.7512844,
          "lng": 117.2440843
        },
        {
          "name": "Bengbu",
          "lat": 32.9176422,
          "lng": 117.3825673
        },
        {
          "name": "Bengshan",
          "lat": 32.884217,
          "lng": 117.2768093
        },
        {
          "name": "Bozhou",
          "lat": 33.8490794,
          "lng": 115.7730968
        },
        {
          "name": "Changfeng",
          "lat": 32.231338,
          "lng": 116.8826532
        },
        {
          "name": "Chaohu",
          "lat": 31.600963,
          "lng": 117.8594813
        },
        {
          "name": "Chizhou",
          "lat": 30.6671088,
          "lng": 117.4859885
        },
        {
          "name": "Chuzhou",
          "lat": 32.3027377,
          "lng": 118.3139455
        },
        {
          "name": "Daguan",
          "lat": 30.4689787,
          "lng": 116.7334421
        },
        {
          "name": "Dangshan",
          "lat": 34.4624487,
          "lng": 116.0691294
        },
        {
          "name": "Dangtu",
          "lat": 31.4948975,
          "lng": 118.2946948
        },
        {
          "name": "Dingyuan",
          "lat": 32.4540049,
          "lng": 117.3250882
        },
        {
          "name": "Dongzhi",
          "lat": 30.0299437,
          "lng": 116.650012
        },
        {
          "name": "Duji",
          "lat": 34.091061,
          "lng": 116.3393143,
          "subdistricts": [
            {
              "name": "Xiaoxian",
              "lat": 34.2133668,
              "lng": 116.5095494
            }
          ]
        },
        {
          "name": "Feidong",
          "lat": 31.9149324,
          "lng": 117.2743129
        },
        {
          "name": "Feixi ",
          "lat": 31.7266786,
          "lng": 116.7284879,
          "subdistricts": [
            {
              "name": "Shushan",
              "lat": 31.8724252,
              "lng": 116.9030171
            }
          ]
        },
        {
          "name": "Fengyang",
          "lat": 32.83158,
          "lng": 117.2259635
        },
        {
          "name": "Funan",
          "lat": 32.6567523,
          "lng": 115.2901735
        },
        {
          "name": "Guangde",
          "lat": 30.8967914,
          "lng": 119.0245474
        },
        {
          "name": "Guichi",
          "lat": 30.5322664,
          "lng": 117.1443472
        },
        {
          "name": "Guoyang",
          "lat": 33.5632853,
          "lng": 115.891634
        },
        {
          "name": "Hanshan",
          "lat": 31.6513391,
          "lng": 117.8957925,
          "subdistricts": [
            {
              "name": "Hexian",
              "lat": 31.7507206,
              "lng": 117.9644499
            }
          ]
        },
        {
          "name": "Hefei",
          "lat": 31.8665676,
          "lng": 117.281428
        },
        {
          "name": "Huaibei",
          "lat": 33.9566098,
          "lng": 116.7928916
        },
        {
          "name": "Huainan",
          "lat": 32.5866826,
          "lng": 117.0130019,
          "subdistricts": [
            {
              "name": "Datong",
              "lat": 32.638848,
              "lng": 117.0376444
            }
          ]
        },
        {
          "name": "Huaining",
          "lat": 30.5820645,
          "lng": 116.4072317
        },
        {
          "name": "Huaishang",
          "lat": 33.0195648,
          "lng": 117.4393099,
          "subdistricts": [
            {
              "name": "Mingguang",
              "lat": 32.8327899,
              "lng": 117.8028686
            },
            {
              "name": "Wuhe",
              "lat": 33.1267359,
              "lng": 117.4666406
            }
          ]
        },
        {
          "name": "Huaiyuan",
          "lat": 33.0113466,
          "lng": 116.7016207
        },
        {
          "name": "Huangshan",
          "lat": 29.7172627,
          "lng": 118.3324811
        },
        {
          "name": "Huangshan",
          "lat": 30.2546454,
          "lng": 117.762732,
          "subdistricts": [
            {
              "name": "Yixian",
              "lat": 29.9906696,
              "lng": 117.7130168
            }
          ]
        },
        {
          "name": "Huizhou",
          "lat": 29.9222399,
          "lng": 118.0968867,
          "subdistricts": [
            {
              "name": "Xiuning",
              "lat": 29.7088233,
              "lng": 117.7186168
            }
          ]
        },
        {
          "name": "Huoqiu",
          "lat": 32.2686875,
          "lng": 115.8673082
        },
        {
          "name": "Huoshan",
          "lat": 31.2760061,
          "lng": 115.8879776
        },
        {
          "name": "Jiaoqu",
          "lat": 30.6880288,
          "lng": 117.2269894
        },
        {
          "name": "Jieshou",
          "lat": 33.2630643,
          "lng": 115.0610588,
          "subdistricts": [
            {
              "name": "Lixin",
              "lat": 33.1132552,
              "lng": 114.9556284
            },
            {
              "name": "Taihe",
              "lat": 33.3295984,
              "lng": 115.3315738
            }
          ]
        },
        {
          "name": "Jin'an",
          "lat": 31.6527558,
          "lng": 116.3145978
        },
        {
          "name": "Jingde",
          "lat": 30.3055247,
          "lng": 118.171167
        },
        {
          "name": "Jinzhai",
          "lat": 31.4561936,
          "lng": 115.4562727
        },
        {
          "name": "Jiujiang",
          "lat": 31.3524951,
          "lng": 117.9600876
        },
        {
          "name": "Jixi",
          "lat": 30.1459321,
          "lng": 118.313112
        },
        {
          "name": "Lai'an",
          "lat": 32.4672298,
          "lng": 118.1869583,
          "subdistricts": [
            {
              "name": "Tianchang",
              "lat": 32.7053916,
              "lng": 118.6166285
            }
          ]
        },
        {
          "name": "Langxi",
          "lat": 31.0569243,
          "lng": 119.0162519
        },
        {
          "name": "Langya",
          "lat": 32.3555728,
          "lng": 118.1418372
        },
        {
          "name": "Lieshan",
          "lat": 33.8215253,
          "lng": 116.7333778
        },
        {
          "name": "Lingbi",
          "lat": 33.6914286,
          "lng": 117.1926341,
          "subdistricts": [
            {
              "name": "Sixian",
              "lat": 33.5199459,
              "lng": 117.581199
            }
          ]
        },
        {
          "name": "Linquan",
          "lat": 32.8652245,
          "lng": 114.8730885
        },
        {
          "name": "Longzihu",
          "lat": 32.9113871,
          "lng": 117.3641194
        },
        {
          "name": "Lu'an",
          "lat": 31.7383487,
          "lng": 116.5142252
        },
        {
          "name": "Lu’an",
          "lat": 31.73561,
          "lng": 116.51688
        },
        {
          "name": "Lujiang",
          "lat": 31.2558864,
          "lng": 116.9731677
        },
        {
          "name": "Luyang",
          "lat": 31.9088,
          "lng": 117.182255
        },
        {
          "name": "Ma'anshan",
          "lat": 31.6866105,
          "lng": 118.5048377,
          "subdistricts": [
            {
              "name": "Bowang",
              "lat": 31.5670092,
              "lng": 118.5700775
            },
            {
              "name": "Huashan",
              "lat": 31.7218538,
              "lng": 118.3900575
            },
            {
              "name": "Yushan",
              "lat": 31.6410784,
              "lng": 118.4642344
            }
          ]
        },
        {
          "name": "Mengcheng",
          "lat": 33.209285,
          "lng": 116.2195286
        },
        {
          "name": "Nanqiao",
          "lat": 32.3482514,
          "lng": 117.8438783
        },
        {
          "name": "Ningguo",
          "lat": 30.5163168,
          "lng": 118.6798222
        },
        {
          "name": "Panji",
          "lat": 32.792802,
          "lng": 116.7181727,
          "subdistricts": [
            {
              "name": "Fengtai",
              "lat": 32.778712,
              "lng": 116.4143277
            }
          ]
        },
        {
          "name": "Qianshan",
          "lat": 30.7641631,
          "lng": 116.1833794
        },
        {
          "name": "Qiaocheng",
          "lat": 33.742488,
          "lng": 115.482354
        },
        {
          "name": "Qimen",
          "lat": 29.8570111,
          "lng": 117.2503068,
          "subdistricts": [
            {
              "name": "Shitai",
              "lat": 30.1790515,
              "lng": 117.252327
            }
          ]
        },
        {
          "name": "Qingyang",
          "lat": 30.5825866,
          "lng": 117.7431219,
          "subdistricts": [
            {
              "name": "Jingxian",
              "lat": 30.6134353,
              "lng": 117.9923423
            }
          ]
        },
        {
          "name": "Quanjiao",
          "lat": 32.0460756,
          "lng": 117.789923
        },
        {
          "name": "Shucheng",
          "lat": 31.2905609,
          "lng": 116.5139681
        },
        {
          "name": "Suixi",
          "lat": 33.6271576,
          "lng": 116.354116
        },
        {
          "name": "Suixi",
          "lat": 33.9166455,
          "lng": 116.7640522
        },
        {
          "name": "Susong",
          "lat": 30.1044033,
          "lng": 115.9078489,
          "subdistricts": [
            {
              "name": "Taihu",
              "lat": 30.4579005,
              "lng": 115.8011092
            }
          ]
        },
        {
          "name": "Suzhou",
          "lat": 33.6482366,
          "lng": 116.9588062,
          "subdistricts": [
            {
              "name": "Guzhen",
              "lat": 33.267915,
              "lng": 116.9978609
            }
          ]
        },
        {
          "name": "Tianjia'an",
          "lat": 32.5329274,
          "lng": 116.8297877
        },
        {
          "name": "Tongcheng",
          "lat": 30.9914634,
          "lng": 116.5916495
        },
        {
          "name": "Tongling",
          "lat": 30.9057603,
          "lng": 117.6141351
        },
        {
          "name": "Tunxi",
          "lat": 29.7449984,
          "lng": 118.2165942,
          "subdistricts": [
            {
              "name": "Shexian",
              "lat": 29.8105868,
              "lng": 118.2557419
            }
          ]
        },
        {
          "name": "Wangjiang",
          "lat": 30.2347024,
          "lng": 116.349449
        },
        {
          "name": "Wanzhi",
          "lat": 31.1260189,
          "lng": 118.417467
        },
        {
          "name": "Wuhu",
          "lat": 31.1800568,
          "lng": 118.2141777,
          "subdistricts": [
            {
              "name": "Fanchang",
              "lat": 31.0837941,
              "lng": 118.0071669
            },
            {
              "name": "Jinghu",
              "lat": 31.2640704,
              "lng": 118.3343893
            },
            {
              "name": "Yijiang",
              "lat": 31.2405254,
              "lng": 118.2878942
            }
          ]
        },
        {
          "name": "Wuwei",
          "lat": 31.2215668,
          "lng": 117.4805476
        },
        {
          "name": "Xiangshan",
          "lat": 33.9666951,
          "lng": 116.5661729
        },
        {
          "name": "Xiejiaji",
          "lat": 32.5299275,
          "lng": 116.7480927,
          "subdistricts": [
            {
              "name": "Shouxian",
              "lat": 32.2808967,
              "lng": 116.4429853
            }
          ]
        },
        {
          "name": "Xuancheng",
          "lat": 30.9412541,
          "lng": 118.7540167
        },
        {
          "name": "Xuanzhou",
          "lat": 30.9326858,
          "lng": 118.4449474
        },
        {
          "name": "Yaohai",
          "lat": 31.9440239,
          "lng": 117.2767693
        },
        {
          "name": "Yi'an",
          "lat": 30.9428954,
          "lng": 117.7832174,
          "subdistricts": [
            {
              "name": "Nanling",
              "lat": 30.9076712,
              "lng": 117.9151624
            },
            {
              "name": "Tongguan",
              "lat": 30.9322954,
              "lng": 117.7215874
            }
          ]
        },
        {
          "name": "Yingdong",
          "lat": 32.9255199,
          "lng": 115.8531071,
          "subdistricts": [
            {
              "name": "Fuyang",
              "lat": 32.8926763,
              "lng": 115.8090001
            },
            {
              "name": "Yingshang",
              "lat": 32.6618622,
              "lng": 115.9464135
            }
          ]
        },
        {
          "name": "Yingjiang",
          "lat": 30.5855389,
          "lng": 117.0597343
        },
        {
          "name": "Yingquan",
          "lat": 33.0246595,
          "lng": 115.5604272
        },
        {
          "name": "Yingzhou",
          "lat": 32.8602796,
          "lng": 115.3904035
        },
        {
          "name": "Yixiu",
          "lat": 30.637181,
          "lng": 116.8915718
        },
        {
          "name": "Yongqiao",
          "lat": 33.6890137,
          "lng": 116.8154091
        },
        {
          "name": "Yu'an",
          "lat": 31.7604343,
          "lng": 115.9554179,
          "subdistricts": [
            {
              "name": "Yeji",
              "lat": 31.8710453,
              "lng": 115.8960121
            }
          ]
        },
        {
          "name": "Yuexi",
          "lat": 30.917482,
          "lng": 115.8754494
        },
        {
          "name": "Yuhui",
          "lat": 32.8451704,
          "lng": 117.0554072
        },
        {
          "name": "Zongyang",
          "lat": 30.8548773,
          "lng": 117.0815694
        }
      ]
    },
    {
      "name": "Beijing",
      "lat": 39.9057136,
      "lng": 116.3912972,
      "districts": [
        {
          "name": "Beijing",
          "lat": 39.9075,
          "lng": 116.39723,
          "iscapital": true,
          "subdistricts": [
            {
              "name": "Dongcheng",
              "lat": 39.9164984,
              "lng": 116.3748605
            }
          ]
        },
        {
          "name": "Daxing",
          "lat": 39.74025,
          "lng": 116.32693,
          "subdistricts": [
            {
              "name": "Liangxiang",
              "lat": 39.73598,
              "lng": 116.13295
            }
          ]
        },
        {
          "name": "Haidian",
          "lat": 40.0241811,
          "lng": 116.0577732,
          "subdistricts": [
            {
              "name": "Changping",
              "lat": 40.21612,
              "lng": 116.23471
            }
          ]
        },
        {
          "name": "Huairou",
          "lat": 40.6477972,
          "lng": 116.2559135
        },
        {
          "name": "Mentougou",
          "lat": 39.93819,
          "lng": 116.09307,
          "subdistricts": [
            {
              "name": "Fangshan",
              "lat": 39.68699,
              "lng": 115.99658
            },
            {
              "name": "Fengtai",
              "lat": 39.8298869,
              "lng": 116.0953332
            }
          ]
        },
        {
          "name": "Miyun",
          "lat": 40.5110749,
          "lng": 117.08536
        },
        {
          "name": "Pinggu",
          "lat": 40.2047124,
          "lng": 116.8390657
        },
        {
          "name": "Shijingshan",
          "lat": 39.9339757,
          "lng": 116.1857849
        },
        {
          "name": "Shunyi",
          "lat": 40.12175,
          "lng": 116.64783
        },
        {
          "name": "Tongzhou",
          "lat": 39.90395,
          "lng": 116.66183
        },
        {
          "name": "Xicheng",
          "lat": 39.9209726,
          "lng": 116.3192105,
          "subdistricts": [
            {
              "name": "Chaoyang",
              "lat": 39.9605414,
              "lng": 116.3333882
            }
          ]
        },
        {
          "name": "Yanqing",
          "lat": 40.5282715,
          "lng": 115.824981
        }
      ]
    },
    {
      "name": "Chongqing",
      "lat": 30.05518,
      "lng": 107.8748712,
      "districts": [
        {
          "name": "Beibei",
          "lat": 29.82739,
          "lng": 106.43645
        },
        {
          "name": "Bishan",
          "lat": 29.5814828,
          "lng": 105.8789085
        },
        {
          "name": "Changshou",
          "lat": 29.9744395,
          "lng": 106.8284488
        },
        {
          "name": "Chengkou",
          "lat": 31.9097724,
          "lng": 108.1118385
        },
        {
          "name": "Dadukou",
          "lat": 29.4201907,
          "lng": 106.3815043,
          "subdistricts": [
            {
              "name": "Banan",
              "lat": 29.447874,
              "lng": 106.3892486
            },
            {
              "name": "Ganshui",
              "lat": 28.74222,
              "lng": 106.71111
            },
            {
              "name": "Jiulongpo",
              "lat": 29.4070685,
              "lng": 106.2373773
            }
          ]
        },
        {
          "name": "Dazu",
          "lat": 29.6154725,
          "lng": 105.4248736
        },
        {
          "name": "Dianjiang",
          "lat": 30.2443623,
          "lng": 107.1275991
        },
        {
          "name": "Fengjie",
          "lat": 30.9285668,
          "lng": 109.0645294,
          "subdistricts": [
            {
              "name": "Wushan",
              "lat": 31.1204203,
              "lng": 109.5537045
            }
          ]
        },
        {
          "name": "Fuling",
          "lat": 29.706,
          "lng": 107.39575,
          "subdistricts": [
            {
              "name": "Fengdu",
              "lat": 29.9047101,
              "lng": 107.5149487
            },
            {
              "name": "Pengshui",
              "lat": 29.3976594,
              "lng": 107.8719035
            },
            {
              "name": "Qianjiang",
              "lat": 29.4692638,
              "lng": 108.3909835
            },
            {
              "name": "Wulong",
              "lat": 29.3506547,
              "lng": 107.3268034
            },
            {
              "name": "Xiushan",
              "lat": 28.5211271,
              "lng": 108.688458
            },
            {
              "name": "Youyang",
              "lat": 28.8622908,
              "lng": 108.1582851
            }
          ]
        },
        {
          "name": "Hechuan",
          "lat": 29.99228,
          "lng": 106.26461
        },
        {
          "name": "Jiangjin",
          "lat": 28.987598,
          "lng": 105.8877233,
          "subdistricts": [
            {
              "name": "Qijiang",
              "lat": 28.8194744,
              "lng": 106.3931232
            }
          ]
        },
        {
          "name": "Kaizhou",
          "lat": 31.254717,
          "lng": 107.7578916
        },
        {
          "name": "Liangping",
          "lat": 30.67409,
          "lng": 107.7938
        },
        {
          "name": "Rongchang",
          "lat": 29.4698584,
          "lng": 105.3505972
        },
        {
          "name": "Tongliang",
          "lat": 29.8070408,
          "lng": 105.6998437
        },
        {
          "name": "Tongnan",
          "lat": 30.1122583,
          "lng": 105.4483889
        },
        {
          "name": "Wanzhou",
          "lat": 30.70576,
          "lng": 108.40202,
          "subdistricts": [
            {
              "name": "Yunyang",
              "lat": 31.0095262,
              "lng": 108.5027345
            }
          ]
        },
        {
          "name": "Wuxi",
          "lat": 31.4794502,
          "lng": 108.6788823
        },
        {
          "name": "Yongchuan",
          "lat": 29.35376,
          "lng": 105.89392
        },
        {
          "name": "Yubei",
          "lat": 29.8479405,
          "lng": 106.3877387
        },
        {
          "name": "Yuzhong",
          "lat": 29.55208,
          "lng": 106.53814,
          "subdistricts": [
            {
              "name": "Jiangbei",
              "lat": 29.6153081,
              "lng": 106.5072423
            },
            {
              "name": "Nan'an",
              "lat": 29.5376382,
              "lng": 106.5018673
            },
            {
              "name": "Nanchuan",
              "lat": 29.1290417,
              "lng": 106.8369333
            },
            {
              "name": "Shapingba",
              "lat": 29.54166,
              "lng": 106.45547
            }
          ]
        },
        {
          "name": "Zhong",
          "lat": 30.3197267,
          "lng": 107.5651691,
          "subdistricts": [
            {
              "name": "Shizhu",
              "lat": 30.0996936,
              "lng": 107.9563239
            }
          ]
        }
      ]
    },
    {
      "name": "Fujian",
      "lat": 26.193218,
      "lng": 118.2208721,
      "districts": [
        {
          "name": "Anxi",
          "lat": 25.133972,
          "lng": 117.6005045
        },
        {
          "name": "Cangshan",
          "lat": 26.0305509,
          "lng": 119.2553341,
          "subdistricts": [
            {
              "name": "Fuqing",
              "lat": 25.725,
              "lng": 119.37944
            }
          ]
        },
        {
          "name": "Changting",
          "lat": 25.6702286,
          "lng": 116.0164997,
          "subdistricts": [
            {
              "name": "Wuping",
              "lat": 25.1431468,
              "lng": 115.7945446
            }
          ]
        },
        {
          "name": "Chengxiang",
          "lat": 25.4377531,
          "lng": 118.7710064,
          "subdistricts": [
            {
              "name": "Licheng",
              "lat": 25.4235892,
              "lng": 118.5228122
            }
          ]
        },
        {
          "name": "Datian",
          "lat": 25.8184114,
          "lng": 117.4412098
        },
        {
          "name": "Dehua",
          "lat": 25.6638388,
          "lng": 117.9152848,
          "subdistricts": [
            {
              "name": "Youxi",
              "lat": 26.1394763,
              "lng": 117.9139949
            }
          ]
        },
        {
          "name": "Fuding",
          "lat": 27.32734,
          "lng": 120.21399
        },
        {
          "name": "Guangze",
          "lat": 27.6414786,
          "lng": 117.0133358
        },
        {
          "name": "Gulou",
          "lat": 26.0906911,
          "lng": 119.2419054,
          "subdistricts": [
            {
              "name": "Hongtang",
              "lat": 26.07056,
              "lng": 119.23083
            },
            {
              "name": "Huai’an",
              "lat": 26.09899,
              "lng": 119.22171
            },
            {
              "name": "Shangjie",
              "lat": 26.08679,
              "lng": 119.18494
            }
          ]
        },
        {
          "name": "Haicang",
          "lat": 24.5301236,
          "lng": 117.9004341
        },
        {
          "name": "Hanjiang",
          "lat": 25.5790523,
          "lng": 118.8827112,
          "subdistricts": [
            {
              "name": "Jiangkou",
              "lat": 25.48694,
              "lng": 119.19834
            }
          ]
        },
        {
          "name": "Hua'an",
          "lat": 24.9217554,
          "lng": 117.1825544,
          "subdistricts": [
            {
              "name": "Longyan",
              "lat": 25.0767425,
              "lng": 117.0123483
            },
            {
              "name": "Nanjing",
              "lat": 24.7155886,
              "lng": 116.9847294
            }
          ]
        },
        {
          "name": "Hui'an",
          "lat": 24.9713304,
          "lng": 118.6882563,
          "subdistricts": [
            {
              "name": "Baiqi",
              "lat": 24.88244,
              "lng": 118.70869
            },
            {
              "name": "Dongyuan",
              "lat": 24.91738,
              "lng": 118.75236
            },
            {
              "name": "Luoyang",
              "lat": 24.95938,
              "lng": 118.683
            },
            {
              "name": "Shanxia",
              "lat": 24.93802,
              "lng": 118.8817
            },
            {
              "name": "Tuzhai",
              "lat": 24.98301,
              "lng": 118.83194
            }
          ]
        },
        {
          "name": "Huli",
          "lat": 24.5208287,
          "lng": 118.0683691
        },
        {
          "name": "Jian'ou",
          "lat": 26.9905945,
          "lng": 117.8116984,
          "subdistricts": [
            {
              "name": "Yanping",
              "lat": 26.5593899,
              "lng": 117.9318702
            }
          ]
        },
        {
          "name": "Jiangle",
          "lat": 26.7451671,
          "lng": 117.0522703,
          "subdistricts": [
            {
              "name": "Mingxi",
              "lat": 26.3834727,
              "lng": 116.8657951
            }
          ]
        },
        {
          "name": "Jianning",
          "lat": 26.8203409,
          "lng": 116.4605753
        },
        {
          "name": "Jianyang",
          "lat": 27.4149985,
          "lng": 117.4200494
        },
        {
          "name": "Jiaocheng",
          "lat": 26.7451621,
          "lng": 119.1607203,
          "subdistricts": [
            {
              "name": "Daixi",
              "lat": 26.8125,
              "lng": 119.11417
            },
            {
              "name": "Daqiao",
              "lat": 26.615,
              "lng": 118.90639
            },
            {
              "name": "Gufeng",
              "lat": 26.90833,
              "lng": 118.98194
            },
            {
              "name": "Hetang",
              "lat": 26.66276,
              "lng": 119.11062
            },
            {
              "name": "Shanyang",
              "lat": 26.67019,
              "lng": 119.20509
            },
            {
              "name": "Xiling",
              "lat": 26.81444,
              "lng": 119.04722
            },
            {
              "name": "Yangzhong",
              "lat": 26.70556,
              "lng": 119.37444
            },
            {
              "name": "Zhuoyang",
              "lat": 26.63003,
              "lng": 119.0215
            }
          ]
        },
        {
          "name": "Jijiang",
          "lat": 29.28993,
          "lng": 106.25001
        },
        {
          "name": "Jimei",
          "lat": 24.6453934,
          "lng": 117.959839
        },
        {
          "name": "Jin'an",
          "lat": 26.219724,
          "lng": 119.1490513,
          "subdistricts": [
            {
              "name": "Rong’an",
              "lat": 26.12472,
              "lng": 119.12139
            },
            {
              "name": "Zhuqi",
              "lat": 26.1486,
              "lng": 119.10216
            }
          ]
        },
        {
          "name": "Jinjiang",
          "lat": 24.81978,
          "lng": 118.57415,
          "subdistricts": [
            {
              "name": "Fengze",
              "lat": 24.916698,
              "lng": 118.5350891
            },
            {
              "name": "Fengzhou",
              "lat": 24.95762,
              "lng": 118.53365
            },
            {
              "name": "Licheng",
              "lat": 24.906177,
              "lng": 118.5120204
            }
          ]
        },
        {
          "name": "Liancheng",
          "lat": 25.58422,
          "lng": 116.5282597
        },
        {
          "name": "Lianjiang",
          "lat": 26.2519917,
          "lng": 119.2424868,
          "subdistricts": [
            {
              "name": "Danyang",
              "lat": 26.35102,
              "lng": 119.4803
            }
          ]
        },
        {
          "name": "Longhai",
          "lat": 24.3469344,
          "lng": 117.5395942
        },
        {
          "name": "Longhai",
          "lat": 24.4490237,
          "lng": 117.8132438,
          "subdistricts": [
            {
              "name": "Shima",
              "lat": 24.44647,
              "lng": 117.81216
            }
          ]
        },
        {
          "name": "Longwen",
          "lat": 24.5416437,
          "lng": 117.6578541
        },
        {
          "name": "Luojiang",
          "lat": 25.1158446,
          "lng": 118.4774362,
          "subdistricts": [
            {
              "name": "Ximei",
              "lat": 24.98773,
              "lng": 118.3858
            }
          ]
        },
        {
          "name": "Luoyuan",
          "lat": 26.5115456,
          "lng": 119.1864651,
          "subdistricts": [
            {
              "name": "Hongyang",
              "lat": 26.52861,
              "lng": 119.4625
            },
            {
              "name": "Luoqiao",
              "lat": 26.47265,
              "lng": 119.00392
            },
            {
              "name": "Qibu",
              "lat": 26.5075,
              "lng": 119.545
            },
            {
              "name": "Zhongfang",
              "lat": 26.60083,
              "lng": 119.42583
            }
          ]
        },
        {
          "name": "Mawei",
          "lat": 26.0640897,
          "lng": 119.3680914,
          "subdistricts": [
            {
              "name": "Changle",
              "lat": 25.8694805,
              "lng": 119.3706616
            },
            {
              "name": "Chengmen",
              "lat": 25.99339,
              "lng": 119.36136
            },
            {
              "name": "Dinghaicun",
              "lat": 26.28022,
              "lng": 119.78964
            },
            {
              "name": "Dongdai",
              "lat": 26.24366,
              "lng": 119.61566
            },
            {
              "name": "Donghu",
              "lat": 26.23453,
              "lng": 119.5143
            },
            {
              "name": "Guantou",
              "lat": 26.13593,
              "lng": 119.56162
            },
            {
              "name": "Houyu",
              "lat": 26.05958,
              "lng": 119.53502
            },
            {
              "name": "Kuai’an",
              "lat": 26.03417,
              "lng": 119.41639
            },
            {
              "name": "Min’an",
              "lat": 26.04962,
              "lng": 119.49964
            },
            {
              "name": "Pandu",
              "lat": 26.23639,
              "lng": 119.45026
            },
            {
              "name": "Tantou",
              "lat": 26.03033,
              "lng": 119.59739
            },
            {
              "name": "Tingjiang",
              "lat": 26.07401,
              "lng": 119.50574
            }
          ]
        },
        {
          "name": "Minhou",
          "lat": 26.1986005,
          "lng": 118.81911,
          "subdistricts": [
            {
              "name": "Baiyun",
              "lat": 26.03648,
              "lng": 118.90622
            },
            {
              "name": "Meipu",
              "lat": 26.2112,
              "lng": 118.89561
            },
            {
              "name": "Shuikou",
              "lat": 26.3836,
              "lng": 118.73027
            }
          ]
        },
        {
          "name": "Minqing",
          "lat": 26.233605,
          "lng": 118.43363,
          "subdistricts": [
            {
              "name": "Huangtian",
              "lat": 26.43851,
              "lng": 118.62398
            }
          ]
        },
        {
          "name": "Nanping",
          "lat": 27.3856975,
          "lng": 118.0753196
        },
        {
          "name": "Ningde",
          "lat": 27.0143281,
          "lng": 119.4385501,
          "subdistricts": [
            {
              "name": "Badu",
              "lat": 26.81028,
              "lng": 119.56417
            },
            {
              "name": "Chixi",
              "lat": 26.91111,
              "lng": 119.48306
            },
            {
              "name": "Fu'an",
              "lat": 27.06372,
              "lng": 119.6528
            },
            {
              "name": "Gantang",
              "lat": 26.92,
              "lng": 119.63333
            },
            {
              "name": "Huotong",
              "lat": 26.84972,
              "lng": 119.41806
            },
            {
              "name": "Xiancun",
              "lat": 26.93861,
              "lng": 119.36028
            },
            {
              "name": "Zherong",
              "lat": 27.2054038,
              "lng": 119.7279066
            }
          ]
        },
        {
          "name": "Ninghua",
          "lat": 26.3167887,
          "lng": 116.3838551
        },
        {
          "name": "Pingnan",
          "lat": 26.949144,
          "lng": 118.6303553,
          "subdistricts": [
            {
              "name": "Changqiao",
              "lat": 26.82139,
              "lng": 118.84361
            },
            {
              "name": "Fengpu",
              "lat": 26.68276,
              "lng": 118.76006
            },
            {
              "name": "Gutian",
              "lat": 26.5845244,
              "lng": 118.6413352
            },
            {
              "name": "Jian’ou",
              "lat": 27.04694,
              "lng": 118.32528
            },
            {
              "name": "Luxia",
              "lat": 26.93,
              "lng": 118.80722
            },
            {
              "name": "Shuangzhu",
              "lat": 26.63114,
              "lng": 118.6457
            },
            {
              "name": "Yanghou",
              "lat": 26.64083,
              "lng": 118.50806
            },
            {
              "name": "Yushan",
              "lat": 26.90863,
              "lng": 118.56713
            }
          ]
        },
        {
          "name": "Putian",
          "lat": 25.4965882,
          "lng": 118.8500963
        },
        {
          "name": "Qingliu",
          "lat": 26.0723075,
          "lng": 116.58499
        },
        {
          "name": "Quangang",
          "lat": 25.1656245,
          "lng": 118.7070013
        },
        {
          "name": "Quanzhou",
          "lat": 25.1901863,
          "lng": 118.338717,
          "subdistricts": [
            {
              "name": "Xiangyun",
              "lat": 24.97111,
              "lng": 118.16028
            },
            {
              "name": "Xianyou",
              "lat": 25.4407823,
              "lng": 118.3666546
            },
            {
              "name": "Yingdu",
              "lat": 24.97167,
              "lng": 118.24417
            }
          ]
        },
        {
          "name": "Sanming",
          "lat": 26.3355765,
          "lng": 117.442474,
          "subdistricts": [
            {
              "name": "Sanyuan",
              "lat": 26.1706692,
              "lng": 117.3571713
            },
            {
              "name": "Shaxian",
              "lat": 26.3852426,
              "lng": 117.4964201
            }
          ]
        },
        {
          "name": "Shaowu",
          "lat": 27.34089,
          "lng": 117.4831
        },
        {
          "name": "Shishi",
          "lat": 24.7243617,
          "lng": 118.5534613,
          "subdistricts": [
            {
              "name": "Jinjing",
              "lat": 24.575,
              "lng": 118.59722
            },
            {
              "name": "Kerencun",
              "lat": 24.58213,
              "lng": 118.66046
            },
            {
              "name": "Maping",
              "lat": 24.68722,
              "lng": 118.55278
            },
            {
              "name": "Neikeng",
              "lat": 24.78544,
              "lng": 118.46037
            },
            {
              "name": "Shijing",
              "lat": 24.61956,
              "lng": 118.42437
            },
            {
              "name": "Tatou",
              "lat": 24.61732,
              "lng": 118.52672
            },
            {
              "name": "Wubao",
              "lat": 24.59589,
              "lng": 118.55359
            },
            {
              "name": "Yakou",
              "lat": 24.67194,
              "lng": 118.63722
            },
            {
              "name": "Yinglin",
              "lat": 24.63222,
              "lng": 118.58056
            },
            {
              "name": "Yongning",
              "lat": 24.68,
              "lng": 118.69
            }
          ]
        },
        {
          "name": "Shouning",
          "lat": 27.4232178,
          "lng": 119.3125915
        },
        {
          "name": "Shunchang",
          "lat": 26.9135346,
          "lng": 117.5458854
        },
        {
          "name": "Siming",
          "lat": 24.4508538,
          "lng": 118.0642341,
          "subdistricts": [
            {
              "name": "Wuyucun",
              "lat": 24.33551,
              "lng": 118.14489
            },
            {
              "name": "Zhenhaicun",
              "lat": 24.25894,
              "lng": 118.09186
            }
          ]
        },
        {
          "name": "Taijiang",
          "lat": 26.0549312,
          "lng": 119.2787653,
          "subdistricts": [
            {
              "name": "Fuzhou",
              "lat": 26.0774954,
              "lng": 119.2918215
            }
          ]
        },
        {
          "name": "Taining",
          "lat": 26.8435155,
          "lng": 116.8189404
        },
        {
          "name": "Tong'an",
          "lat": 24.7466067,
          "lng": 117.9244362,
          "subdistricts": [
            {
              "name": "Changtai",
              "lat": 24.7254693,
              "lng": 117.8202813
            },
            {
              "name": "Longmen",
              "lat": 24.95972,
              "lng": 118.08889
            },
            {
              "name": "Nan'an",
              "lat": 24.9274202,
              "lng": 118.0343794
            }
          ]
        },
        {
          "name": "Wuyishan",
          "lat": 27.75995,
          "lng": 118.03066,
          "subdistricts": [
            {
              "name": "Pucheng",
              "lat": 27.92333,
              "lng": 118.53333
            }
          ]
        },
        {
          "name": "Xiamen",
          "lat": 24.5438732,
          "lng": 118.0768065,
          "subdistricts": [
            {
              "name": "Liuwudiancun",
              "lat": 24.56923,
              "lng": 118.19064
            }
          ]
        },
        {
          "name": "Xiang'an",
          "lat": 24.670667,
          "lng": 118.1251412,
          "subdistricts": [
            {
              "name": "Dadeng",
              "lat": 24.54386,
              "lng": 118.32753
            },
            {
              "name": "Lianhecun",
              "lat": 24.58932,
              "lng": 118.33903
            },
            {
              "name": "Xindian",
              "lat": 24.61006,
              "lng": 118.24068
            }
          ]
        },
        {
          "name": "Xiangcheng",
          "lat": 24.5903486,
          "lng": 117.525129,
          "subdistricts": [
            {
              "name": "Changtai",
              "lat": 24.7302916,
              "lng": 117.6208562
            }
          ]
        },
        {
          "name": "Xiapu",
          "lat": 26.7579318,
          "lng": 119.8092453,
          "subdistricts": [
            {
              "name": "Beishancun",
              "lat": 26.43732,
              "lng": 119.63372
            },
            {
              "name": "Chongru",
              "lat": 26.95111,
              "lng": 119.92528
            },
            {
              "name": "Dingtoucun",
              "lat": 26.83977,
              "lng": 119.66111
            },
            {
              "name": "Dongchongcun",
              "lat": 26.54001,
              "lng": 119.83257
            },
            {
              "name": "Feiluan",
              "lat": 26.5625,
              "lng": 119.5975
            },
            {
              "name": "Jianjiang",
              "lat": 26.54972,
              "lng": 119.755
            },
            {
              "name": "Jitoucun",
              "lat": 26.47681,
              "lng": 119.60517
            },
            {
              "name": "Kengyuan",
              "lat": 26.33964,
              "lng": 119.76476
            },
            {
              "name": "Qidu",
              "lat": 26.76528,
              "lng": 119.54722
            },
            {
              "name": "Shajiang",
              "lat": 26.7825,
              "lng": 119.96694
            },
            {
              "name": "Xiabaishi",
              "lat": 26.81528,
              "lng": 119.67917
            },
            {
              "name": "Xiahu",
              "lat": 26.61056,
              "lng": 119.94833
            },
            {
              "name": "Xibing",
              "lat": 26.98139,
              "lng": 119.72472
            },
            {
              "name": "Xinan",
              "lat": 26.72,
              "lng": 119.85556
            },
            {
              "name": "Yantian",
              "lat": 26.85333,
              "lng": 119.8575
            },
            {
              "name": "Zhangwan",
              "lat": 26.71139,
              "lng": 119.59194
            }
          ]
        },
        {
          "name": "Xinluo",
          "lat": 25.1769164,
          "lng": 116.6801496,
          "subdistricts": [
            {
              "name": "Shanghang",
              "lat": 25.1128023,
              "lng": 116.2811346
            }
          ]
        },
        {
          "name": "Xiuyu",
          "lat": 25.1704564,
          "lng": 118.9849195,
          "subdistricts": [
            {
              "name": "Dazuo",
              "lat": 24.88616,
              "lng": 118.96433
            },
            {
              "name": "Dongling",
              "lat": 24.98271,
              "lng": 118.8979
            },
            {
              "name": "Jingfeng",
              "lat": 24.97441,
              "lng": 118.96486
            },
            {
              "name": "Pingtan",
              "lat": 25.4859265,
              "lng": 119.4298646
            }
          ]
        },
        {
          "name": "Yong'an",
          "lat": 25.8825204,
          "lng": 117.0293949
        },
        {
          "name": "Yongchun",
          "lat": 25.3854331,
          "lng": 117.7819097
        },
        {
          "name": "Yongding",
          "lat": 24.7302133,
          "lng": 116.4203694,
          "subdistricts": [
            {
              "name": "Kinmen",
              "lat": 24.6761058,
              "lng": 116.4768727
            }
          ]
        },
        {
          "name": "Yongtai",
          "lat": 25.8583757,
          "lng": 118.4696249
        },
        {
          "name": "Yunxiao",
          "lat": 23.9900956,
          "lng": 117.1791461,
          "subdistricts": [
            {
              "name": "Dongshan",
              "lat": 23.6669872,
              "lng": 117.2739311
            },
            {
              "name": "Pinghe",
              "lat": 24.3067601,
              "lng": 116.8817242
            }
          ]
        },
        {
          "name": "Zhangping",
          "lat": 25.3459787,
          "lng": 117.1337747
        },
        {
          "name": "Zhangpu",
          "lat": 24.0286744,
          "lng": 117.3973291
        },
        {
          "name": "Zhangzhou",
          "lat": 24.2388257,
          "lng": 117.4524304
        },
        {
          "name": "Zhao'an",
          "lat": 23.8594373,
          "lng": 116.821539
        },
        {
          "name": "Zhenghe",
          "lat": 27.2864788,
          "lng": 118.5809305,
          "subdistricts": [
            {
              "name": "Songxi",
              "lat": 27.6220868,
              "lng": 118.5709965
            }
          ]
        },
        {
          "name": "Zhouning",
          "lat": 27.1013593,
          "lng": 119.1403915,
          "subdistricts": [
            {
              "name": "Shoushan",
              "lat": 26.96444,
              "lng": 119.16167
            },
            {
              "name": "Shuangxi",
              "lat": 27.02248,
              "lng": 119.0414
            },
            {
              "name": "Tangkou",
              "lat": 26.95417,
              "lng": 119.01278
            }
          ]
        }
      ]
    },
    {
      "name": "Gansu",
      "lat": 38.0000001,
      "lng": 101.9999999,
      "districts": [
        {
          "name": "Baiyin",
          "lat": 36.536461,
          "lng": 104.784953,
          "subdistricts": [
            {
              "name": "Jingyuan",
              "lat": 36.498934,
              "lng": 104.696337
            }
          ]
        },
        {
          "name": "Dingxi",
          "lat": 35.1773165,
          "lng": 104.59362,
          "subdistricts": [
            {
              "name": "Anding",
              "lat": 35.638448,
              "lng": 104.628177
            }
          ]
        },
        {
          "name": "Dongxiang",
          "lat": 35.692823,
          "lng": 103.442724
        },
        {
          "name": "Dunhuang",
          "lat": 40.1411004,
          "lng": 94.6607593,
          "subdistricts": [
            {
              "name": "Akesai",
              "lat": 39.1449161,
              "lng": 94.3556942
            }
          ]
        },
        {
          "name": "Gangu",
          "lat": 34.7656528,
          "lng": 105.291805,
          "subdistricts": [
            {
              "name": "Mawu",
              "lat": 34.42639,
              "lng": 104.91472
            },
            {
              "name": "Wushan",
              "lat": 34.6824153,
              "lng": 104.8919791
            }
          ]
        },
        {
          "name": "Gannan",
          "lat": 34.3971917,
          "lng": 102.7098994,
          "subdistricts": [
            {
              "name": "Luqu",
              "lat": 34.3955892,
              "lng": 102.5020983
            },
            {
              "name": "Maqu",
              "lat": 33.8679726,
              "lng": 101.7112242
            },
            {
              "name": "Xiahe",
              "lat": 34.9842192,
              "lng": 102.4476724
            }
          ]
        },
        {
          "name": "Gaolan",
          "lat": 36.384141,
          "lng": 103.889035
        },
        {
          "name": "Guanghe",
          "lat": 35.4721336,
          "lng": 103.6101177
        },
        {
          "name": "Gulang",
          "lat": 37.5234607,
          "lng": 103.3629573
        },
        {
          "name": "Hezheng",
          "lat": 35.3063672,
          "lng": 103.31814,
          "subdistricts": [
            {
              "name": "Hezuo",
              "lat": 34.98556,
              "lng": 102.90944
            }
          ]
        },
        {
          "name": "Honggu",
          "lat": 36.2790687,
          "lng": 103.1009766,
          "subdistricts": [
            {
              "name": "Yongdeng",
              "lat": 36.7339512,
              "lng": 103.2586357
            }
          ]
        },
        {
          "name": "Huachi",
          "lat": 36.4314109,
          "lng": 108.0307314,
          "subdistricts": [
            {
              "name": "Heshui",
              "lat": 36.0154,
              "lng": 108.269943
            }
          ]
        },
        {
          "name": "Huining",
          "lat": 35.8861213,
          "lng": 105.0906157
        },
        {
          "name": "Jiayuguan",
          "lat": 39.7722294,
          "lng": 98.2885388,
          "subdistricts": [
            {
              "name": "Jingtie",
              "lat": 39.7935801,
              "lng": 98.2758211
            },
            {
              "name": "Laojunmiao",
              "lat": 39.83333,
              "lng": 97.73333
            },
            {
              "name": "Xiongguan",
              "lat": 39.7829571,
              "lng": 98.2745612
            },
            {
              "name": "Yumen",
              "lat": 40.2355108,
              "lng": 97.4322482
            }
          ]
        },
        {
          "name": "Jinchang",
          "lat": 38.449693,
          "lng": 102.058389,
          "subdistricts": [
            {
              "name": "Jinchuan",
              "lat": 38.6406625,
              "lng": 102.1911782
            }
          ]
        },
        {
          "name": "Jingchuan",
          "lat": 35.348094,
          "lng": 107.431358
        },
        {
          "name": "Jingning",
          "lat": 35.415916,
          "lng": 105.6925951
        },
        {
          "name": "Jingtai",
          "lat": 37.1056692,
          "lng": 104.0552296
        },
        {
          "name": "Jinta",
          "lat": 40.3552847,
          "lng": 99.1644872
        },
        {
          "name": "Jiuquan",
          "lat": 40.2773513,
          "lng": 96.4560478,
          "subdistricts": [
            {
              "name": "Guazhou",
              "lat": 40.5187181,
              "lng": 95.7810399
            },
            {
              "name": "Subei",
              "lat": 39.7281239,
              "lng": 96.455217
            }
          ]
        },
        {
          "name": "Kangle",
          "lat": 35.2453026,
          "lng": 103.6238324
        },
        {
          "name": "Lanzhou",
          "lat": 36.474436,
          "lng": 103.733224
        },
        {
          "name": "Liangzhou",
          "lat": 37.904466,
          "lng": 102.776799,
          "subdistricts": [
            {
              "name": "Changcheng",
              "lat": 37.9111448,
              "lng": 102.9017807
            }
          ]
        },
        {
          "name": "Lingtai",
          "lat": 35.0759545,
          "lng": 107.398731,
          "subdistricts": [
            {
              "name": "Chongxin",
              "lat": 35.2452584,
              "lng": 106.9879757
            }
          ]
        },
        {
          "name": "Lintan",
          "lat": 34.7148215,
          "lng": 103.6227356,
          "subdistricts": [
            {
              "name": "Diebu",
              "lat": 33.9837983,
              "lng": 103.5729227
            },
            {
              "name": "Minxian",
              "lat": 34.4352469,
              "lng": 104.2694097
            },
            {
              "name": "Zhuoni",
              "lat": 34.5651009,
              "lng": 103.359637
            }
          ]
        },
        {
          "name": "Lintao",
          "lat": 35.446596,
          "lng": 103.9799485,
          "subdistricts": [
            {
              "name": "Weiyuan",
              "lat": 35.1515208,
              "lng": 104.1445423
            }
          ]
        },
        {
          "name": "Linxia",
          "lat": 35.7003215,
          "lng": 103.2791334,
          "subdistricts": [
            {
              "name": "Linxia Huizu Zizhizhou",
              "lat": 35.66597,
              "lng": 103.2408
            }
          ]
        },
        {
          "name": "Linxia Chengguanzhen",
          "lat": 35.60028,
          "lng": 103.20639,
          "subdistricts": [
            {
              "name": "Jishishan",
              "lat": 35.7016081,
              "lng": 102.9229176
            }
          ]
        },
        {
          "name": "Linze",
          "lat": 39.347318,
          "lng": 100.188022,
          "subdistricts": [
            {
              "name": "Ganzhou",
              "lat": 39.000167,
              "lng": 100.51999
            }
          ]
        },
        {
          "name": "Longnan",
          "lat": 33.5363816,
          "lng": 105.3513561,
          "subdistricts": [
            {
              "name": "Kangxian",
              "lat": 33.3312064,
              "lng": 105.6050116
            }
          ]
        },
        {
          "name": "Longxi",
          "lat": 35.1044218,
          "lng": 104.6258144,
          "subdistricts": [
            {
              "name": "Zhangxian",
              "lat": 34.8495896,
              "lng": 104.4694444
            }
          ]
        },
        {
          "name": "Maiji",
          "lat": 34.3998174,
          "lng": 106.2290488,
          "subdistricts": [
            {
              "name": "Huixian",
              "lat": 33.7675425,
              "lng": 106.0800168
            },
            {
              "name": "Liangdang",
              "lat": 33.8718307,
              "lng": 106.3817727
            }
          ]
        },
        {
          "name": "Minle",
          "lat": 38.5050225,
          "lng": 100.7636526
        },
        {
          "name": "Minqin",
          "lat": 38.753616,
          "lng": 103.168877
        },
        {
          "name": "Pingchuan",
          "lat": 36.717366,
          "lng": 104.96699
        },
        {
          "name": "Pingliang",
          "lat": 35.22678,
          "lng": 106.495648,
          "subdistricts": [
            {
              "name": "Huating",
              "lat": 35.2154458,
              "lng": 106.5960843
            },
            {
              "name": "Kongtong",
              "lat": 35.4816584,
              "lng": 106.7744534
            },
            {
              "name": "Zhangjiachuan",
              "lat": 34.9948392,
              "lng": 106.2721109
            }
          ]
        },
        {
          "name": "Qilihe",
          "lat": 35.986124,
          "lng": 103.744432,
          "subdistricts": [
            {
              "name": "Anning",
              "lat": 36.1198836,
              "lng": 103.6755664
            },
            {
              "name": "Xigu",
              "lat": 36.1300028,
              "lng": 103.5418853
            }
          ]
        },
        {
          "name": "Qin'an",
          "lat": 34.940555,
          "lng": 105.70068
        },
        {
          "name": "Qingyang",
          "lat": 36.182368,
          "lng": 107.6216357,
          "subdistricts": [
            {
              "name": "Huanxian",
              "lat": 36.5675857,
              "lng": 107.3026311
            },
            {
              "name": "Qingcheng",
              "lat": 36.037175,
              "lng": 107.668179
            }
          ]
        },
        {
          "name": "Qinzhou",
          "lat": 34.5797531,
          "lng": 105.7062921,
          "subdistricts": [
            {
              "name": "Qincheng",
              "lat": 34.58028,
              "lng": 105.72722
            }
          ]
        },
        {
          "name": "Shandan",
          "lat": 38.530857,
          "lng": 101.226025
        },
        {
          "name": "Suzhou",
          "lat": 39.578504,
          "lng": 98.812274,
          "subdistricts": [
            {
              "name": "Sunan",
              "lat": 39.054054,
              "lng": 99.091892
            }
          ]
        },
        {
          "name": "Tianshui",
          "lat": 34.6538841,
          "lng": 105.8003895,
          "subdistricts": [
            {
              "name": "Beidao",
              "lat": 34.56861,
              "lng": 105.89333
            },
            {
              "name": "Qingshui",
              "lat": 34.729233,
              "lng": 106.1177158
            }
          ]
        },
        {
          "name": "Tianzhu",
          "lat": 37.2521211,
          "lng": 102.7459349
        },
        {
          "name": "Tongwei",
          "lat": 35.2106159,
          "lng": 105.1870177
        },
        {
          "name": "Wudu",
          "lat": 33.2170067,
          "lng": 105.146142,
          "subdistricts": [
            {
              "name": "Wenxian",
              "lat": 32.9470007,
              "lng": 104.6790425
            }
          ]
        },
        {
          "name": "Wuwei",
          "lat": 37.928881,
          "lng": 102.6359886
        },
        {
          "name": "Xifeng",
          "lat": 35.6630834,
          "lng": 107.6720418,
          "subdistricts": [
            {
              "name": "Ningxian",
              "lat": 35.5029128,
              "lng": 107.9251481
            },
            {
              "name": "Zhengning",
              "lat": 35.411023,
              "lng": 108.385619
            }
          ]
        },
        {
          "name": "Xihe",
          "lat": 33.910734,
          "lng": 105.35607,
          "subdistricts": [
            {
              "name": "Chengguan",
              "lat": 34.1902037,
              "lng": 105.1775211
            },
            {
              "name": "Chengxian",
              "lat": 33.7413597,
              "lng": 105.7269036
            },
            {
              "name": "Lixian",
              "lat": 34.1902037,
              "lng": 105.1775211
            },
            {
              "name": "Tanchang",
              "lat": 33.9703822,
              "lng": 104.4396459
            }
          ]
        },
        {
          "name": "Yongchang",
          "lat": 38.2471544,
          "lng": 101.9713736
        },
        {
          "name": "Yongjing",
          "lat": 35.997006,
          "lng": 103.249578
        },
        {
          "name": "Yuzhong",
          "lat": 35.983542,
          "lng": 104.2485719
        },
        {
          "name": "Zhangye",
          "lat": 39.121833,
          "lng": 99.924947,
          "subdistricts": [
            {
              "name": "Gaotai",
              "lat": 39.552986,
              "lng": 99.70767
            }
          ]
        },
        {
          "name": "Zhenyuan",
          "lat": 35.770382,
          "lng": 107.1671551
        },
        {
          "name": "Zhuanglang",
          "lat": 35.2579282,
          "lng": 106.0619372,
          "subdistricts": [
            {
              "name": "Zhongqu",
              "lat": 35.1305,
              "lng": 106.129
            }
          ]
        }
      ]
    },
    {
      "name": "Guangdong",
      "lat": 23.1357694,
      "lng": 113.1982688,
      "districts": [
        {
          "name": "Anbu",
          "lat": 23.44895,
          "lng": 116.68092
        },
        {
          "name": "Boluo",
          "lat": 23.3366924,
          "lng": 114.3214778,
          "subdistricts": [
            {
              "name": "Longmen",
              "lat": 23.6671676,
              "lng": 114.1328416
            }
          ]
        },
        {
          "name": "Chancheng",
          "lat": 23.0120197,
          "lng": 113.1173438,
          "subdistricts": [
            {
              "name": "Shiwan",
              "lat": 23.00107,
              "lng": 113.077
            }
          ]
        },
        {
          "name": "Chao'an",
          "lat": 23.4659435,
          "lng": 116.6729801
        },
        {
          "name": "Chaonan",
          "lat": 23.2423708,
          "lng": 116.434165
        },
        {
          "name": "Chaozhou",
          "lat": 23.656593,
          "lng": 116.6204223
        },
        {
          "name": "Chenghua",
          "lat": 23.46132,
          "lng": 116.77007,
          "subdistricts": [
            {
              "name": "Chenghai",
              "lat": 23.4694075,
              "lng": 116.7515585
            }
          ]
        },
        {
          "name": "Chengqu",
          "lat": 22.7817608,
          "lng": 115.3599642
        },
        {
          "name": "Conghua",
          "lat": 23.670764,
          "lng": 113.6934958
        },
        {
          "name": "Daliang",
          "lat": 22.84067,
          "lng": 113.2503
        },
        {
          "name": "Danshui",
          "lat": 22.7984,
          "lng": 114.46716
        },
        {
          "name": "Dasha",
          "lat": 23.11037,
          "lng": 113.4418
        },
        {
          "name": "Deqing",
          "lat": 23.2868522,
          "lng": 111.9695802
        },
        {
          "name": "Dianbai",
          "lat": 21.6855679,
          "lng": 111.1614359
        },
        {
          "name": "Dongguan",
          "lat": 23.0183568,
          "lng": 113.7452332,
          "subdistricts": [
            {
              "name": "Guangming",
              "lat": 22.7516872,
              "lng": 113.9300061
            },
            {
              "name": "Songshanhu",
              "lat": 22.9250491,
              "lng": 113.8812979
            }
          ]
        },
        {
          "name": "Donghai",
          "lat": 22.94593,
          "lng": 115.64204,
          "subdistricts": [
            {
              "name": "Lufeng",
              "lat": 22.9729159,
              "lng": 115.7946525
            },
            {
              "name": "Shanwei",
              "lat": 23.0123639,
              "lng": 115.5099937
            }
          ]
        },
        {
          "name": "Encheng",
          "lat": 22.18659,
          "lng": 112.30424
        },
        {
          "name": "Enping",
          "lat": 22.2525211,
          "lng": 112.2876964
        },
        {
          "name": "Fengkai",
          "lat": 23.521183,
          "lng": 111.6979967,
          "subdistricts": [
            {
              "name": "Nanfeng",
              "lat": 23.72695,
              "lng": 111.79723
            }
          ]
        },
        {
          "name": "Fengshun",
          "lat": 23.8972166,
          "lng": 116.2476093
        },
        {
          "name": "Fogang",
          "lat": 23.8825802,
          "lng": 113.5262764,
          "subdistricts": [
            {
              "name": "Yingcheng",
              "lat": 24.16588,
              "lng": 113.41267
            },
            {
              "name": "Yingde",
              "lat": 24.2079886,
              "lng": 113.3962832
            }
          ]
        },
        {
          "name": "Foshan",
          "lat": 23.0239788,
          "lng": 113.1159558
        },
        {
          "name": "Gaozhou",
          "lat": 22.0461477,
          "lng": 110.9644447,
          "subdistricts": [
            {
              "name": "Gaozhou",
              "lat": 21.93924,
              "lng": 110.84607
            },
            {
              "name": "Xinyi",
              "lat": 22.37303,
              "lng": 110.94746
            },
            {
              "name": "Xinyi",
              "lat": 22.3580316,
              "lng": 110.942291
            }
          ]
        },
        {
          "name": "Guangzhou",
          "lat": 23.1301964,
          "lng": 113.2592945
        },
        {
          "name": "Haifeng",
          "lat": 23.0267537,
          "lng": 115.3414869
        },
        {
          "name": "Haimen",
          "lat": 23.19346,
          "lng": 116.61219,
          "subdistricts": [
            {
              "name": "Chaoyang",
              "lat": 23.268449,
              "lng": 116.5969864
            }
          ]
        },
        {
          "name": "Haizhu",
          "lat": 23.0859958,
          "lng": 113.3119935
        },
        {
          "name": "Haojiang",
          "lat": 23.2851927,
          "lng": 116.7218033,
          "subdistricts": [
            {
              "name": "Binhai",
              "lat": 23.2524539,
              "lng": 116.6853685
            }
          ]
        },
        {
          "name": "Heping",
          "lat": 24.4400445,
          "lng": 115.0082784
        },
        {
          "name": "Hepo",
          "lat": 23.43077,
          "lng": 115.82991
        },
        {
          "name": "Huadu",
          "lat": 23.4612392,
          "lng": 113.2141965,
          "subdistricts": [
            {
              "name": "Qingyuan",
              "lat": 23.6832984,
              "lng": 113.0505994
            }
          ]
        },
        {
          "name": "Huaiji",
          "lat": 23.9228747,
          "lng": 112.1616895,
          "subdistricts": [
            {
              "name": "Dongnan",
              "lat": 24.233374,
              "lng": 112.035975
            },
            {
              "name": "Huaicheng",
              "lat": 23.91952,
              "lng": 112.17629
            },
            {
              "name": "Liannan",
              "lat": 24.577962,
              "lng": 112.264317
            },
            {
              "name": "Lianshan",
              "lat": 24.5730213,
              "lng": 112.0885277
            },
            {
              "name": "Lianzhou",
              "lat": 24.78186,
              "lng": 112.3712
            }
          ]
        },
        {
          "name": "Huanggang",
          "lat": 23.67704,
          "lng": 116.99961
        },
        {
          "name": "Huangpu",
          "lat": 23.1829981,
          "lng": 113.4748416,
          "subdistricts": [
            {
              "name": "Guangzhou Shi",
              "lat": 23.37327,
              "lng": 113.51219
            },
            {
              "name": "Zhongxin",
              "lat": 23.2881831,
              "lng": 113.6078885
            }
          ]
        },
        {
          "name": "Huazhou",
          "lat": 21.8302699,
          "lng": 110.5300134,
          "subdistricts": [
            {
              "name": "Huazhou",
              "lat": 21.63333,
              "lng": 110.58333
            }
          ]
        },
        {
          "name": "Huicheng",
          "lat": 23.03845,
          "lng": 116.28988
        },
        {
          "name": "Huidong",
          "lat": 23.1315213,
          "lng": 115.0337206
        },
        {
          "name": "Huilai",
          "lat": 23.0325965,
          "lng": 116.225746
        },
        {
          "name": "Huiyang",
          "lat": 22.8937884,
          "lng": 114.4604579
        },
        {
          "name": "Huizhou",
          "lat": 23.1125153,
          "lng": 114.4127007,
          "subdistricts": [
            {
              "name": "Huicheng",
              "lat": 23.1509763,
              "lng": 114.4895969
            }
          ]
        },
        {
          "name": "Jiangcheng",
          "lat": 21.7795872,
          "lng": 111.8908375,
          "subdistricts": [
            {
              "name": "Shuixiang",
              "lat": 21.6258278,
              "lng": 111.9707428
            },
            {
              "name": "Yangxi",
              "lat": 21.6929117,
              "lng": 111.6030819
            }
          ]
        },
        {
          "name": "Jianghai",
          "lat": 22.5513033,
          "lng": 113.1249948,
          "subdistricts": [
            {
              "name": "Jiangmen",
              "lat": 22.5816619,
              "lng": 113.0761073
            },
            {
              "name": "Pengjiang",
              "lat": 22.6466774,
              "lng": 113.0513579
            }
          ]
        },
        {
          "name": "Jiazi",
          "lat": 22.87932,
          "lng": 116.07318
        },
        {
          "name": "Jiedong",
          "lat": 23.5691604,
          "lng": 116.4071625
        },
        {
          "name": "Jieshi",
          "lat": 22.81027,
          "lng": 115.83058
        },
        {
          "name": "Jiexi",
          "lat": 23.4337991,
          "lng": 115.8378454
        },
        {
          "name": "Jieyang",
          "lat": 23.553156,
          "lng": 116.3680354
        },
        {
          "name": "Jinping",
          "lat": 23.3685403,
          "lng": 116.6989182,
          "subdistricts": [
            {
              "name": "Longhu",
              "lat": 23.3740077,
              "lng": 116.7120999
            }
          ]
        },
        {
          "name": "Jinwan",
          "lat": 22.1176731,
          "lng": 113.3575196,
          "subdistricts": [
            {
              "name": "Doumen",
              "lat": 22.2119876,
              "lng": 113.2909793
            }
          ]
        },
        {
          "name": "Lechang",
          "lat": 25.2546339,
          "lng": 113.256682,
          "subdistricts": [
            {
              "name": "Dongbei",
              "lat": 24.991957,
              "lng": 112.295975
            },
            {
              "name": "Lianzhou",
              "lat": 24.9377373,
              "lng": 112.4818454
            }
          ]
        },
        {
          "name": "Lecheng",
          "lat": 25.128,
          "lng": 113.35041,
          "subdistricts": [
            {
              "name": "Ruyuan",
              "lat": 24.8188361,
              "lng": 113.175057
            }
          ]
        },
        {
          "name": "Leizhou",
          "lat": 20.7610912,
          "lng": 110.027989,
          "subdistricts": [
            {
              "name": "Dongbu",
              "lat": 0,
              "lng": 0
            },
            {
              "name": "Lungchuan",
              "lat": 0,
              "lng": 0
            }
          ]
        },
        {
          "name": "Lianjiang",
          "lat": 21.64673,
          "lng": 110.28172
        },
        {
          "name": "Lianjiang",
          "lat": 21.6567913,
          "lng": 110.148109
        },
        {
          "name": "Lianping",
          "lat": 24.3761422,
          "lng": 114.4885135
        },
        {
          "name": "Licheng",
          "lat": 23.29549,
          "lng": 113.82465
        },
        {
          "name": "Liwan",
          "lat": 23.1100378,
          "lng": 113.2136488
        },
        {
          "name": "Luhe",
          "lat": 23.2812462,
          "lng": 115.6153317
        },
        {
          "name": "Luoding",
          "lat": 22.6925875,
          "lng": 111.4851366,
          "subdistricts": [
            {
              "name": "Luocheng",
              "lat": 22.76953,
              "lng": 111.56882
            }
          ]
        },
        {
          "name": "Luoyang",
          "lat": 23.16244,
          "lng": 114.27342
        },
        {
          "name": "Maba",
          "lat": 24.68413,
          "lng": 113.59839,
          "subdistricts": [
            {
              "name": "Wujiang",
              "lat": 24.7034405,
              "lng": 113.3810784
            }
          ]
        },
        {
          "name": "Maonan",
          "lat": 21.6442556,
          "lng": 110.9139827,
          "subdistricts": [
            {
              "name": "Maoming",
              "lat": 21.6656961,
              "lng": 110.9209511
            }
          ]
        },
        {
          "name": "Meijiang",
          "lat": 24.3132062,
          "lng": 116.1119122,
          "subdistricts": [
            {
              "name": "Jiaoling",
              "lat": 24.6613582,
              "lng": 116.1665092
            },
            {
              "name": "Meixian",
              "lat": 24.4146228,
              "lng": 116.2342558
            },
            {
              "name": "Pingyuan",
              "lat": 24.660628,
              "lng": 115.910067
            }
          ]
        },
        {
          "name": "Meizhou",
          "lat": 24.2918414,
          "lng": 116.1171428,
          "subdistricts": [
            {
              "name": "Dabu",
              "lat": 24.3505527,
              "lng": 116.6902216
            }
          ]
        },
        {
          "name": "Nanbu",
          "lat": 22.7015606,
          "lng": 114.3632037,
          "subdistricts": [
            {
              "name": "Futian",
              "lat": 22.5243632,
              "lng": 114.049894
            },
            {
              "name": "Longgang",
              "lat": 22.7230369,
              "lng": 114.2426561
            },
            {
              "name": "Longhua",
              "lat": 22.6994309,
              "lng": 114.0398603
            },
            {
              "name": "Luohu",
              "lat": 22.5506391,
              "lng": 114.1261389
            },
            {
              "name": "Nanshan",
              "lat": 22.5360142,
              "lng": 113.9256222
            },
            {
              "name": "Pingshan",
              "lat": 22.7113827,
              "lng": 114.3461882
            },
            {
              "name": "Shenzhen",
              "lat": 22.5445741,
              "lng": 114.0545429
            },
            {
              "name": "Yantian",
              "lat": 22.5590503,
              "lng": 114.2324407
            }
          ]
        },
        {
          "name": "Nanhai",
          "lat": 23.0314096,
          "lng": 113.1375151
        },
        {
          "name": "Panyu",
          "lat": 22.9387253,
          "lng": 113.3785422,
          "subdistricts": [
            {
              "name": "Nansha",
              "lat": 22.8043913,
              "lng": 113.5198188
            }
          ]
        },
        {
          "name": "Pingshan",
          "lat": 22.99376,
          "lng": 114.71311
        },
        {
          "name": "Puning",
          "lat": 23.31072,
          "lng": 116.16869,
          "subdistricts": [
            {
              "name": "Puning",
              "lat": 23.3000453,
              "lng": 116.160937
            }
          ]
        },
        {
          "name": "Qingxin",
          "lat": 23.8887571,
          "lng": 112.8486756,
          "subdistricts": [
            {
              "name": "Qingcheng",
              "lat": 23.6999044,
              "lng": 113.0571911
            },
            {
              "name": "Yangshan",
              "lat": 24.468328,
              "lng": 112.6360737
            }
          ]
        },
        {
          "name": "Qujiang",
          "lat": 24.6457696,
          "lng": 113.6103909
        },
        {
          "name": "Raoping",
          "lat": 23.6660886,
          "lng": 116.9995994,
          "subdistricts": [
            {
              "name": "Nan'ao",
              "lat": 23.4240181,
              "lng": 117.0189654
            }
          ]
        },
        {
          "name": "Renhua",
          "lat": 25.1493297,
          "lng": 113.7958621
        },
        {
          "name": "Rongcheng",
          "lat": 23.5278913,
          "lng": 116.3623373
        },
        {
          "name": "Sanshui",
          "lat": 23.15486,
          "lng": 112.89161,
          "subdistricts": [
            {
              "name": "Foshan Shi",
              "lat": 23.02264,
              "lng": 112.96302
            }
          ]
        },
        {
          "name": "Sanshui",
          "lat": 23.1719966,
          "lng": 112.8848344
        },
        {
          "name": "Shantou",
          "lat": 23.3563921,
          "lng": 116.6775856
        },
        {
          "name": "Shaoguan",
          "lat": 24.8309489,
          "lng": 113.8155263
        },
        {
          "name": "Shaping",
          "lat": 22.77019,
          "lng": 112.95776,
          "subdistricts": [
            {
              "name": "Gaoming",
              "lat": 22.9032867,
              "lng": 112.8866883
            },
            {
              "name": "Heshan",
              "lat": 22.663757,
              "lng": 112.8065463
            }
          ]
        },
        {
          "name": "Shilong",
          "lat": 23.11444,
          "lng": 113.84722
        },
        {
          "name": "Shiqi",
          "lat": 22.51682,
          "lng": 113.38521
        },
        {
          "name": "Shiqiao",
          "lat": 22.9464,
          "lng": 113.35769
        },
        {
          "name": "Shixing",
          "lat": 24.9563552,
          "lng": 114.0566468,
          "subdistricts": [
            {
              "name": "Nanxiong",
              "lat": 25.2127803,
              "lng": 114.4450823
            },
            {
              "name": "Shixing",
              "lat": 24.94824,
              "lng": 114.06572
            },
            {
              "name": "Xiongzhou",
              "lat": 25.11667,
              "lng": 114.3
            }
          ]
        },
        {
          "name": "Shunde",
          "lat": 22.8545655,
          "lng": 113.1865161
        },
        {
          "name": "Sihui",
          "lat": 23.4423808,
          "lng": 112.6997273,
          "subdistricts": [
            {
              "name": "Guangning",
              "lat": 23.6348923,
              "lng": 112.4317972
            }
          ]
        },
        {
          "name": "Suixi",
          "lat": 21.289356,
          "lng": 110.0089281
        },
        {
          "name": "Taishan",
          "lat": 22.25135,
          "lng": 112.7799,
          "subdistricts": [
            {
              "name": "Kaiping",
              "lat": 22.3474568,
              "lng": 112.5344174
            }
          ]
        },
        {
          "name": "Taishan",
          "lat": 22.0638475,
          "lng": 112.7128587
        },
        {
          "name": "Tianhe",
          "lat": 23.12712,
          "lng": 113.356424
        },
        {
          "name": "Wengyuan",
          "lat": 24.4115224,
          "lng": 114.0540261,
          "subdistricts": [
            {
              "name": "Xinfeng",
              "lat": 24.0624063,
              "lng": 114.2018789
            }
          ]
        },
        {
          "name": "Wuchuan",
          "lat": 21.45713,
          "lng": 110.76591
        },
        {
          "name": "Wuchuan",
          "lat": 21.4413258,
          "lng": 110.6942289
        },
        {
          "name": "Wuhua",
          "lat": 23.7927287,
          "lng": 115.634192
        },
        {
          "name": "Xiangqiao",
          "lat": 23.6775227,
          "lng": 116.6240731
        },
        {
          "name": "Xiangzhou",
          "lat": 22.2694222,
          "lng": 113.5382573,
          "subdistricts": [
            {
              "name": "Bao'an",
              "lat": 22.5598573,
              "lng": 113.8790404
            },
            {
              "name": "Xibei",
              "lat": 22.2277428,
              "lng": 113.505016
            },
            {
              "name": "Zhuhai",
              "lat": 22.273734,
              "lng": 113.5721327
            }
          ]
        },
        {
          "name": "Xiashan",
          "lat": 21.1941363,
          "lng": 110.3933516,
          "subdistricts": [
            {
              "name": "Chikan",
              "lat": 21.2686886,
              "lng": 110.3621143
            },
            {
              "name": "Mazhang",
              "lat": 21.1290003,
              "lng": 110.2984428
            },
            {
              "name": "Potou",
              "lat": 21.2511115,
              "lng": 110.4950611
            },
            {
              "name": "Zhanjiang",
              "lat": 21.2737079,
              "lng": 110.3548318
            }
          ]
        },
        {
          "name": "Xingning",
          "lat": 24.1483,
          "lng": 115.72272
        },
        {
          "name": "Xingning",
          "lat": 24.2579216,
          "lng": 115.7531534
        },
        {
          "name": "Xinhui",
          "lat": 22.456,
          "lng": 113.0482
        },
        {
          "name": "Xinhui",
          "lat": 22.3836907,
          "lng": 113.0328366
        },
        {
          "name": "Xinxing",
          "lat": 22.6350852,
          "lng": 112.1968457
        },
        {
          "name": "Xuwen",
          "lat": 20.4407244,
          "lng": 110.2226484,
          "subdistricts": [
            {
              "name": "Xucheng",
              "lat": 20.32917,
              "lng": 110.16712
            }
          ]
        },
        {
          "name": "Yangchun",
          "lat": 22.16667,
          "lng": 111.78333
        },
        {
          "name": "Yangchun",
          "lat": 22.2518472,
          "lng": 111.6936609
        },
        {
          "name": "Yangdong",
          "lat": 22.0203937,
          "lng": 112.0561249,
          "subdistricts": [
            {
              "name": "Tangping",
              "lat": 22.03177,
              "lng": 111.93537
            }
          ]
        },
        {
          "name": "Yangjiang",
          "lat": 22.0958223,
          "lng": 111.7831393
        },
        {
          "name": "Yuexiu",
          "lat": 23.1312782,
          "lng": 113.2614717,
          "subdistricts": [
            {
              "name": "Baiyun",
              "lat": 23.1606324,
              "lng": 113.267895
            }
          ]
        },
        {
          "name": "Yunan",
          "lat": 23.0405628,
          "lng": 111.59088,
          "subdistricts": [
            {
              "name": "Ducheng",
              "lat": 23.24212,
              "lng": 111.5284
            }
          ]
        },
        {
          "name": "Yuncheng",
          "lat": 22.8919909,
          "lng": 112.1525567
        },
        {
          "name": "Yunfu",
          "lat": 22.8546663,
          "lng": 111.8078586,
          "subdistricts": [
            {
              "name": "Yun'an",
              "lat": 22.8458064,
              "lng": 111.9218431
            }
          ]
        },
        {
          "name": "Zengcheng",
          "lat": 23.3473006,
          "lng": 113.7702928
        },
        {
          "name": "Zhaoqing",
          "lat": 23.0501661,
          "lng": 112.4603629,
          "subdistricts": [
            {
              "name": "Dinghu",
              "lat": 23.1618953,
              "lng": 112.5625362
            },
            {
              "name": "Duanzhou",
              "lat": 23.1018396,
              "lng": 112.4594872
            },
            {
              "name": "Gaoyao",
              "lat": 23.02432,
              "lng": 112.44555
            },
            {
              "name": "Gaoyao",
              "lat": 23.0279783,
              "lng": 112.452589
            },
            {
              "name": "Lubu",
              "lat": 23.17233,
              "lng": 112.28298
            }
          ]
        },
        {
          "name": "Zhenjiang",
          "lat": 24.9032539,
          "lng": 113.581466
        },
        {
          "name": "Zhongshan",
          "lat": 22.5197073,
          "lng": 113.3872302
        },
        {
          "name": "Zhongshan Prefecture",
          "lat": 22.55358,
          "lng": 113.3755
        },
        {
          "name": "Zijin",
          "lat": 23.5539178,
          "lng": 115.0419603,
          "subdistricts": [
            {
              "name": "Dongyuan",
              "lat": 23.9661771,
              "lng": 114.8428331
            },
            {
              "name": "Heyuan",
              "lat": 23.746777,
              "lng": 114.6954482
            },
            {
              "name": "Yuancheng",
              "lat": 23.7046594,
              "lng": 114.6422046
            }
          ]
        }
      ]
    },
    {
      "name": "Guangxi",
      "lat": 24,
      "lng": 109,
      "districts": [
        {
          "name": "Baise",
          "lat": 23.9053605,
          "lng": 106.6148824
        },
        {
          "name": "Baise",
          "lat": 23.9,
          "lng": 106.61667
        },
        {
          "name": "Beihai",
          "lat": 21.6740808,
          "lng": 109.3729721
        },
        {
          "name": "Beiliu",
          "lat": 22.4427933,
          "lng": 110.5314264
        },
        {
          "name": "Binyang",
          "lat": 23.1729928,
          "lng": 108.9397846,
          "subdistricts": [
            {
              "name": "Shanglin",
              "lat": 23.512383,
              "lng": 108.6408325
            }
          ]
        },
        {
          "name": "Cangwu",
          "lat": 23.7626311,
          "lng": 111.2443602,
          "subdistricts": [
            {
              "name": "Wanxiu",
              "lat": 23.5576937,
              "lng": 111.3079827
            }
          ]
        },
        {
          "name": "Cenxi",
          "lat": 22.9212029,
          "lng": 110.9898501,
          "subdistricts": [
            {
              "name": "Jinji",
              "lat": 23.22806,
              "lng": 110.82611
            },
            {
              "name": "Nandu",
              "lat": 22.8525,
              "lng": 110.82333
            }
          ]
        },
        {
          "name": "Chongzuo",
          "lat": 22.4910206,
          "lng": 107.328244,
          "subdistricts": [
            {
              "name": "Jiangzhou",
              "lat": 22.5571351,
              "lng": 107.4596528
            }
          ]
        },
        {
          "name": "Dongxing",
          "lat": 21.6058074,
          "lng": 108.0698483
        },
        {
          "name": "Fangcheng",
          "lat": 21.7334318,
          "lng": 108.0526815
        },
        {
          "name": "Fangchenggang",
          "lat": 21.8615,
          "lng": 108.0271898,
          "subdistricts": [
            {
              "name": "Shangsi",
              "lat": 22.0729154,
              "lng": 107.9049669
            }
          ]
        },
        {
          "name": "Fumian",
          "lat": 22.4840102,
          "lng": 110.0224107,
          "subdistricts": [
            {
              "name": "Bobai",
              "lat": 22.1173477,
              "lng": 109.8853482
            },
            {
              "name": "Yashan",
              "lat": 22.1975,
              "lng": 109.94194
            }
          ]
        },
        {
          "name": "Fusui",
          "lat": 22.5172522,
          "lng": 107.8085335
        },
        {
          "name": "Gangbei",
          "lat": 23.2325135,
          "lng": 109.6497338,
          "subdistricts": [
            {
              "name": "Gangnan",
              "lat": 23.0776475,
              "lng": 109.5958935
            },
            {
              "name": "Qintang",
              "lat": 23.1302575,
              "lng": 109.448547
            },
            {
              "name": "Wuxuan",
              "lat": 23.5965829,
              "lng": 109.6583496
            }
          ]
        },
        {
          "name": "Gangkou",
          "lat": 21.6494511,
          "lng": 108.4510228
        },
        {
          "name": "Guanyang",
          "lat": 25.4537387,
          "lng": 111.042336
        },
        {
          "name": "Guigang",
          "lat": 23.3594346,
          "lng": 110.0412939,
          "subdistricts": [
            {
              "name": "Guiping",
              "lat": 23.39336,
              "lng": 110.07437
            },
            {
              "name": "Guiping",
              "lat": 23.2817204,
              "lng": 110.0967393
            },
            {
              "name": "Pingnan",
              "lat": 23.54218,
              "lng": 110.38946
            },
            {
              "name": "Pingnan",
              "lat": 23.5422149,
              "lng": 110.3878006
            }
          ]
        },
        {
          "name": "Guilin",
          "lat": 25.2779894,
          "lng": 110.2910622,
          "subdistricts": [
            {
              "name": "Xiangshan",
              "lat": 25.2095621,
              "lng": 110.2787873
            }
          ]
        },
        {
          "name": "Guilin",
          "lat": 25.28333,
          "lng": 110.28333,
          "subdistricts": [
            {
              "name": "Diecai",
              "lat": 25.3169103,
              "lng": 110.2972181
            },
            {
              "name": "Xiufeng",
              "lat": 25.2763793,
              "lng": 110.2596116
            }
          ]
        },
        {
          "name": "Hechi",
          "lat": 24.7169004,
          "lng": 107.8857367,
          "subdistricts": [
            {
              "name": "Huanjiang",
              "lat": 25.01784,
              "lng": 108.2572278
            }
          ]
        },
        {
          "name": "Hengzhou",
          "lat": 22.773994,
          "lng": 109.171195
        },
        {
          "name": "Hepu",
          "lat": 21.7471247,
          "lng": 109.3491272
        },
        {
          "name": "Hezhou",
          "lat": 24.3705146,
          "lng": 111.3590955,
          "subdistricts": [
            {
              "name": "Babu",
              "lat": 24.41667,
              "lng": 111.51667
            },
            {
              "name": "Babu",
              "lat": 24.3320844,
              "lng": 111.7803928
            },
            {
              "name": "Fuchuan",
              "lat": 24.821618,
              "lng": 111.2693007
            },
            {
              "name": "Pinggui",
              "lat": 24.2657466,
              "lng": 111.4439378
            },
            {
              "name": "Zhongshan",
              "lat": 24.5284691,
              "lng": 111.2989334
            }
          ]
        },
        {
          "name": "Jinchengjiang",
          "lat": 24.6694836,
          "lng": 107.8541551,
          "subdistricts": [
            {
              "name": "Donglan",
              "lat": 24.5135608,
              "lng": 107.3699251
            }
          ]
        },
        {
          "name": "Laibin",
          "lat": 23.7532648,
          "lng": 109.2169807
        },
        {
          "name": "Liangqing",
          "lat": 22.4935273,
          "lng": 108.3320604
        },
        {
          "name": "Lianzhou",
          "lat": 21.66621,
          "lng": 109.20116
        },
        {
          "name": "Lingcheng",
          "lat": 22.70722,
          "lng": 110.34917,
          "subdistricts": [
            {
              "name": "Rongxian",
              "lat": 22.8621872,
              "lng": 110.5271387
            }
          ]
        },
        {
          "name": "Lingchuan",
          "lat": 25.3635724,
          "lng": 110.4064175,
          "subdistricts": [
            {
              "name": "Xing'an",
              "lat": 25.6144075,
              "lng": 110.6682355
            }
          ]
        },
        {
          "name": "Lingui",
          "lat": 25.317961,
          "lng": 110.0500475,
          "subdistricts": [
            {
              "name": "Dazhai",
              "lat": 25.8098,
              "lng": 110.15
            },
            {
              "name": "Longsheng",
              "lat": 25.8691106,
              "lng": 110.0061021
            }
          ]
        },
        {
          "name": "Liubei",
          "lat": 24.4252701,
          "lng": 109.394302
        },
        {
          "name": "Liucheng",
          "lat": 24.6530412,
          "lng": 109.2403085
        },
        {
          "name": "Liujiang",
          "lat": 24.1880418,
          "lng": 109.2157342
        },
        {
          "name": "Liunan",
          "lat": 24.3633613,
          "lng": 109.2349999
        },
        {
          "name": "Liuzhou",
          "lat": 25.0009993,
          "lng": 109.3414252,
          "subdistricts": [
            {
              "name": "Rongshui",
              "lat": 25.3241772,
              "lng": 109.0220474
            }
          ]
        },
        {
          "name": "Longxu",
          "lat": 23.2385082,
          "lng": 111.2635217,
          "subdistricts": [
            {
              "name": "Changzhou",
              "lat": 23.4885963,
              "lng": 111.270561
            }
          ]
        },
        {
          "name": "Luchuan",
          "lat": 22.2597918,
          "lng": 110.2637329,
          "subdistricts": [
            {
              "name": "Yulin",
              "lat": 22.4199189,
              "lng": 110.2143149
            },
            {
              "name": "Yulin,",
              "lat": 22.4199189,
              "lng": 110.2143149
            }
          ]
        },
        {
          "name": "Luzhai",
          "lat": 24.5296348,
          "lng": 109.8454271
        },
        {
          "name": "Mengshan",
          "lat": 24.1216889,
          "lng": 110.5657193
        },
        {
          "name": "Nandan",
          "lat": 25.1527458,
          "lng": 107.4050876
        },
        {
          "name": "Nanning",
          "lat": 22.8193063,
          "lng": 108.3627211,
          "subdistricts": [
            {
              "name": "Jiangnan",
              "lat": 22.7848277,
              "lng": 108.2691257
            },
            {
              "name": "Pumiao",
              "lat": 22.75867,
              "lng": 108.48111
            }
          ]
        },
        {
          "name": "Napo",
          "lat": 23.2590121,
          "lng": 105.8161913,
          "subdistricts": [
            {
              "name": "Jingxi",
              "lat": 23.1371896,
              "lng": 106.4138603
            },
            {
              "name": "Xilin",
              "lat": 24.4949232,
              "lng": 105.0931728
            }
          ]
        },
        {
          "name": "Ningming",
          "lat": 22.0232738,
          "lng": 107.2828661,
          "subdistricts": [
            {
              "name": "Baihe",
              "lat": 22.1343,
              "lng": 107.232
            }
          ]
        },
        {
          "name": "Pingguo",
          "lat": 23.5576943,
          "lng": 107.5643907,
          "subdistricts": [
            {
              "name": "Dahua",
              "lat": 23.982268,
              "lng": 107.675469
            },
            {
              "name": "Long'an",
              "lat": 23.1038568,
              "lng": 107.6946613
            }
          ]
        },
        {
          "name": "Pingxiang",
          "lat": 22.0840478,
          "lng": 106.8323785,
          "subdistricts": [
            {
              "name": "Longzhou",
              "lat": 22.4360306,
              "lng": 106.8719711
            }
          ]
        },
        {
          "name": "Pubei",
          "lat": 22.2559843,
          "lng": 109.4791784,
          "subdistricts": [
            {
              "name": "Lingshan",
              "lat": 22.3029951,
              "lng": 109.1799818
            }
          ]
        },
        {
          "name": "Qinbei",
          "lat": 22.1769151,
          "lng": 108.5239778
        },
        {
          "name": "Qingxiu",
          "lat": 22.8093017,
          "lng": 108.6559132,
          "subdistricts": [
            {
              "name": "Yongning",
              "lat": 22.5907161,
              "lng": 108.6185632
            }
          ]
        },
        {
          "name": "Qinzhou",
          "lat": 21.9647835,
          "lng": 108.620787,
          "subdistricts": [
            {
              "name": "Qinnan",
              "lat": 21.9009245,
              "lng": 108.7695404
            }
          ]
        },
        {
          "name": "Qixing",
          "lat": 25.265694,
          "lng": 110.3398776
        },
        {
          "name": "Rong'an",
          "lat": 25.161779,
          "lng": 109.4979799,
          "subdistricts": [
            {
              "name": "Sanjiang",
              "lat": 25.7870306,
              "lng": 109.6031323
            }
          ]
        },
        {
          "name": "Tian'e",
          "lat": 25.0059739,
          "lng": 106.9972215,
          "subdistricts": [
            {
              "name": "Fengshan",
              "lat": 24.5475515,
              "lng": 107.0407246
            },
            {
              "name": "Leye",
              "lat": 24.7886823,
              "lng": 106.5570754
            }
          ]
        },
        {
          "name": "Tiandeng",
          "lat": 23.083333,
          "lng": 107.066667,
          "subdistricts": [
            {
              "name": "Daxin",
              "lat": 22.8393146,
              "lng": 107.2107083
            },
            {
              "name": "Debao",
              "lat": 23.3265574,
              "lng": 106.6119199
            }
          ]
        },
        {
          "name": "Tiandong",
          "lat": 23.5995314,
          "lng": 107.1272702,
          "subdistricts": [
            {
              "name": "Bama",
              "lat": 24.1437442,
              "lng": 107.2558901
            },
            {
              "name": "Tianyang",
              "lat": 23.7380833,
              "lng": 106.9125394
            }
          ]
        },
        {
          "name": "Tieshangang",
          "lat": 21.5622693,
          "lng": 109.4793176
        },
        {
          "name": "Wuming",
          "lat": 23.2716283,
          "lng": 108.2496629,
          "subdistricts": [
            {
              "name": "Mashan",
              "lat": 23.711318,
              "lng": 108.1740267
            }
          ]
        },
        {
          "name": "Wuzhou",
          "lat": 23.5715402,
          "lng": 111.0139268,
          "subdistricts": [
            {
              "name": "Tengxian",
              "lat": 23.3367345,
              "lng": 110.9822827
            }
          ]
        },
        {
          "name": "Xiangzhou",
          "lat": 24.0402845,
          "lng": 109.7653662,
          "subdistricts": [
            {
              "name": "Jinxiu",
              "lat": 24.0823577,
              "lng": 110.1302124
            }
          ]
        },