{
  "name": "Djibouti",
  "lat": 11.5,
  "lng": 43,
  "cities": [
    {
      "name": "Ali Sabieh",
      "lat": 11.2133809,
      "lng": 42.8699249,
      "districts": [
        {
          "name": "Ali Sabieh",
          "lat": 11.15583,
          "lng": 42.7125
        },
        {
          "name": "Goubétto",
          "lat": 11.42389,
          "lng": 43.00028
        },
        {
          "name": "Holhol",
          "lat": 11.31028,
          "lng": 42.92944
        }
      ]
    },
    {
      "name": "Arta",
      "lat": 11.5219459,
      "lng": 42.8393629,
      "districts": [
        {
          "name": "Arta",
          "lat": 11.52639,
          "lng": 42.85194
        }
      ]
    },
    {
      "name": "Dikhil",
      "lat": 11.1054336,
      "lng": 42.3704744,
      "districts": [
        {
          "name": "Dikhil",
          "lat": 11.10454,
          "lng": 42.36971
        },
        {
          "name": "Gâlâfi",
          "lat": 11.71583,
          "lng": 41.83611
        }
      ]
    },
    {
      "name": "Djibouti",
      "lat": 11.8145966,
      "lng": 42.8453061,
      "districts": [
        {
          "name": "Djibouti",
          "lat": 11.58901,
          "lng": 43.14503,
          "iscapital": true
        },
        {
          "name": "Loyada",
          "lat": 11.46111,
          "lng": 43.25278
        }
      ]
    },
    {
      "name": "Obock",
      "lat": 12.2111051,
      "lng": 43.1685809,
      "districts": [
        {
          "name": "Alaïli Ḏaḏḏa‘",
          "lat": 12.42167,
          "lng": 42.89556
        },
        {
          "name": "Obock",
          "lat": 11.96693,
          "lng": 43.28835
        }
      ]
    },
    {
      "name": "Tadjourah",
      "lat": 12.0358121,
      "lng": 42.5174505,
      "districts": [
        {
          "name": "Dorra",
          "lat": 12.15028,
          "lng": 42.47624
        },
        {
          "name": "Tadjourah",
          "lat": 11.78778,
          "lng": 42.88222
        }
      ]
    }
  ]
}
