{
  "name": "Dominican Republic",
  "lat": 19,
  "lng": -70.66666666,
  "cities": [
    {
      "name": "Azua",
      "lat": 18.4552709,
      "lng": -70.7380928,
      "districts": [
        {
          "name": "Azua",
          "lat": 18.45319,
          "lng": -70.7349
        },
        {
          "name": "El Guayabal",
          "lat": 18.7496,
          "lng": -70.8369
        },
        {
          "name": "Estebanía",
          "lat": 18.4577,
          "lng": -70.6435
        },
        {
          "name": "Las Charcas",
          "lat": 18.45026,
          "lng": -70.61724
        },
        {
          "name": "Padre Las Casas",
          "lat": 18.75,
          "lng": -70.88333
        },
        {
          "name": "Palmar de Ocoa",
          "lat": 18.29656,
          "lng": -70.58635
        },
        {
          "name": "Peralta",
          "lat": 18.58164,
          "lng": -70.77029
        },
        {
          "name": "Pueblo Viejo",
          "lat": 18.4,
          "lng": -70.76765
        },
        {
          "name": "Sabana Yegua",
          "lat": 18.71667,
          "lng": -71.01667
        },
        {
          "name": "Tábara Arriba",
          "lat": 18.56999,
          "lng": -70.87978
        },
        {
          "name": "Villarpando",
          "lat": 18.6586,
          "lng": -71.03916
        },
        {
          "name": "Yayas de Viajama",
          "lat": 18.6071,
          "lng": -70.92753
        }
      ]
    },
    {
      "name": "Baoruco",
      "lat": 18.5140239,
      "lng": -71.3303393,
      "districts": [
        {
          "name": "El Palmar",
          "lat": 18.41139,
          "lng": -71.24558
        },
        {
          "name": "Galván",
          "lat": 18.50228,
          "lng": -71.34271
        },
        {
          "name": "La Uvilla",
          "lat": 18.36186,
          "lng": -71.21046
        },
        {
          "name": "Los Ríos",
          "lat": 18.52131,
          "lng": -71.59106
        },
        {
          "name": "Neiba",
          "lat": 18.48137,
          "lng": -71.41965
        },
        {
          "name": "Tamayo",
          "lat": 18.5,
          "lng": -71.16667
        },
        {
          "name": "Villa Jaragua",
          "lat": 18.49077,
          "lng": -71.48377
        }
      ]
    },
    {
      "name": "Barahona",
      "lat": 18.2139066,
      "lng": -71.1043759,
      "districts": [
        {
          "name": "Cabral",
          "lat": 18.19991,
          "lng": -71.2466
        },
        {
          "name": "Cachón",
          "lat": 18.24833,
          "lng": -71.18912
        },
        {
          "name": "Canoa",
          "lat": 18.35499,
          "lng": -71.15851
        },
        {
          "name": "El Peñón",
          "lat": 18.29643,
          "lng": -71.1841
        },
        {
          "name": "Enriquillo",
          "lat": 17.91667,
          "lng": -71.25
        },
        {
          "name": "Fundación",
          "lat": 18.28668,
          "lng": -71.18147
        },
        {
          "name": "Jaquimeyes",
          "lat": 18.31173,
          "lng": -71.16145
        },
        {
          "name": "La Ciénaga",
          "lat": 18.06858,
          "lng": -71.10651
        },
        {
          "name": "Las Salinas",
          "lat": 18.27485,
          "lng": -71.31596
        },
        {
          "name": "Paraíso",
          "lat": 18.02652,
          "lng": -71.20889
        },
        {
          "name": "Pescadería",
          "lat": 18.26766,
          "lng": -71.16612
        },
        {
          "name": "Polo",
          "lat": 18.07873,
          "lng": -71.28723
        },
        {
          "name": "Santa Cruz de Barahona",
          "lat": 18.20854,
          "lng": -71.10077
        },
        {
          "name": "Vicente Noble",
          "lat": 18.38443,
          "lng": -71.18009
        }
      ]
    },
    {
      "name": "Cibao Nordeste",
      "lat": 19.4,
      "lng": -69.9,
      "districts": []
    },
    {
      "name": "Cibao Noroeste",
      "lat": 19.6,
      "lng": -71,
      "districts": []
    },
    {
      "name": "Cibao Norte",
      "lat": 19.5,
      "lng": -70.7,
      "districts": []
    },
    {
      "name": "Cibao Sur",
      "lat": 19.2,
      "lng": -70.5,
      "districts": []
    },
    {
      "name": "Dajabón",
      "lat": 19.5499241,
      "lng": -71.7086514,
      "districts": [
        {
          "name": "Dajabón",
          "lat": 19.54878,
          "lng": -71.70829
        },
        {
          "name": "El Pino",
          "lat": 19.43537,
          "lng": -71.4754
        },
        {
          "name": "Loma de Cabrera",
          "lat": 19.41667,
          "lng": -71.58333
        },
        {
          "name": "Partido",
          "lat": 19.48403,
          "lng": -71.5473
        },
        {
          "name": "Restauración",
          "lat": 19.31532,
          "lng": -71.69239
        }
      ]
    },
    {
      "name": "Distrito Nacional",
      "lat": 18.4860575,
      "lng": -69.9312117,
      "districts": [
        {
          "name": "Bella Vista",
          "lat": 18.45539,
          "lng": -69.9454
        },
        {
          "name": "Santo Domingo",
          "lat": 18.47186,
          "lng": -69.89232,
          "iscapital": true
        },
        {
          "name": "Ciudad Nueva",
          "lat": 18.46707,
          "lng": -69.89339
        },
        {
          "name": "Cristo Rey",
          "lat": 18.5016872,
          "lng": -69.9261343
        },
        {
          "name": "Ensanche Luperón",
          "lat": 18.5,
          "lng": -69.9
        },
        {
          "name": "La Agustina",
          "lat": 18.4920297,
          "lng": -69.93251
        },
        {
          "name": "La Julia",
          "lat": 18.46667,
          "lng": -69.93333
        },
        {
          "name": "San Carlos",
          "lat": 18.4787324,
          "lng": -69.8949563
        },
        {
          "name": "Villa Consuelo",
          "lat": 18.4842583,
          "lng": -69.899887
        },
        {
          "name": "Villa Francisca",
          "lat": 18.48278,
          "lng": -69.88914
        }
      ]
    },
    {
      "name": "Duarte",
      "lat": 19.2833163,
      "lng": -70.1880055,
      "districts": [
        {
          "name": "San Francisco de Macorís",
          "lat": 19.30099,
          "lng": -70.25259
        },
        {
          "name": "Agua Santa del Yuna",
          "lat": 19.15072,
          "lng": -69.80069
        },
        {
          "name": "Arenoso",
          "lat": 19.18732,
          "lng": -69.85917
        },
        {
          "name": "Castillo",
          "lat": 19.25,
          "lng": -70
        },
        {
          "name": "Hostos",
          "lat": 19.18043,
          "lng": -70.02046
        },
        {
          "name": "Las Guáranas",
          "lat": 19.1931,
          "lng": -70.20835
        },
        {
          "name": "Pimentel",
          "lat": 19.21667,
          "lng": -70.16667
        },
        {
          "name": "Villa Riva",
          "lat": 19.15051,
          "lng": -69.8837
        }
      ]
    },
    {
      "name": "El Seibo",
      "lat": 18.7658496,
      "lng": -69.040668,
      "districts": [
        {
          "name": "Miches",
          "lat": 18.98364,
          "lng": -69.0476
        },
        {
          "name": "Pedro Sánchez",
          "lat": 18.86375,
          "lng": -69.10868
        },
        {
          "name": "Santa Cruz de El Seibo",
          "lat": 18.76559,
          "lng": -69.03886
        }
      ]
    },
    {
      "name": "El Valle",
      "lat": 18.8,
      "lng": -71.2,
      "districts": []
    },
    {
      "name": "Elías Piña",
      "lat": 19.03333,
      "lng": -71.68333,
      "districts": []
    },
    {
      "name": "Enriquillo",
      "lat": 18.2,
      "lng": -71.3,
      "districts": []
    },
    {
      "name": "Espaillat",
      "lat": 19.5108126,
      "lng": -70.4918803,
      "districts": [
        {
          "name": "Cayetano Germosén",
          "lat": 19.34285,
          "lng": -70.47573
        },
        {
          "name": "Gaspar Hernández",
          "lat": 19.62748,
          "lng": -70.27772
        },
        {
          "name": "Jamao al Norte",
          "lat": 19.63552,
          "lng": -70.44664
        },
        {
          "name": "Joba Arriba",
          "lat": 19.56667,
          "lng": -70.26667
        },
        {
          "name": "Juan López Abajo",
          "lat": 19.43333,
          "lng": -70.5
        },
        {
          "name": "Moca",
          "lat": 19.5,
          "lng": -70.5
        },
        {
          "name": "San Víctor Arriba",
          "lat": 19.47741,
          "lng": -70.53585
        },
        {
          "name": "Veragua Arriba",
          "lat": 19.58333,
          "lng": -70.33333
        }
      ]
    },
    {
      "name": "Hato Mayor",
      "lat": 18.7089524,
      "lng": -69.3256524,
      "districts": [
        {
          "name": "El Valle",
          "lat": 18.93333,
          "lng": -69.38333
        },
        {
          "name": "Guayabo Dulce",
          "lat": 18.65,
          "lng": -69.28333
        },
        {
          "name": "Hato Mayor del Rey",
          "lat": 18.76278,
          "lng": -69.25681
        },
        {
          "name": "Sabana de la Mar",
          "lat": 19.03333,
          "lng": -69.41667
        }
      ]
    },
    {
      "name": "Hermanas Mirabal",
      "lat": 19.3957699,
      "lng": -70.3840578,
      "districts": [
        {
          "name": "Salcedo",
          "lat": 19.41667,
          "lng": -70.38333
        },
        {
          "name": "Salsipuedes",
          "lat": 19.40552,
          "lng": -70.37985
        },
        {
          "name": "Tenares",
          "lat": 19.37439,
          "lng": -70.35087
        },
        {
          "name": "Villa Tapia",
          "lat": 19.30084,
          "lng": -70.42199
        }
      ]
    },
    {
      "name": "Higuamo",
      "lat": 18.7,
      "lng": -69.2,
      "districts": []
    },
    {
      "name": "Independencia",
      "lat": 18.4155861,
      "lng": -71.6357396,
      "districts": [
        {
          "name": "Cristóbal",
          "lat": 18.29405,
          "lng": -71.29298
        },
        {
          "name": "Duvergé",
          "lat": 18.31634,
          "lng": -71.59451
        },
        {
          "name": "Guayabal",
          "lat": 18.5981,
          "lng": -71.64184
        },
        {
          "name": "Jimaní",
          "lat": 18.49169,
          "lng": -71.85022
        },
        {
          "name": "La Descubierta",
          "lat": 18.57053,
          "lng": -71.72967
        },
        {
          "name": "Mella",
          "lat": 18.35871,
          "lng": -71.41716
        },
        {
          "name": "Postrer Río",
          "lat": 18.54374,
          "lng": -71.63561
        }
      ]
    },
    {
      "name": "La Altagracia",
      "lat": 18.5880886,
      "lng": -68.6053104,
      "districts": [
        {
          "name": "Punta Cana",
          "lat": 18.58182,
          "lng": -68.40431
        },
        {
          "name": "Salvaleón de Higüey",
          "lat": 18.61501,
          "lng": -68.70798
        },
        {
          "name": "Boca de Yuma",
          "lat": 18.37825,
          "lng": -68.609
        },
        {
          "name": "Higüey",
          "lat": 18.7,
          "lng": -68.66667
        },
        {
          "name": "Otra Banda",
          "lat": 18.65017,
          "lng": -68.66281
        },
        {
          "name": "San Rafael del Yuma",
          "lat": 18.42993,
          "lng": -68.6739
        }
      ]
    },
    {
      "name": "La Romana",
      "lat": 18.4230137,
      "lng": -68.9661104,
      "districts": [
        {
          "name": "La Romana",
          "lat": 18.42733,
          "lng": -68.97285
        },
        {
          "name": "Guaymate",
          "lat": 18.58793,
          "lng": -68.97867
        }
      ]
    },
    {
      "name": "La Vega",
      "lat": 19.2211554,
      "lng": -70.5288753,
      "districts": [
        {
          "name": "Concepción de La Vega",
          "lat": 19.22207,
          "lng": -70.52956
        },
        {
          "name": "Constanza",
          "lat": 18.90919,
          "lng": -70.74499
        },
        {
          "name": "Jarabacoa",
          "lat": 19.11683,
          "lng": -70.63595
        },
        {
          "name": "Jima Abajo",
          "lat": 19.13292,
          "lng": -70.37607
        },
        {
          "name": "Rincón",
          "lat": 19.11938,
          "lng": -70.40632
        },
        {
          "name": "Río Verde Arriba",
          "lat": 19.31583,
          "lng": -70.56643
        },
        {
          "name": "Tireo Arriba",
          "lat": 18.93537,
          "lng": -70.6885
        }
      ]
    },
    {
      "name": "María Trinidad Sánchez",
      "lat": 19.4433304,
      "lng": -69.9990821,
      "districts": [
        {
          "name": "Arroyo Salado",
          "lat": 19.5,
          "lng": -69.9
        },
        {
          "name": "Cabrera",
          "lat": 19.6426,
          "lng": -69.90489
        },
        {
          "name": "El Factor",
          "lat": 19.31834,
          "lng": -69.88827
        },
        {
          "name": "La Entrada",
          "lat": 19.55367,
          "lng": -69.90762
        },
        {
          "name": "Nagua",
          "lat": 19.3832,
          "lng": -69.8474
        },
        {
          "name": "Río San Juan",
          "lat": 19.55022,
          "lng": -70.07703
        }
      ]
    },
    {
      "name": "Monseñor Nouel",
      "lat": 18.9234801,
      "lng": -70.4157265,
      "districts": [
        {
          "name": "Bonao",
          "lat": 18.91667,
          "lng": -70.46667
        },
        {
          "name": "Juan Adrián",
          "lat": 18.76365,
          "lng": -70.33732
        },
        {
          "name": "Maimón",
          "lat": 18.88333,
          "lng": -70.3
        },
        {
          "name": "Piedra Blanca",
          "lat": 18.84431,
          "lng": -70.31688
        },
        {
          "name": "Sabana del Puerto",
          "lat": 19.06667,
          "lng": -70.41667
        }
      ]
    },
    {
      "name": "Monte Cristi",
      "lat": 19.7177718,
      "lng": -71.4448113,
      "districts": [
        {
          "name": "Cana Chapetón",
          "lat": 19.60703,
          "lng": -71.25734
        },
        {
          "name": "Castañuelas",
          "lat": 19.71387,
          "lng": -71.49876
        },
        {
          "name": "Guayubín",
          "lat": 19.61667,
          "lng": -71.33333
        },
        {
          "name": "Hatillo Palma",
          "lat": 19.66256,
          "lng": -71.19406
        },
        {
          "name": "Las Matas de Santa Cruz",
          "lat": 19.67119,
          "lng": -71.50471
        },
        {
          "name": "Monte Cristi",
          "lat": 19.83333,
          "lng": -71.61667
        },
        {
          "name": "Pepillo Salcedo",
          "lat": 19.66667,
          "lng": -71.66667
        },
        {
          "name": "San Fernando de Monte Cristi",
          "lat": 19.84826,
          "lng": -71.64597
        },
        {
          "name": "Villa Elisa",
          "lat": 19.6856,
          "lng": -71.27007
        },
        {
          "name": "Villa Vásquez",
          "lat": 19.80791,
          "lng": -71.44
        }
      ]
    },
    {
      "name": "Monte Plata",
      "lat": 18.8080878,
      "lng": -69.7869146,
      "districts": [
        {
          "name": "Bayaguana",
          "lat": 18.78333,
          "lng": -69.6
        },
        {
          "name": "Don Juan",
          "lat": 18.82774,
          "lng": -69.94629
        },
        {
          "name": "Esperalvillo",
          "lat": 18.81509,
          "lng": -70.03557
        },
        {
          "name": "Gonzalo",
          "lat": 18.95147,
          "lng": -69.75114
        },
        {
          "name": "Los Botados",
          "lat": 18.73226,
          "lng": -69.99536
        },
        {
          "name": "Majagual",
          "lat": 19.04134,
          "lng": -69.83616
        },
        {
          "name": "Monte Plata",
          "lat": 18.807,
          "lng": -69.78399
        },
        {
          "name": "Sabana Grande de Boyá",
          "lat": 18.94498,
          "lng": -69.79331
        },
        {
          "name": "Yamasá",
          "lat": 18.77315,
          "lng": -70.02583
        }
      ]
    },
    {
      "name": "Ozama",
      "lat": 18.5,
      "lng": -69.9,
      "districts": []
    },
    {
      "name": "Pedernales",
      "lat": 18.0907918,
      "lng": -71.5595247,
      "districts": [
        {
          "name": "Juancho",
          "lat": 17.85782,
          "lng": -71.29311
        },
        {
          "name": "Oviedo",
          "lat": 17.80136,
          "lng": -71.401
        },
        {
          "name": "Pedernales",
          "lat": 18.08333,
          "lng": -71.6
        }
      ]
    },
    {
      "name": "Peravia",
      "lat": 18.3309575,
      "lng": -70.3712349,
      "districts": [
        {
          "name": "Baní",
          "lat": 18.27964,
          "lng": -70.33185
        },
        {
          "name": "Matanzas",
          "lat": 18.24297,
          "lng": -70.41768
        },
        {
          "name": "Nizao",
          "lat": 18.24697,
          "lng": -70.21053
        },
        {
          "name": "Paya",
          "lat": 18.26196,
          "lng": -70.2956
        },
        {
          "name": "Pizarrete",
          "lat": 18.29935,
          "lng": -70.22648
        },
        {
          "name": "Sabana Buey",
          "lat": 18.27351,
          "lng": -70.52352
        }
      ]
    },
    {
      "name": "Puerto Plata",
      "lat": 19.7225234,
      "lng": -70.7208338,
      "districts": [
        {
          "name": "Puerto Plata",
          "lat": 19.75119,
          "lng": -70.70251
        },
        {
          "name": "Altamira",
          "lat": 19.7,
          "lng": -70.83333
        },
        {
          "name": "Cabarete",
          "lat": 19.74982,
          "lng": -70.40829
        },
        {
          "name": "Estero Hondo",
          "lat": 19.82712,
          "lng": -71.17411
        },
        {
          "name": "Guananico",
          "lat": 19.72693,
          "lng": -70.92294
        },
        {
          "name": "Imbert",
          "lat": 19.75371,
          "lng": -70.82906
        },
        {
          "name": "Los Hidalgos",
          "lat": 19.73333,
          "lng": -71.03333
        },
        {
          "name": "Luperón",
          "lat": 19.89131,
          "lng": -70.96204
        },
        {
          "name": "Monte Llano",
          "lat": 19.7346,
          "lng": -70.59915
        },
        {
          "name": "Río Grande",
          "lat": 19.66667,
          "lng": -70.76667
        },
        {
          "name": "Sosúa",
          "lat": 19.7522,
          "lng": -70.51995
        },
        {
          "name": "Villa Isabela",
          "lat": 19.81564,
          "lng": -71.06056
        }
      ]
    },
    {
      "name": "Samaná",
      "lat": 19.2058371,
      "lng": -69.3362949,
      "districts": [
        {
          "name": "Las Terrenas",
          "lat": 19.31102,
          "lng": -69.5428
        },
        {
          "name": "Samaná",
          "lat": 19.20561,
          "lng": -69.33685
        },
        {
          "name": "Sánchez",
          "lat": 19.2281,
          "lng": -69.6137
        }
      ]
    },
    {
      "name": "San Cristóbal",
      "lat": 18.4180414,
      "lng": -70.1065849,
      "districts": [
        {
          "name": "San Cristóbal",
          "lat": 18.41667,
          "lng": -70.13333
        },
        {
          "name": "Bajos de Haina",
          "lat": 18.41667,
          "lng": -70.03333
        },
        {
          "name": "Cambita Garabitos",
          "lat": 18.5,
          "lng": -70.23333
        },
        {
          "name": "El Cacao",
          "lat": 18.52719,
          "lng": -70.29585
        },
        {
          "name": "El Carril",
          "lat": 18.44905,
          "lng": -70.02785
        },
        {
          "name": "Sabana Grande de Palenque",
          "lat": 18.26256,
          "lng": -70.14821
        },
        {
          "name": "San Gregorio de Nigua",
          "lat": 18.38333,
          "lng": -70.08333
        },
        {
          "name": "Villa Altagracia",
          "lat": 18.63333,
          "lng": -70.25
        },
        {
          "name": "Yaguate",
          "lat": 18.33333,
          "lng": -70.18333
        }
      ]
    },
    {
      "name": "San José de Ocoa",
      "lat": 18.543858,
      "lng": -70.5041816,
      "districts": [
        {
          "name": "San José de Ocoa",
          "lat": 18.54661,
          "lng": -70.50631
        }
      ]
    },
    {
      "name": "San Juan",
      "lat": 18.87967,
      "lng": -71.2862706,
      "districts": [
        {
          "name": "Bohechío",
          "lat": 18.77515,
          "lng": -70.98889
        },
        {
          "name": "Cercado Abajo",
          "lat": 18.72681,
          "lng": -71.51742
        },
        {
          "name": "El Cercado",
          "lat": 18.7,
          "lng": -71.46667
        },
        {
          "name": "Juan de Herrera",
          "lat": 18.87402,
          "lng": -71.2383
        },
        {
          "name": "Las Matas de Farfán",
          "lat": 18.91667,
          "lng": -71.5
        },
        {
          "name": "Matayaya",
          "lat": 18.89036,
          "lng": -71.59459
        },
        {
          "name": "Pedro Corto",
          "lat": 18.84856,
          "lng": -71.41041
        },
        {
          "name": "San Juan de la Maguana",
          "lat": 18.80588,
          "lng": -71.22991
        },
        {
          "name": "Vallejuelo",
          "lat": 18.65354,
          "lng": -71.33431
        }
      ]
    },
    {
      "name": "San Pedro de Macorís",
      "lat": 18.46266,
      "lng": -69.3051234,
      "districts": [
        {
          "name": "San Pedro de Macorís",
          "lat": 18.4539,
          "lng": -69.30864
        },
        {
          "name": "El Puerto",
          "lat": 18.78333,
          "lng": -69.46667
        },
        {
          "name": "Los Llanos",
          "lat": 18.62035,
          "lng": -69.49581
        },
        {
          "name": "Quisqueya",
          "lat": 18.55542,
          "lng": -69.40814
        },
        {
          "name": "Ramón Santana",
          "lat": 18.54224,
          "lng": -69.17979
        }
      ]
    },
    {
      "name": "Sánchez Ramírez",
      "lat": 19.0176147,
      "lng": -70.1448351,
      "districts": [
        {
          "name": "Cevicos",
          "lat": 19.00449,
          "lng": -69.97896
        },
        {
          "name": "Cotuí",
          "lat": 19.05272,
          "lng": -70.14939
        },
        {
          "name": "Fantino",
          "lat": 19.11667,
          "lng": -70.3
        }
      ]
    },
    {
      "name": "Santiago",
      "lat": 19.336389,
      "lng": -70.9521277,
      "districts": [
        {
          "name": "Santiago de los Caballeros",
          "lat": 19.4517,
          "lng": -70.69703
        },
        {
          "name": "Baitoa",
          "lat": 19.32512,
          "lng": -70.70357
        },
        {
          "name": "Bisonó",
          "lat": 19.58333,
          "lng": -70.86667
        },
        {
          "name": "Juncalito Abajo",
          "lat": 19.2199,
          "lng": -70.81905
        },
        {
          "name": "La Canela",
          "lat": 19.47341,
          "lng": -70.81629
        },
        {
          "name": "Licey al Medio",
          "lat": 19.45,
          "lng": -70.6
        },
        {
          "name": "Palmar Arriba",
          "lat": 19.53957,
          "lng": -70.73826
        },
        {
          "name": "Pedro García",
          "lat": 19.59202,
          "lng": -70.65256
        },
        {
          "name": "Sabana Iglesia",
          "lat": 19.32114,
          "lng": -70.75992
        },
        {
          "name": "San José de Las Matas",
          "lat": 19.33915,
          "lng": -70.93819
        },
        {
          "name": "Santo Tomás de Jánico",
          "lat": 19.23528,
          "lng": -70.79515
        },
        {
          "name": "Tamboril",
          "lat": 19.48538,
          "lng": -70.61104
        },
        {
          "name": "Villa Bisonó",
          "lat": 19.56378,
          "lng": -70.87582
        },
        {
          "name": "Villa González",
          "lat": 19.54057,
          "lng": -70.78853
        }
      ]
    },
    {
      "name": "Santiago Rodríguez",
      "lat": 19.3690729,
      "lng": -71.3523808,
      "districts": [
        {
          "name": "Monción",
          "lat": 19.46667,
          "lng": -71.16667
        },
        {
          "name": "Sabaneta",
          "lat": 19.47793,
          "lng": -71.34125
        },
        {
          "name": "San Ignacio de Sabaneta",
          "lat": 19.38333,
          "lng": -71.35
        }
      ]
    },
    {
      "name": "Santo Domingo",
      "lat": 18.5638543,
      "lng": -69.8531692,
      "districts": [
        {
          "name": "Santo Domingo Este",
          "lat": 18.48847,
          "lng": -69.85707
        },
        {
          "name": "Santo Domingo Oeste",
          "lat": 18.5,
          "lng": -70
        },
        {
          "name": "Boca Chica",
          "lat": 18.45,
          "lng": -69.6
        }
      ]
    },
    {
      "name": "Valdesia",
      "lat": 18.4,
      "lng": -70.3,
      "districts": []
    },
    {
      "name": "Valverde",
      "lat": 19.5955662,
      "lng": -71.0303974,
      "districts": [
        {
          "name": "Amina",
          "lat": 19.54813,
          "lng": -70.99599
        },
        {
          "name": "Esperanza",
          "lat": 19.62379,
          "lng": -70.97141
        },
        {
          "name": "Guatapanal",
          "lat": 19.50705,
          "lng": -70.91713
        },
        {
          "name": "Jaibón",
          "lat": 19.61169,
          "lng": -71.14847
        },
        {
          "name": "Jicomé",
          "lat": 19.64955,
          "lng": -70.94927
        },
        {
          "name": "La Caya",
          "lat": 19.69981,
          "lng": -71.12084
        },
        {
          "name": "Laguna Salada",
          "lat": 19.7,
          "lng": -71.13333
        },
        {
          "name": "Maizal",
          "lat": 19.63655,
          "lng": -71.02734
        },
        {
          "name": "Mao",
          "lat": 19.55186,
          "lng": -71.07813
        }
      ]
    },
    {
      "name": "Yuma",
      "lat": 18.6,
      "lng": -68.7,
      "districts": []
    }
  ]
}
