{
  "name": "Ecuador",
  "lat": -2,
  "lng": -77.5,
  "cities": [
    {
      "name": "Azuay",
      "lat": -3.0524451,
      "lng": -79.2395135,
      "districts": [
        {
          "name": "Cuenca",
          "lat": -2.90055,
          "lng": -79.00453
        },
        {
          "name": "Cantón San Fernando",
          "lat": -3.13349,
          "lng": -79.26893
        },
        {
          "name": "Gualaceo",
          "lat": -2.89264,
          "lng": -78.77814
        },
        {
          "name": "La Unión",
          "lat": -2.85,
          "lng": -78.78333
        },
        {
          "name": "Llacao",
          "lat": -2.86667,
          "lng": -78.88333
        },
        {
          "name": "Nulti",
          "lat": -2.91667,
          "lng": -78.85
        }
      ]
    },
    {
      "name": "Bolívar",
      "lat": -1.5392733,
      "lng": -79.0816505,
      "districts": [
        {
          "name": "Guaranda",
          "lat": -1.59263,
          "lng": -79.00098
        },
        {
          "name": "San Miguel",
          "lat": -1.70884,
          "lng": -79.04311
        }
      ]
    },
    {
      "name": "Cañar",
      "lat": -2.574484,
      "lng": -78.9804678,
      "districts": [
        {
          "name": "Azogues",
          "lat": -2.73969,
          "lng": -78.8486
        },
        {
          "name": "Cañar",
          "lat": -2.56062,
          "lng": -78.9394
        },
        {
          "name": "La Troncal",
          "lat": -2.42355,
          "lng": -79.33977
        }
      ]
    },
    {
      "name": "Carchi",
      "lat": 0.8375163,
      "lng": -78.2075154,
      "districts": [
        {
          "name": "El Ángel",
          "lat": 0.62279,
          "lng": -77.94003
        },
        {
          "name": "San Gabriel",
          "lat": 0.59318,
          "lng": -77.83078
        },
        {
          "name": "Tulcán",
          "lat": 0.81187,
          "lng": -77.71727
        }
      ]
    },
    {
      "name": "Chimborazo",
      "lat": -1.4680988,
      "lng": -78.8155589,
      "districts": [
        {
          "name": "Riobamba",
          "lat": -1.67098,
          "lng": -78.64712
        },
        {
          "name": "Alausí",
          "lat": -2.20329,
          "lng": -78.84714
        },
        {
          "name": "Guano",
          "lat": -1.60789,
          "lng": -78.63105
        }
      ]
    },
    {
      "name": "Cotopaxi",
      "lat": -0.8268521,
      "lng": -78.8937757,
      "districts": [
        {
          "name": "Latacunga",
          "lat": -0.93521,
          "lng": -78.61554
        },
        {
          "name": "La Maná",
          "lat": -0.94094,
          "lng": -79.22506
        },
        {
          "name": "Pujilí",
          "lat": -0.95759,
          "lng": -78.69636
        },
        {
          "name": "San Miguel de Salcedo",
          "lat": -1.04547,
          "lng": -78.59063
        },
        {
          "name": "Saquisilí",
          "lat": -0.8399,
          "lng": -78.667
        }
      ]
    },
    {
      "name": "El Oro",
      "lat": -3.5311093,
      "lng": -79.8333234,
      "districts": [
        {
          "name": "Machala",
          "lat": -3.25861,
          "lng": -79.96053
        },
        {
          "name": "Huaquillas",
          "lat": -3.47523,
          "lng": -80.23084
        },
        {
          "name": "Pasaje",
          "lat": -3.32561,
          "lng": -79.80697
        },
        {
          "name": "Piñas",
          "lat": -3.68107,
          "lng": -79.68083
        },
        {
          "name": "Portovelo",
          "lat": -3.72145,
          "lng": -79.62187
        },
        {
          "name": "Puerto Bolívar",
          "lat": -3.26649,
          "lng": -79.99749
        },
        {
          "name": "Santa Rosa",
          "lat": -3.44882,
          "lng": -79.95952
        },
        {
          "name": "Zaruma",
          "lat": -3.69132,
          "lng": -79.61174
        }
      ]
    },
    {
      "name": "Esmeraldas",
      "lat": 0.9681789,
      "lng": -79.6517202,
      "districts": [
        {
          "name": "Esmeraldas",
          "lat": 0.9592,
          "lng": -79.65397
        },
        {
          "name": "Muisne",
          "lat": 0.61129,
          "lng": -80.01863
        },
        {
          "name": "Pampanal de Bolívar",
          "lat": 1.35251,
          "lng": -78.8936
        },
        {
          "name": "Rio Verde",
          "lat": 1.06235,
          "lng": -79.39939
        },
        {
          "name": "Rosa Zarate",
          "lat": 0.32779,
          "lng": -79.47407
        },
        {
          "name": "San Lorenzo de Esmeraldas",
          "lat": 1.28626,
          "lng": -78.83514
        },
        {
          "name": "Valdez",
          "lat": 1.24917,
          "lng": -78.98306
        }
      ]
    },
    {
      "name": "Galápagos",
      "lat": -0.0606899,
      "lng": -90.673898,
      "districts": [
        {
          "name": "Puerto Ayora",
          "lat": -0.74018,
          "lng": -90.3138
        },
        {
          "name": "Puerto Baquerizo Moreno",
          "lat": -0.90172,
          "lng": -89.61021
        },
        {
          "name": "Puerto Villamil",
          "lat": -0.95542,
          "lng": -90.96654
        }
      ]
    },
    {
      "name": "Guayas",
      "lat": -2,
      "lng": -80,
      "districts": [
        {
          "name": "Eloy Alfaro",
          "lat": -2.17579,
          "lng": -79.85519
        },
        {
          "name": "Guayaquil",
          "lat": -2.19616,
          "lng": -79.88621
        },
        {
          "name": "Milagro",
          "lat": -2.13404,
          "lng": -79.59415
        },
        {
          "name": "Alfredo Baquerizo Moreno",
          "lat": -1.91667,
          "lng": -79.51667
        },
        {
          "name": "Baláo",
          "lat": -2.911,
          "lng": -79.81441
        },
        {
          "name": "Balzar",
          "lat": -1.36501,
          "lng": -79.90494
        },
        {
          "name": "Colimes",
          "lat": -1.54553,
          "lng": -80.01165
        },
        {
          "name": "Coronel Marcelino Maridueña",
          "lat": -2.20924,
          "lng": -79.43248
        },
        {
          "name": "El Triunfo",
          "lat": -1.93333,
          "lng": -79.96667
        },
        {
          "name": "Lomas de Sargentillo",
          "lat": -1.88333,
          "lng": -80.08333
        },
        {
          "name": "Naranjal",
          "lat": -2.67364,
          "lng": -79.6183
        },
        {
          "name": "Naranjito",
          "lat": -2.16671,
          "lng": -79.4654
        },
        {
          "name": "Palestina",
          "lat": -1.93709,
          "lng": -79.71396
        },
        {
          "name": "Pedro Carbo",
          "lat": -1.81563,
          "lng": -80.23309
        },
        {
          "name": "Playas",
          "lat": -2.63199,
          "lng": -80.38808
        },
        {
          "name": "Samborondón",
          "lat": -1.96276,
          "lng": -79.72402
        },
        {
          "name": "Santa Lucía",
          "lat": -2.18333,
          "lng": -80
        },
        {
          "name": "Velasco Ibarra",
          "lat": -1.04376,
          "lng": -79.63837
        },
        {
          "name": "Yaguachi Nuevo",
          "lat": -2.0968,
          "lng": -79.69485
        }
      ]
    },
    {
      "name": "Imbabura",
      "lat": 0.2542902,
      "lng": -78.1803913,
      "districts": [
        {
          "name": "Ibarra",
          "lat": 0.35171,
          "lng": -78.12233
        },
        {
          "name": "Atuntaqui",
          "lat": 0.33247,
          "lng": -78.21371
        },
        {
          "name": "Cotacachi",
          "lat": 0.30107,
          "lng": -78.26428
        },
        {
          "name": "Otavalo",
          "lat": 0.23457,
          "lng": -78.26248
        },
        {
          "name": "Pimampiro",
          "lat": 0.39116,
          "lng": -77.94068
        }
      ]
    },
    {
      "name": "Loja",
      "lat": -3.99313,
      "lng": -79.20422,
      "districts": [
        {
          "name": "Loja",
          "lat": -3.99313,
          "lng": -79.20422
        }
      ]
    },
    {
      "name": "Los Ríos",
      "lat": -1.4941273,
      "lng": -79.5542485,
      "districts": [
        {
          "name": "Quevedo",
          "lat": -1.02863,
          "lng": -79.46352
        },
        {
          "name": "Babahoyo",
          "lat": -1.80217,
          "lng": -79.53443
        },
        {
          "name": "Catarama",
          "lat": -1.57504,
          "lng": -79.45998
        },
        {
          "name": "Montalvo",
          "lat": -1.79008,
          "lng": -79.28759
        },
        {
          "name": "Palenque",
          "lat": -1.43795,
          "lng": -79.75647
        },
        {
          "name": "Ventanas",
          "lat": -1.44158,
          "lng": -79.45943
        },
        {
          "name": "Vinces",
          "lat": -1.55611,
          "lng": -79.75191
        }
      ]
    },
    {
      "name": "Manabí",
      "lat": -0.7588025,
      "lng": -80.0612131,
      "districts": [
        {
          "name": "Cantón Portoviejo",
          "lat": -1.05,
          "lng": -80.45
        },
        {
          "name": "Manta",
          "lat": -0.96212,
          "lng": -80.71271
        },
        {
          "name": "Portoviejo",
          "lat": -1.05458,
          "lng": -80.45445
        },
        {
          "name": "Bahía de Caráquez",
          "lat": -0.59792,
          "lng": -80.42367
        },
        {
          "name": "Calceta",
          "lat": -0.84582,
          "lng": -80.16389
        },
        {
          "name": "Chone",
          "lat": -0.69819,
          "lng": -80.09361
        },
        {
          "name": "Jipijapa",
          "lat": -1.34872,
          "lng": -80.57875
        },
        {
          "name": "Junín",
          "lat": -0.92777,
          "lng": -80.20583
        },
        {
          "name": "Montecristi",
          "lat": -1.04576,
          "lng": -80.65889
        },
        {
          "name": "Paján",
          "lat": -1.55238,
          "lng": -80.42958
        },
        {
          "name": "Pedernales",
          "lat": 0.07167,
          "lng": -80.0525
        },
        {
          "name": "Rocafuerte",
          "lat": -0.9236,
          "lng": -80.44946
        },
        {
          "name": "San Vicente",
          "lat": -0.60435,
          "lng": -80.40267
        },
        {
          "name": "Santa Ana",
          "lat": -1.20726,
          "lng": -80.37132
        },
        {
          "name": "Sucre",
          "lat": -1.27974,
          "lng": -80.41885
        },
        {
          "name": "Tosagua",
          "lat": -0.78679,
          "lng": -80.23473
        }
      ]
    },
    {
      "name": "Morona-Santiago",
      "lat": -2.6232969,
      "lng": -78.0048106,
      "districts": [
        {
          "name": "Gualaquiza",
          "lat": -3.40359,
          "lng": -78.58166
        },
        {
          "name": "Macas",
          "lat": -2.30868,
          "lng": -78.11135
        },
        {
          "name": "Palora",
          "lat": -1.70131,
          "lng": -77.96516
        },
        {
          "name": "Sucúa",
          "lat": -2.45866,
          "lng": -78.17171
        }
      ]
    },
    {
      "name": "Napo",
      "lat": -0.6081965,
      "lng": -77.9520341,
      "districts": [
        {
          "name": "Archidona",
          "lat": -0.9095,
          "lng": -77.80772
        },
        {
          "name": "Tena",
          "lat": -0.9938,
          "lng": -77.81286
        }
      ]
    },
    {
      "name": "Orellana",
      "lat": -0.78618,
      "lng": -76.4803184,
      "districts": [
        {
          "name": "Boca Suno",
          "lat": -0.69832,
          "lng": -77.14083
        },
        {
          "name": "Francisco de Orellana Canton",
          "lat": -0.46667,
          "lng": -76.96667
        },
        {
          "name": "Loreto Canton",
          "lat": -0.69487,
          "lng": -77.30255
        },
        {
          "name": "Puerto Francisco de Orellana",
          "lat": -0.46645,
          "lng": -76.98719
        }
      ]
    },
    {
      "name": "Pastaza",
      "lat": -1.916667,
      "lng": -77,
      "districts": [
        {
          "name": "Puyo",
          "lat": -1.48369,
          "lng": -78.00257
        }
      ]
    },
    {
      "name": "Pichincha",
      "lat": -0.0584893,
      "lng": -78.3284371,
      "districts": [
        {
          "name": "Quito",
          "lat": -0.22985,
          "lng": -78.52495,
          "iscapital": true
        },
        {
          "name": "Cayambe",
          "lat": 0.04084,
          "lng": -78.14524
        },
        {
          "name": "Machachi",
          "lat": -0.51011,
          "lng": -78.56712
        },
        {
          "name": "Sangolquí",
          "lat": -0.33405,
          "lng": -78.45217
        }
      ]
    },
    {
      "name": "Santa Elena",
      "lat": -2.2267105,
      "lng": -80.859499,
      "districts": [
        {
          "name": "La Libertad",
          "lat": -2.233,
          "lng": -80.91039
        },
        {
          "name": "Salinas",
          "lat": -2.21452,
          "lng": -80.95151
        },
        {
          "name": "Santa Elena",
          "lat": -2.22622,
          "lng": -80.85873
        }
      ]
    },
    {
      "name": "Santo Domingo de los Tsáchilas",
      "lat": -0.2546212,
      "lng": -79.1686724,
      "districts": [
        {
          "name": "Santo Domingo de los Colorados",
          "lat": -0.25305,
          "lng": -79.17536
        }
      ]
    },
    {
      "name": "Sucumbíos",
      "lat": -0.039138,
      "lng": -76.5119678,
      "districts": [
        {
          "name": "Nueva Loja",
          "lat": 0.086,
          "lng": -76.89528
        }
      ]
    },
    {
      "name": "Tungurahua",
      "lat": -1.2765895,
      "lng": -78.4754667,
      "districts": [
        {
          "name": "Ambato",
          "lat": -1.24908,
          "lng": -78.61675
        },
        {
          "name": "Baños",
          "lat": -1.39699,
          "lng": -78.42289
        },
        {
          "name": "Pelileo",
          "lat": -1.3299,
          "lng": -78.54341
        },
        {
          "name": "Píllaro",
          "lat": -1.17414,
          "lng": -78.54676
        }
      ]
    },
    {
      "name": "Zamora Chinchipe",
      "lat": -4.0620183,
      "lng": -78.7751588,
      "districts": [
        {
          "name": "Yantzaza",
          "lat": -3.83261,
          "lng": -78.76076
        },
        {
          "name": "Zamora",
          "lat": -4.06685,
          "lng": -78.95488
        }
      ]
    }
  ]
}
