{
  "name": "El Salvador",
  "lat": 13.83333333,
  "lng": -88.91666666,
  "cities": [
    {
      "name": "Ahuachapán",
      "lat": 13.8634993,
      "lng": -89.9273861,
      "districts": [
        {
          "name": "Ahuachapán",
          "lat": 13.92139,
          "lng": -89.845
        },
        {
          "name": "Atiquizaya",
          "lat": 13.97694,
          "lng": -89.7525
        },
        {
          "name": "Concepción de Ataco",
          "lat": 13.87028,
          "lng": -89.84861
        },
        {
          "name": "Guaymango",
          "lat": 13.75028,
          "lng": -89.84222
        },
        {
          "name": "Jujutla",
          "lat": 13.78694,
          "lng": -89.85722
        },
        {
          "name": "San Francisco Menéndez",
          "lat": 13.84306,
          "lng": -90.01583
        },
        {
          "name": "Tacuba",
          "lat": 13.90111,
          "lng": -89.92972
        }
      ]
    },
    {
      "name": "Cabañas",
      "lat": 13.8832914,
      "lng": -88.7383096,
      "districts": [
        {
          "name": "Sensuntepeque",
          "lat": 13.86667,
          "lng": -88.63333
        },
        {
          "name": "Victoria",
          "lat": 13.95,
          "lng": -88.63333
        }
      ]
    },
    {
      "name": "Chalatenango",
      "lat": 14.1765311,
      "lng": -89.0932963,
      "districts": [
        {
          "name": "Chalatenango",
          "lat": 14.03333,
          "lng": -88.93333
        },
        {
          "name": "Nueva Concepción",
          "lat": 14.13333,
          "lng": -89.3
        }
      ]
    },
    {
      "name": "Cuscatlán",
      "lat": 13.8586903,
      "lng": -89.0632592,
      "districts": [
        {
          "name": "Cojutepeque",
          "lat": 13.71667,
          "lng": -88.93333
        },
        {
          "name": "San Martín",
          "lat": 13.78333,
          "lng": -88.91667
        },
        {
          "name": "Suchitoto",
          "lat": 13.93806,
          "lng": -89.02778
        },
        {
          "name": "Tecoluca",
          "lat": 13.78917,
          "lng": -89.00528
        },
        {
          "name": "Tenancingo",
          "lat": 13.83333,
          "lng": -88.98333
        }
      ]
    },
    {
      "name": "La Libertad",
      "lat": 13.7449622,
      "lng": -89.3610819,
      "districts": [
        {
          "name": "Santa Tecla",
          "lat": 13.67694,
          "lng": -89.27972
        },
        {
          "name": "Antiguo Cuscatlán",
          "lat": 13.66492,
          "lng": -89.25319
        },
        {
          "name": "Ciudad Arce",
          "lat": 13.84028,
          "lng": -89.44722
        },
        {
          "name": "La Libertad",
          "lat": 13.48833,
          "lng": -89.32222
        },
        {
          "name": "Nuevo Cuscatlán",
          "lat": 13.64861,
          "lng": -89.26528
        },
        {
          "name": "Quezaltepeque",
          "lat": 13.83124,
          "lng": -89.27221
        },
        {
          "name": "San Juan Opico",
          "lat": 13.87611,
          "lng": -89.35972
        },
        {
          "name": "San Pablo Tacachico",
          "lat": 13.97556,
          "lng": -89.34
        },
        {
          "name": "Zaragoza",
          "lat": 13.58944,
          "lng": -89.28889
        }
      ]
    },
    {
      "name": "La Paz",
      "lat": 13.4669766,
      "lng": -88.9850622,
      "districts": [
        {
          "name": "El Rosario",
          "lat": 13.49778,
          "lng": -89.02972
        },
        {
          "name": "Olocuilta",
          "lat": 13.56972,
          "lng": -89.11722
        },
        {
          "name": "San Pedro Masahuat",
          "lat": 13.54361,
          "lng": -89.03861
        },
        {
          "name": "Santiago Nonualco",
          "lat": 13.51667,
          "lng": -88.95
        },
        {
          "name": "Zacatecoluca",
          "lat": 13.5,
          "lng": -88.86667
        }
      ]
    },
    {
      "name": "La Unión ",
      "lat": 13.5326318,
      "lng": -87.902582,
      "districts": [
        {
          "name": "Anamorós",
          "lat": 13.74056,
          "lng": -87.87361
        },
        {
          "name": "Conchagua",
          "lat": 13.30778,
          "lng": -87.86472
        },
        {
          "name": "Intipucá",
          "lat": 13.19694,
          "lng": -88.05444
        },
        {
          "name": "La Unión",
          "lat": 13.33694,
          "lng": -87.84389
        },
        {
          "name": "Nueva Esparta",
          "lat": 13.78361,
          "lng": -87.83861
        },
        {
          "name": "Pasaquina",
          "lat": 13.58444,
          "lng": -87.84111
        },
        {
          "name": "San Alejo",
          "lat": 13.43139,
          "lng": -87.96306
        },
        {
          "name": "Santa Rosa de Lima",
          "lat": 13.62472,
          "lng": -87.89361
        }
      ]
    },
    {
      "name": "Morazán",
      "lat": 13.7726176,
      "lng": -88.0951973,
      "districts": [
        {
          "name": "Cacaopera",
          "lat": 13.76667,
          "lng": -88.08333
        },
        {
          "name": "Corinto",
          "lat": 13.81083,
          "lng": -87.97139
        },
        {
          "name": "Guatajiagua",
          "lat": 13.66667,
          "lng": -88.2
        },
        {
          "name": "Jocoro",
          "lat": 13.61667,
          "lng": -88.01667
        },
        {
          "name": "San Francisco",
          "lat": 13.7,
          "lng": -88.1
        },
        {
          "name": "Sociedad",
          "lat": 13.7,
          "lng": -88.01667
        }
      ]
    },
    {
      "name": "San Miguel",
      "lat": 13.4320224,
      "lng": -88.271737,
      "districts": [
        {
          "name": "San Miguel",
          "lat": 13.48333,
          "lng": -88.18333
        },
        {
          "name": "Chapeltique",
          "lat": 13.63333,
          "lng": -88.26667
        },
        {
          "name": "Chinameca",
          "lat": 13.5,
          "lng": -88.35
        },
        {
          "name": "Chirilagua",
          "lat": 13.22028,
          "lng": -88.13861
        },
        {
          "name": "Ciudad Barrios",
          "lat": 13.76667,
          "lng": -88.26667
        },
        {
          "name": "El Tránsito",
          "lat": 13.35,
          "lng": -88.35
        },
        {
          "name": "Lolotique",
          "lat": 13.55,
          "lng": -88.35
        },
        {
          "name": "Moncagua",
          "lat": 13.53333,
          "lng": -88.25
        },
        {
          "name": "Nueva Guadalupe",
          "lat": 13.53333,
          "lng": -88.35
        },
        {
          "name": "San Rafael Oriente",
          "lat": 13.38333,
          "lng": -88.35
        },
        {
          "name": "Sesori",
          "lat": 13.71667,
          "lng": -88.36667
        }
      ]
    },
    {
      "name": "San Salvador",
      "lat": 13.735588,
      "lng": -89.2005546,
      "districts": [
        {
          "name": "Apopa",
          "lat": 13.80722,
          "lng": -89.17917
        },
        {
          "name": "Mejicanos",
          "lat": 13.74028,
          "lng": -89.21306
        },
        {
          "name": "San Salvador",
          "lat": 13.68935,
          "lng": -89.18718,
          "iscapital": true
        },
        {
          "name": "Soyapango",
          "lat": 13.71024,
          "lng": -89.13989
        },
        {
          "name": "Aguilares",
          "lat": 13.95722,
          "lng": -89.18972
        },
        {
          "name": "Ayutuxtepeque",
          "lat": 13.74556,
          "lng": -89.20639
        },
        {
          "name": "Cuscatancingo",
          "lat": 13.73611,
          "lng": -89.18139
        },
        {
          "name": "Delgado",
          "lat": 13.72417,
          "lng": -89.17028
        },
        {
          "name": "El Paisnal",
          "lat": 13.97361,
          "lng": -89.21861
        },
        {
          "name": "Guazapa",
          "lat": 13.87694,
          "lng": -89.17306
        },
        {
          "name": "Ilopango",
          "lat": 13.70167,
          "lng": -89.10944
        },
        {
          "name": "Panchimalco",
          "lat": 13.61278,
          "lng": -89.18
        },
        {
          "name": "Rosario de Mora",
          "lat": 13.57528,
          "lng": -89.20889
        },
        {
          "name": "San Marcos",
          "lat": 13.65889,
          "lng": -89.18306
        },
        {
          "name": "Santo Tomás",
          "lat": 13.64083,
          "lng": -89.13333
        },
        {
          "name": "Tonacatepeque",
          "lat": 13.78111,
          "lng": -89.11861
        }
      ]
    },
    {
      "name": "San Vicente",
      "lat": 13.5274935,
      "lng": -88.7396986,
      "districts": [
        {
          "name": "Apastepeque",
          "lat": 13.66667,
          "lng": -88.78333
        },
        {
          "name": "San Sebastián",
          "lat": 13.73333,
          "lng": -88.83333
        },
        {
          "name": "San Vicente",
          "lat": 13.63333,
          "lng": -88.8
        }
      ]
    },
    {
      "name": "Santa Ana",
      "lat": 14.1145585,
      "lng": -89.5678141,
      "districts": [
        {
          "name": "Santa Ana",
          "lat": 13.99417,
          "lng": -89.55972
        },
        {
          "name": "Candelaria de La Frontera",
          "lat": 14.11667,
          "lng": -89.65
        },
        {
          "name": "Chalchuapa",
          "lat": 13.98667,
          "lng": -89.68111
        },
        {
          "name": "Coatepeque",
          "lat": 13.92861,
          "lng": -89.50417
        },
        {
          "name": "El Congo",
          "lat": 13.90889,
          "lng": -89.49583
        },
        {
          "name": "Metapán",
          "lat": 14.33333,
          "lng": -89.45
        },
        {
          "name": "Texistepeque",
          "lat": 14.13333,
          "lng": -89.5
        }
      ]
    },
    {
      "name": "Sonsonate",
      "lat": 13.7115105,
      "lng": -89.6605842,
      "districts": [
        {
          "name": "Acajutla",
          "lat": 13.59278,
          "lng": -89.8275
        },
        {
          "name": "Armenia",
          "lat": 13.74361,
          "lng": -89.49889
        },
        {
          "name": "Izalco",
          "lat": 13.74472,
          "lng": -89.67306
        },
        {
          "name": "Juayúa",
          "lat": 13.84139,
          "lng": -89.74556
        },
        {
          "name": "Nahuizalco",
          "lat": 13.7775,
          "lng": -89.73667
        },
        {
          "name": "San Antonio del Monte",
          "lat": 13.71639,
          "lng": -89.73833
        },
        {
          "name": "Sonsonate",
          "lat": 13.71889,
          "lng": -89.72417
        },
        {
          "name": "Sonzacate",
          "lat": 13.73417,
          "lng": -89.71472
        }
      ]
    },
    {
      "name": "Usulután",
      "lat": 13.4324702,
      "lng": -88.5398358,
      "districts": [
        {
          "name": "Berlín",
          "lat": 13.5,
          "lng": -88.53333
        },
        {
          "name": "Concepción Batres",
          "lat": 13.35,
          "lng": -88.36667
        },
        {
          "name": "Jiquilisco",
          "lat": 13.31667,
          "lng": -88.58333
        },
        {
          "name": "Jucuapa",
          "lat": 13.51667,
          "lng": -88.38333
        },
        {
          "name": "Jucuarán",
          "lat": 13.25389,
          "lng": -88.24778
        },
        {
          "name": "Ozatlán",
          "lat": 13.38333,
          "lng": -88.5
        },
        {
          "name": "Puerto El Triunfo",
          "lat": 13.28333,
          "lng": -88.55
        },
        {
          "name": "San Agustín",
          "lat": 13.43333,
          "lng": -88.6
        },
        {
          "name": "Santa Elena",
          "lat": 13.38333,
          "lng": -88.41667
        },
        {
          "name": "Santiago de María",
          "lat": 13.48333,
          "lng": -88.46667
        },
        {
          "name": "Usulután",
          "lat": 13.35,
          "lng": -88.45
        }
      ]
    }
  ]
}
