{
  "name": "Germany",
  "lat": 51,
  "lng": 9,
  "cities": [
    {
      "name": "Baden-Württemberg",
      "lat": 48.53775,
      "lng": 9.041169,
      "districts": [
        {
          "name": "Freiburg",
          "lat": 47.9959,
          "lng": 7.85222,
          "subdistricts": [
            {
              "name": "Aichhalden",
              "lat": 48.26719,
              "lng": 8.40233
            },
            {
              "name": "Albbruck",
              "lat": 47.59077,
              "lng": 8.12954
            },
            {
              "name": "Au",
              "lat": 47.95,
              "lng": 7.83333
            },
            {
              "name": "Auggen",
              "lat": 47.78333,
              "lng": 7.6
            },
            {
              "name": "Bad Bellingen",
              "lat": 47.73147,
              "lng": 7.55756
            },
            {
              "name": "Bad Dürrheim",
              "lat": 48.02093,
              "lng": 8.53056
            },
            {
              "name": "Bad Peterstal-Griesbach",
              "lat": 48.43333,
              "lng": 8.21667
            },
            {
              "name": "Bad Säckingen",
              "lat": 47.55371,
              "lng": 7.94612
            },
            {
              "name": "Badenweiler",
              "lat": 47.80223,
              "lng": 7.67236
            },
            {
              "name": "Bahlingen",
              "lat": 48.12064,
              "lng": 7.73982
            },
            {
              "name": "Berghaupten",
              "lat": 48.40602,
              "lng": 7.98672
            },
            {
              "name": "Bernau",
              "lat": 47.80018,
              "lng": 8.0383
            },
            {
              "name": "Binzen",
              "lat": 47.63333,
              "lng": 7.61667
            },
            {
              "name": "Blumberg",
              "lat": 47.84058,
              "lng": 8.53329
            },
            {
              "name": "Bollschweil",
              "lat": 47.92143,
              "lng": 7.78986
            },
            {
              "name": "Bonndorf",
              "lat": 47.81863,
              "lng": 8.34139
            },
            {
              "name": "Bötzingen",
              "lat": 48.07642,
              "lng": 7.72485
            },
            {
              "name": "Bräunlingen",
              "lat": 47.92957,
              "lng": 8.44806
            },
            {
              "name": "Breisach am Rhein",
              "lat": 48.03279,
              "lng": 7.58294
            },
            {
              "name": "Breitnau",
              "lat": 47.93333,
              "lng": 8.08333
            },
            {
              "name": "Buchenbach",
              "lat": 47.96138,
              "lng": 8.00909
            },
            {
              "name": "Buggingen",
              "lat": 47.8475,
              "lng": 7.63799
            },
            {
              "name": "Büsingen",
              "lat": 47.69638,
              "lng": 8.68759
            },
            {
              "name": "Dauchingen",
              "lat": 48.08993,
              "lng": 8.55011
            },
            {
              "name": "Denzlingen",
              "lat": 48.06667,
              "lng": 7.88333
            },
            {
              "name": "Dettighofen",
              "lat": 47.62333,
              "lng": 8.48512
            },
            {
              "name": "Dogern",
              "lat": 47.60952,
              "lng": 8.16713
            },
            {
              "name": "Donaueschingen",
              "lat": 47.95514,
              "lng": 8.49707
            },
            {
              "name": "Dunningen",
              "lat": 48.21242,
              "lng": 8.50619
            },
            {
              "name": "Durbach",
              "lat": 48.49352,
              "lng": 8.01736
            },
            {
              "name": "Ebringen",
              "lat": 47.9578,
              "lng": 7.77652
            },
            {
              "name": "Efringen-Kirchen",
              "lat": 47.65,
              "lng": 7.56667
            },
            {
              "name": "Eggingen",
              "lat": 47.7,
              "lng": 8.4
            },
            {
              "name": "Eichstetten",
              "lat": 48.09427,
              "lng": 7.74244
            },
            {
              "name": "Eimeldingen",
              "lat": 47.63333,
              "lng": 7.6
            },
            {
              "name": "Eisenbach",
              "lat": 47.96117,
              "lng": 8.26802
            },
            {
              "name": "Elzach",
              "lat": 48.17247,
              "lng": 8.06992
            },
            {
              "name": "Emmendingen",
              "lat": 48.12096,
              "lng": 7.85359
            },
            {
              "name": "Endingen",
              "lat": 48.14221,
              "lng": 7.70049
            },
            {
              "name": "Ettenheim",
              "lat": 48.25696,
              "lng": 7.81247
            },
            {
              "name": "Feldberg",
              "lat": 47.77435,
              "lng": 7.64142
            },
            {
              "name": "Fischerbach",
              "lat": 48.28687,
              "lng": 8.10959
            },
            {
              "name": "Forchheim",
              "lat": 48.16667,
              "lng": 7.7
            },
            {
              "name": "Freiburg Region",
              "lat": 48.16667,
              "lng": 8.33333
            },
            {
              "name": "Friedenweiler",
              "lat": 47.91778,
              "lng": 8.25627
            },
            {
              "name": "Furtwangen",
              "lat": 48.05156,
              "lng": 8.20715
            },
            {
              "name": "Gengenbach",
              "lat": 48.40476,
              "lng": 8.01433
            },
            {
              "name": "Görwihl",
              "lat": 47.64275,
              "lng": 8.07482
            },
            {
              "name": "Gottenheim",
              "lat": 48.05,
              "lng": 7.73333
            },
            {
              "name": "Grafenhausen",
              "lat": 48.28427,
              "lng": 7.76678
            },
            {
              "name": "Grenzach-Wyhlen",
              "lat": 47.55,
              "lng": 7.68333
            },
            {
              "name": "Gundelfingen",
              "lat": 48.04246,
              "lng": 7.8657
            },
            {
              "name": "Gutach",
              "lat": 48.24844,
              "lng": 8.21293
            },
            {
              "name": "Gutach im Breisgau",
              "lat": 48.11667,
              "lng": 7.98333
            },
            {
              "name": "Gütenbach",
              "lat": 48.05,
              "lng": 8.15
            },
            {
              "name": "Hardt",
              "lat": 48.18333,
              "lng": 8.41667
            },
            {
              "name": "Hartheim",
              "lat": 47.93333,
              "lng": 7.63333
            },
            {
              "name": "Hasel",
              "lat": 47.65342,
              "lng": 7.8972
            },
            {
              "name": "Hausach",
              "lat": 48.28426,
              "lng": 8.17602
            },
            {
              "name": "Hausen",
              "lat": 47.68128,
              "lng": 7.83986
            },
            {
              "name": "Häusern",
              "lat": 47.75,
              "lng": 8.16667
            },
            {
              "name": "Heitersheim",
              "lat": 47.87468,
              "lng": 7.65721
            },
            {
              "name": "Herbolzheim",
              "lat": 48.21884,
              "lng": 7.77746
            },
            {
              "name": "Herrischried",
              "lat": 47.66667,
              "lng": 8
            },
            {
              "name": "Hinterzarten",
              "lat": 47.90276,
              "lng": 8.10701
            },
            {
              "name": "Höchenschwand",
              "lat": 47.73333,
              "lng": 8.16667
            },
            {
              "name": "Hofstetten",
              "lat": 48.25846,
              "lng": 8.06595
            },
            {
              "name": "Hohberg",
              "lat": 48.3227,
              "lng": 7.89972
            },
            {
              "name": "Hohentengen",
              "lat": 47.57005,
              "lng": 8.4325
            },
            {
              "name": "Horben",
              "lat": 47.93333,
              "lng": 7.86667
            },
            {
              "name": "Hornberg",
              "lat": 48.21068,
              "lng": 8.23275
            },
            {
              "name": "Hüfingen",
              "lat": 47.92543,
              "lng": 8.48831
            },
            {
              "name": "Ihringen",
              "lat": 48.04303,
              "lng": 7.6476
            },
            {
              "name": "Inzlingen",
              "lat": 47.58851,
              "lng": 7.69094
            },
            {
              "name": "Jestetten",
              "lat": 47.65,
              "lng": 8.56667
            },
            {
              "name": "Kandern",
              "lat": 47.71393,
              "lng": 7.66237
            },
            {
              "name": "Kappel-Grafenhausen",
              "lat": 48.28382,
              "lng": 7.76605
            },
            {
              "name": "Kehl",
              "lat": 48.57297,
              "lng": 7.81523
            },
            {
              "name": "Kenzingen",
              "lat": 48.1963,
              "lng": 7.76974
            },
            {
              "name": "Kippenheim",
              "lat": 48.29564,
              "lng": 7.8251
            },
            {
              "name": "Kirchzarten",
              "lat": 47.96667,
              "lng": 7.95
            },
            {
              "name": "Königsfeld im Schwarzwald",
              "lat": 48.13814,
              "lng": 8.41973
            },
            {
              "name": "Lahr",
              "lat": 48.34042,
              "lng": 7.86886
            },
            {
              "name": "Lauchringen",
              "lat": 47.62699,
              "lng": 8.31442
            },
            {
              "name": "Laufenburg",
              "lat": 47.56512,
              "lng": 8.06045
            },
            {
              "name": "Lautenbach",
              "lat": 48.48185,
              "lng": 8.02732
            },
            {
              "name": "Lauterbach/Schwarzwald",
              "lat": 48.22999,
              "lng": 8.3424
            },
            {
              "name": "Lenzkirch",
              "lat": 47.86832,
              "lng": 8.20211
            },
            {
              "name": "Löffingen",
              "lat": 47.88405,
              "lng": 8.34384
            },
            {
              "name": "Lörrach",
              "lat": 47.61497,
              "lng": 7.66457
            },
            {
              "name": "Lottstetten",
              "lat": 47.63333,
              "lng": 8.56667
            },
            {
              "name": "Mahlberg",
              "lat": 48.28639,
              "lng": 7.81411
            },
            {
              "name": "Malterdingen",
              "lat": 48.15719,
              "lng": 7.78608
            },
            {
              "name": "Maulburg",
              "lat": 47.64631,
              "lng": 7.7821
            },
            {
              "name": "Meißenheim",
              "lat": 48.41035,
              "lng": 7.77266
            },
            {
              "name": "Merdingen",
              "lat": 48.01667,
              "lng": 7.68333
            },
            {
              "name": "Merzhausen",
              "lat": 47.96667,
              "lng": 7.83333
            },
            {
              "name": "Mönchweiler",
              "lat": 48.1004,
              "lng": 8.42219
            },
            {
              "name": "Mühlenbach",
              "lat": 48.25,
              "lng": 8.11667
            },
            {
              "name": "Müllheim",
              "lat": 47.8082,
              "lng": 7.63035
            },
            {
              "name": "Münstertal/Schwarzwald",
              "lat": 47.85472,
              "lng": 7.78417
            },
            {
              "name": "Murg",
              "lat": 47.55492,
              "lng": 8.02182
            },
            {
              "name": "Neuenburg am Rhein",
              "lat": 47.81431,
              "lng": 7.56005
            },
            {
              "name": "Niedereschach",
              "lat": 48.13333,
              "lng": 8.53333
            },
            {
              "name": "Nordrach",
              "lat": 48.4,
              "lng": 8.08333
            },
            {
              "name": "Oberharmersbach",
              "lat": 48.37358,
              "lng": 8.12542
            },
            {
              "name": "Oberried",
              "lat": 47.93333,
              "lng": 7.95
            },
            {
              "name": "Oberrotweil",
              "lat": 48.0899,
              "lng": 7.63601
            },
            {
              "name": "Oberwolfach",
              "lat": 48.31667,
              "lng": 8.21667
            },
            {
              "name": "Offenburg",
              "lat": 48.47377,
              "lng": 7.94495
            },
            {
              "name": "Ohlsbach",
              "lat": 48.43222,
              "lng": 7.99384
            },
            {
              "name": "Oppenau",
              "lat": 48.47332,
              "lng": 8.1597
            },
            {
              "name": "Ortenberg",
              "lat": 48.45158,
              "lng": 7.97178
            },
            {
              "name": "Pfaffenweiler",
              "lat": 47.93333,
              "lng": 7.75
            },
            {
              "name": "Rheinfelden",
              "lat": 47.56013,
              "lng": 7.78715
            },
            {
              "name": "Rickenbach",
              "lat": 47.61895,
              "lng": 7.97873
            },
            {
              "name": "Riegel",
              "lat": 48.15111,
              "lng": 7.74915
            },
            {
              "name": "Ringsheim",
              "lat": 48.24765,
              "lng": 7.77823
            },
            {
              "name": "Rümmingen",
              "lat": 47.6412,
              "lng": 7.64198
            },
            {
              "name": "Rust",
              "lat": 48.26667,
              "lng": 7.73333
            },
            {
              "name": "Sankt Blasien",
              "lat": 47.76252,
              "lng": 8.12714
            },
            {
              "name": "Sankt Georgen im Schwarzwald",
              "lat": 48.12716,
              "lng": 8.33513
            },
            {
              "name": "Sankt Märgen",
              "lat": 48.00805,
              "lng": 8.09283
            },
            {
              "name": "Sankt Peter",
              "lat": 48.01475,
              "lng": 8.03294
            },
            {
              "name": "Schallstadt",
              "lat": 47.95855,
              "lng": 7.75755
            },
            {
              "name": "Schenkenzell",
              "lat": 48.31202,
              "lng": 8.37212
            },
            {
              "name": "Schiltach",
              "lat": 48.28932,
              "lng": 8.34169
            },
            {
              "name": "Schliengen",
              "lat": 47.75698,
              "lng": 7.57645
            },
            {
              "name": "Schluchsee",
              "lat": 47.81667,
              "lng": 8.18333
            },
            {
              "name": "Schonach im Schwarzwald",
              "lat": 48.14229,
              "lng": 8.20289
            },
            {
              "name": "Schönau im Schwarzwald",
              "lat": 47.78623,
              "lng": 7.89445
            },
            {
              "name": "Schönwald",
              "lat": 48.10549,
              "lng": 8.20387
            },
            {
              "name": "Schopfheim",
              "lat": 47.65105,
              "lng": 7.82089
            },
            {
              "name": "Schramberg",
              "lat": 48.22399,
              "lng": 8.38583
            },
            {
              "name": "Schuttertal",
              "lat": 48.26667,
              "lng": 7.95
            },
            {
              "name": "Schutterwald",
              "lat": 48.45,
              "lng": 7.88333
            },
            {
              "name": "Schwanau",
              "lat": 48.36669,
              "lng": 7.76244
            },
            {
              "name": "Schwörstadt",
              "lat": 47.59314,
              "lng": 7.8784
            },
            {
              "name": "Seelbach",
              "lat": 48.31055,
              "lng": 7.94069
            },
            {
              "name": "Sexau",
              "lat": 48.10209,
              "lng": 7.90757
            },
            {
              "name": "Sölden",
              "lat": 47.93333,
              "lng": 7.81667
            },
            {
              "name": "Staufen",
              "lat": 47.75686,
              "lng": 8.21078
            },
            {
              "name": "Stegen",
              "lat": 47.98333,
              "lng": 7.96667
            },
            {
              "name": "Steinach",
              "lat": 48.3,
              "lng": 8.05
            },
            {
              "name": "Steinen",
              "lat": 47.64446,
              "lng": 7.73914
            },
            {
              "name": "Stühlingen",
              "lat": 47.7458,
              "lng": 8.44813
            },
            {
              "name": "Sulzburg",
              "lat": 47.84116,
              "lng": 7.70777
            },
            {
              "name": "Tengen",
              "lat": 47.82128,
              "lng": 8.66117
            },
            {
              "name": "Teningen",
              "lat": 48.12952,
              "lng": 7.81205
            },
            {
              "name": "Tennenbronn",
              "lat": 48.19041,
              "lng": 8.35176
            },
            {
              "name": "Titisee-Neustadt",
              "lat": 47.92104,
              "lng": 8.19063
            },
            {
              "name": "Todtmoos",
              "lat": 47.74014,
              "lng": 8.00183
            },
            {
              "name": "Todtnau",
              "lat": 47.82941,
              "lng": 7.9438
            },
            {
              "name": "Triberg",
              "lat": 48.13175,
              "lng": 8.23317
            },
            {
              "name": "Tuningen",
              "lat": 48.03333,
              "lng": 8.6
            },
            {
              "name": "Ühlingen-Birkendorf",
              "lat": 47.71667,
              "lng": 8.31667
            },
            {
              "name": "Umkirch",
              "lat": 48.03333,
              "lng": 7.76667
            },
            {
              "name": "Unterkirnach",
              "lat": 48.07946,
              "lng": 8.36575
            },
            {
              "name": "Unterkrozingen",
              "lat": 47.91933,
              "lng": 7.69045
            },
            {
              "name": "Villingen-Schwenningen",
              "lat": 48.06226,
              "lng": 8.49358
            },
            {
              "name": "Vogtsburg",
              "lat": 48.09688,
              "lng": 7.64185
            },
            {
              "name": "Vöhrenbach",
              "lat": 48.05,
              "lng": 8.3
            },
            {
              "name": "Vörstetten",
              "lat": 48.06667,
              "lng": 7.85
            },
            {
              "name": "Waldkirch",
              "lat": 48.09585,
              "lng": 7.96371
            },
            {
              "name": "Waldshut-Tiengen",
              "lat": 47.62323,
              "lng": 8.21717
            },
            {
              "name": "Wehr",
              "lat": 47.62983,
              "lng": 7.90423
            },
            {
              "name": "Weil am Rhein",
              "lat": 47.59331,
              "lng": 7.62082
            },
            {
              "name": "Weilheim",
              "lat": 47.66667,
              "lng": 8.23333
            },
            {
              "name": "Weisweil",
              "lat": 48.19939,
              "lng": 7.67713
            },
            {
              "name": "Willstätt",
              "lat": 48.54071,
              "lng": 7.89314
            },
            {
              "name": "Wittnau",
              "lat": 47.95,
              "lng": 7.81667
            },
            {
              "name": "Wolfach",
              "lat": 48.29319,
              "lng": 8.2158
            },
            {
              "name": "Wutöschingen",
              "lat": 47.66019,
              "lng": 8.36755
            },
            {
              "name": "Wyhl",
              "lat": 48.16617,
              "lng": 7.64917
            },
            {
              "name": "Zell im Wiesental",
              "lat": 47.70555,
              "lng": 7.85248
            }
          ]
        },
        {
          "name": "Heidelberg",
          "lat": 49.40768,
          "lng": 8.69079,
          "subdistricts": [
            {
              "name": "Aglasterhausen",
              "lat": 49.35694,
              "lng": 8.98694
            },
            {
              "name": "Balzfeld",
              "lat": 49.26892,
              "lng": 8.78919
            },
            {
              "name": "Bammental",
              "lat": 49.35611,
              "lng": 8.77944
            },
            {
              "name": "Dielheim",
              "lat": 49.28417,
              "lng": 8.73806
            },
            {
              "name": "Dossenheim",
              "lat": 49.45028,
              "lng": 8.67472
            },
            {
              "name": "Eberbach",
              "lat": 49.4668,
              "lng": 8.99016
            },
            {
              "name": "Edingen-Neckarhausen",
              "lat": 49.45722,
              "lng": 8.60639
            },
            {
              "name": "Epfenbach",
              "lat": 49.33917,
              "lng": 8.90778
            },
            {
              "name": "Eppelheim",
              "lat": 49.4019,
              "lng": 8.63644
            },
            {
              "name": "Eschelbronn",
              "lat": 49.31944,
              "lng": 8.86528
            },
            {
              "name": "Gaiberg",
              "lat": 49.36639,
              "lng": 8.74972
            },
            {
              "name": "Heddesheim",
              "lat": 49.50556,
              "lng": 8.60361
            },
            {
              "name": "Heiligkreuzsteinach",
              "lat": 49.48333,
              "lng": 8.795
            },
            {
              "name": "Hemsbach",
              "lat": 49.59075,
              "lng": 8.64779
            },
            {
              "name": "Hirschberg an der Bergstraße",
              "lat": 49.5071,
              "lng": 8.65693
            },
            {
              "name": "Hockenheim",
              "lat": 49.32334,
              "lng": 8.55194
            },
            {
              "name": "Horrenberg",
              "lat": 49.2804,
              "lng": 8.78087
            },
            {
              "name": "Kronau",
              "lat": 49.2225,
              "lng": 8.63111
            },
            {
              "name": "Ladenburg",
              "lat": 49.47307,
              "lng": 8.60896
            },
            {
              "name": "Laudenbach",
              "lat": 49.61333,
              "lng": 8.65389
            },
            {
              "name": "Leimen",
              "lat": 49.34737,
              "lng": 8.68733
            },
            {
              "name": "Lobbach",
              "lat": 49.37519,
              "lng": 8.88884
            },
            {
              "name": "Malsch",
              "lat": 49.24722,
              "lng": 8.68278
            },
            {
              "name": "Mauer",
              "lat": 49.34083,
              "lng": 8.80028
            },
            {
              "name": "Meckesheim",
              "lat": 49.32167,
              "lng": 8.81944
            },
            {
              "name": "Mühlhausen",
              "lat": 49.24861,
              "lng": 8.72667
            },
            {
              "name": "Neckarbischofsheim",
              "lat": 49.29625,
              "lng": 8.9638
            },
            {
              "name": "Neckargemünd",
              "lat": 49.38899,
              "lng": 8.7959
            },
            {
              "name": "Neidenstein",
              "lat": 49.31667,
              "lng": 8.88472
            },
            {
              "name": "Neunkirchen",
              "lat": 49.38694,
              "lng": 9.01056
            },
            {
              "name": "Nußloch",
              "lat": 49.32389,
              "lng": 8.69556
            },
            {
              "name": "Oftersheim",
              "lat": 49.36528,
              "lng": 8.58306
            },
            {
              "name": "Östringen",
              "lat": 49.21911,
              "lng": 8.71192
            },
            {
              "name": "Plankstadt",
              "lat": 49.39444,
              "lng": 8.59611
            },
            {
              "name": "Rauenberg",
              "lat": 49.26943,
              "lng": 8.70344
            },
            {
              "name": "Reichartshausen",
              "lat": 49.355,
              "lng": 8.94528
            },
            {
              "name": "Reilingen",
              "lat": 49.29833,
              "lng": 8.56417
            },
            {
              "name": "Sandhausen",
              "lat": 49.34278,
              "lng": 8.65917
            },
            {
              "name": "Sankt Leon-Rot",
              "lat": 49.26593,
              "lng": 8.61803
            },
            {
              "name": "Schönau",
              "lat": 49.43665,
              "lng": 8.8088
            },
            {
              "name": "Schriesheim",
              "lat": 49.47372,
              "lng": 8.6636
            },
            {
              "name": "Schwetzingen",
              "lat": 49.38217,
              "lng": 8.5823
            },
            {
              "name": "Sinsheim",
              "lat": 49.2529,
              "lng": 8.87867
            },
            {
              "name": "Spechbach",
              "lat": 49.34639,
              "lng": 8.88333
            },
            {
              "name": "Ubstadt-Weiher",
              "lat": 49.16296,
              "lng": 8.63165
            },
            {
              "name": "Waghäusel",
              "lat": 49.24991,
              "lng": 8.51257
            },
            {
              "name": "Waibstadt",
              "lat": 49.29505,
              "lng": 8.91771
            },
            {
              "name": "Walldorf",
              "lat": 49.30637,
              "lng": 8.64236
            },
            {
              "name": "Weinheim",
              "lat": 49.54887,
              "lng": 8.66697
            },
            {
              "name": "Wiesenbach",
              "lat": 49.36139,
              "lng": 8.80361
            },
            {
              "name": "Wiesloch",
              "lat": 49.29504,
              "lng": 8.69846
            },
            {
              "name": "Wilhelmsfeld",
              "lat": 49.47056,
              "lng": 8.75361
            },
            {
              "name": "Zuzenhausen",
              "lat": 49.29636,
              "lng": 8.82254
            }
          ]
        },
        {
          "name": "Heilbronn",
          "lat": 49.13995,
          "lng": 9.22054,
          "subdistricts": [
            {
              "name": "Abstatt",
              "lat": 49.0682,
              "lng": 9.2907
            },
            {
              "name": "Adelsheim",
              "lat": 49.4015,
              "lng": 9.3925
            },
            {
              "name": "Aspach",
              "lat": 48.96667,
              "lng": 9.4
            },
            {
              "name": "Assamstadt",
              "lat": 49.42806,
              "lng": 9.68611
            },
            {
              "name": "Backnang",
              "lat": 48.94743,
              "lng": 9.43718
            },
            {
              "name": "Bad Mergentheim",
              "lat": 49.4925,
              "lng": 9.77361
            },
            {
              "name": "Bad Rappenau",
              "lat": 49.23848,
              "lng": 9.1018
            },
            {
              "name": "Bad Wimpfen",
              "lat": 49.22971,
              "lng": 9.15648
            },
            {
              "name": "Beilstein",
              "lat": 49.0414,
              "lng": 9.3137
            },
            {
              "name": "Besigheim",
              "lat": 48.99797,
              "lng": 9.14268
            },
            {
              "name": "Billigheim",
              "lat": 49.34861,
              "lng": 9.25389
            },
            {
              "name": "Binau",
              "lat": 49.36833,
              "lng": 9.05806
            },
            {
              "name": "Blaufelden",
              "lat": 49.29778,
              "lng": 9.97389
            },
            {
              "name": "Bönnigheim",
              "lat": 49.04018,
              "lng": 9.09386
            },
            {
              "name": "Boxberg",
              "lat": 49.47965,
              "lng": 9.64006
            },
            {
              "name": "Brackenheim",
              "lat": 49.07787,
              "lng": 9.06601
            },
            {
              "name": "Braunsbach",
              "lat": 49.19917,
              "lng": 9.79056
            },
            {
              "name": "Bretzfeld",
              "lat": 49.17944,
              "lng": 9.43833
            },
            {
              "name": "Buch am Ahorn",
              "lat": 49.53909,
              "lng": 9.5556
            },
            {
              "name": "Buchen im Odenwald",
              "lat": 49.52416,
              "lng": 9.32293
            },
            {
              "name": "Cleebronn",
              "lat": 49.045,
              "lng": 9.03694
            },
            {
              "name": "Creglingen",
              "lat": 49.46937,
              "lng": 10.03119
            },
            {
              "name": "Dörzbach",
              "lat": 49.38355,
              "lng": 9.70732
            },
            {
              "name": "Eberstadt",
              "lat": 49.18028,
              "lng": 9.32111
            },
            {
              "name": "Ellhofen",
              "lat": 49.14667,
              "lng": 9.32194
            },
            {
              "name": "Eppingen",
              "lat": 49.13645,
              "lng": 8.91229
            },
            {
              "name": "Erlenbach",
              "lat": 49.1725,
              "lng": 9.26833
            },
            {
              "name": "Erligheim",
              "lat": 49.0225,
              "lng": 9.09722
            },
            {
              "name": "Fahrenbach",
              "lat": 49.43139,
              "lng": 9.15056
            },
            {
              "name": "Fichtenberg",
              "lat": 48.98601,
              "lng": 9.71199
            },
            {
              "name": "Flein",
              "lat": 49.10306,
              "lng": 9.21083
            },
            {
              "name": "Forchtenberg",
              "lat": 49.28867,
              "lng": 9.56026
            },
            {
              "name": "Freudenberg",
              "lat": 49.75349,
              "lng": 9.32748
            },
            {
              "name": "Freudental",
              "lat": 49.00972,
              "lng": 9.05917
            },
            {
              "name": "Gaildorf",
              "lat": 49.00027,
              "lng": 9.76953
            },
            {
              "name": "Gemmingen",
              "lat": 49.15639,
              "lng": 8.98194
            },
            {
              "name": "Gemmrigheim",
              "lat": 49.02833,
              "lng": 9.15556
            },
            {
              "name": "Großbottwar",
              "lat": 49.00147,
              "lng": 9.29348
            },
            {
              "name": "Großerlach",
              "lat": 49.05368,
              "lng": 9.51356
            },
            {
              "name": "Großrinderfeld",
              "lat": 49.66536,
              "lng": 9.73356
            },
            {
              "name": "Grünsfeld",
              "lat": 49.60949,
              "lng": 9.74725
            },
            {
              "name": "Gschwend",
              "lat": 48.93333,
              "lng": 9.74436
            },
            {
              "name": "Güglingen",
              "lat": 49.06642,
              "lng": 9.00175
            },
            {
              "name": "Gundelsheim",
              "lat": 49.2833,
              "lng": 9.16037
            },
            {
              "name": "Hardheim",
              "lat": 49.61194,
              "lng": 9.47194
            },
            {
              "name": "Haßmersheim",
              "lat": 49.3,
              "lng": 9.15
            },
            {
              "name": "Helmstadt-Bargen",
              "lat": 49.31427,
              "lng": 8.99712
            },
            {
              "name": "Hessigheim",
              "lat": 48.99407,
              "lng": 9.18629
            },
            {
              "name": "Höpfingen",
              "lat": 49.6025,
              "lng": 9.42861
            },
            {
              "name": "Hüffenhardt",
              "lat": 49.29194,
              "lng": 9.08167
            },
            {
              "name": "Igersheim",
              "lat": 49.49444,
              "lng": 9.81694
            },
            {
              "name": "Ilsfeld",
              "lat": 49.05548,
              "lng": 9.24598
            },
            {
              "name": "Ilshofen",
              "lat": 49.17015,
              "lng": 9.91825
            },
            {
              "name": "Ingelfingen",
              "lat": 49.30028,
              "lng": 9.65303
            },
            {
              "name": "Ittlingen",
              "lat": 49.19083,
              "lng": 8.93083
            },
            {
              "name": "Jagsthausen",
              "lat": 49.31056,
              "lng": 9.46833
            },
            {
              "name": "Kaisersbach",
              "lat": 48.93023,
              "lng": 9.63898
            },
            {
              "name": "Kirchardt",
              "lat": 49.205,
              "lng": 8.99167
            },
            {
              "name": "Kirchberg an der Jagst",
              "lat": 49.20056,
              "lng": 9.98226
            },
            {
              "name": "Kirchheim am Neckar",
              "lat": 49.045,
              "lng": 9.14222
            },
            {
              "name": "Königheim",
              "lat": 49.62028,
              "lng": 9.59583
            },
            {
              "name": "Krautheim",
              "lat": 49.38789,
              "lng": 9.63553
            },
            {
              "name": "Külsheim",
              "lat": 49.66942,
              "lng": 9.52361
            },
            {
              "name": "Künzelsau",
              "lat": 49.2818,
              "lng": 9.68352
            },
            {
              "name": "Kupferzell",
              "lat": 49.22778,
              "lng": 9.69
            },
            {
              "name": "Langenbrettach",
              "lat": 49.22601,
              "lng": 9.41842
            },
            {
              "name": "Langenburg",
              "lat": 49.25401,
              "lng": 9.85673
            },
            {
              "name": "Lauda-Königshofen",
              "lat": 49.56526,
              "lng": 9.70816
            },
            {
              "name": "Lauffen am Neckar",
              "lat": 49.0734,
              "lng": 9.14567
            },
            {
              "name": "Lehrensteinsfeld",
              "lat": 49.13111,
              "lng": 9.32722
            },
            {
              "name": "Leingarten",
              "lat": 49.14639,
              "lng": 9.11694
            },
            {
              "name": "Löchgau",
              "lat": 49.00361,
              "lng": 9.10639
            },
            {
              "name": "Löwenstein",
              "lat": 49.09558,
              "lng": 9.38
            },
            {
              "name": "Mainhardt",
              "lat": 49.07611,
              "lng": 9.55639
            },
            {
              "name": "Massenbachhausen",
              "lat": 49.17778,
              "lng": 9.04333
            },
            {
              "name": "Michelbach an der Bilz",
              "lat": 49.07028,
              "lng": 9.7625
            },
            {
              "name": "Michelfeld",
              "lat": 49.0975,
              "lng": 9.67861
            },
            {
              "name": "Mittelschöntal",
              "lat": 48.94615,
              "lng": 9.3952
            },
            {
              "name": "Möckmühl",
              "lat": 49.3249,
              "lng": 9.35837
            },
            {
              "name": "Mosbach",
              "lat": 49.35357,
              "lng": 9.15106
            },
            {
              "name": "Mudau",
              "lat": 49.53444,
              "lng": 9.20444
            },
            {
              "name": "Mulfingen",
              "lat": 49.34028,
              "lng": 9.80083
            },
            {
              "name": "Mundelsheim",
              "lat": 49.00083,
              "lng": 9.20778
            },
            {
              "name": "Murr",
              "lat": 48.96207,
              "lng": 9.25924
            },
            {
              "name": "Murrhardt",
              "lat": 48.98191,
              "lng": 9.57047
            },
            {
              "name": "Neckargerach",
              "lat": 49.4,
              "lng": 9.06667
            },
            {
              "name": "Neckarsulm",
              "lat": 49.18912,
              "lng": 9.22527
            },
            {
              "name": "Neckarwestheim",
              "lat": 49.04694,
              "lng": 9.19
            },
            {
              "name": "Neckarzimmern",
              "lat": 49.31917,
              "lng": 9.13278
            },
            {
              "name": "Neudenau",
              "lat": 49.29181,
              "lng": 9.26975
            },
            {
              "name": "Neuenstadt am Kocher",
              "lat": 49.23498,
              "lng": 9.33215
            },
            {
              "name": "Neuenstein",
              "lat": 49.2049,
              "lng": 9.58
            },
            {
              "name": "Niedernhall",
              "lat": 49.29516,
              "lng": 9.61604
            },
            {
              "name": "Niederstetten",
              "lat": 49.4,
              "lng": 9.91944
            },
            {
              "name": "Nordheim",
              "lat": 49.10861,
              "lng": 9.12778
            },
            {
              "name": "Oberrot",
              "lat": 49.01444,
              "lng": 9.66722
            },
            {
              "name": "Oberstenfeld",
              "lat": 49.02611,
              "lng": 9.32083
            },
            {
              "name": "Obrigheim",
              "lat": 49.35194,
              "lng": 9.09083
            },
            {
              "name": "Oedheim",
              "lat": 49.24028,
              "lng": 9.25333
            },
            {
              "name": "Offenau",
              "lat": 49.24583,
              "lng": 9.16056
            },
            {
              "name": "Öhringen",
              "lat": 49.19884,
              "lng": 9.5072
            },
            {
              "name": "Oppenweiler",
              "lat": 48.9827,
              "lng": 9.4585
            },
            {
              "name": "Osterburken",
              "lat": 49.42997,
              "lng": 9.42252
            },
            {
              "name": "Pfaffenhofen",
              "lat": 49.06444,
              "lng": 8.97639
            },
            {
              "name": "Pfedelbach",
              "lat": 49.17806,
              "lng": 9.505
            },
            {
              "name": "Regierungsbezirk Stuttgart",
              "lat": 49.08333,
              "lng": 9.66667
            },
            {
              "name": "Roigheim",
              "lat": 49.36472,
              "lng": 9.34
            },
            {
              "name": "Rot am See",
              "lat": 49.25,
              "lng": 10.01667
            },
            {
              "name": "Schrozberg",
              "lat": 49.34528,
              "lng": 9.97944
            },
            {
              "name": "Schwäbisch Hall",
              "lat": 49.11127,
              "lng": 9.73908
            },
            {
              "name": "Schwaigern",
              "lat": 49.14494,
              "lng": 9.05525
            },
            {
              "name": "Seckach",
              "lat": 49.44222,
              "lng": 9.33417
            },
            {
              "name": "Siegelsbach",
              "lat": 49.26972,
              "lng": 9.08972
            },
            {
              "name": "Spiegelberg",
              "lat": 49.04083,
              "lng": 9.44444
            },
            {
              "name": "Steinheim am der Murr",
              "lat": 48.96821,
              "lng": 9.27708
            },
            {
              "name": "Sulzbach an der Murr",
              "lat": 49.00303,
              "lng": 9.5003
            },
            {
              "name": "Talheim",
              "lat": 49.08333,
              "lng": 9.19306
            },
            {
              "name": "Tauberbischofsheim",
              "lat": 49.62472,
              "lng": 9.66278
            },
            {
              "name": "Untereisesheim",
              "lat": 49.21111,
              "lng": 9.20194
            },
            {
              "name": "Untergruppenbach",
              "lat": 49.0894,
              "lng": 9.27516
            },
            {
              "name": "Untermünkheim",
              "lat": 49.15255,
              "lng": 9.73384
            },
            {
              "name": "Vellberg",
              "lat": 49.0843,
              "lng": 9.87914
            },
            {
              "name": "Waldenburg",
              "lat": 49.18468,
              "lng": 9.63994
            },
            {
              "name": "Walheim",
              "lat": 49.01417,
              "lng": 9.15111
            },
            {
              "name": "Walldürn",
              "lat": 49.58358,
              "lng": 9.36642
            },
            {
              "name": "Weikersheim",
              "lat": 49.47866,
              "lng": 9.89977
            },
            {
              "name": "Weinsberg",
              "lat": 49.15127,
              "lng": 9.28762
            },
            {
              "name": "Weißbach",
              "lat": 49.29717,
              "lng": 9.59531
            },
            {
              "name": "Werbach",
              "lat": 49.67083,
              "lng": 9.63944
            },
            {
              "name": "Wertheim",
              "lat": 49.759,
              "lng": 9.50852
            },
            {
              "name": "Widdern",
              "lat": 49.31825,
              "lng": 9.42209
            },
            {
              "name": "Wolpertshausen",
              "lat": 49.1675,
              "lng": 9.84472
            },
            {
              "name": "Wüstenrot",
              "lat": 49.08083,
              "lng": 9.46056
            },
            {
              "name": "Zweiflingen",
              "lat": 49.25639,
              "lng": 9.51806
            }
          ]
        },
        {
          "name": "Karlsruhe",
          "lat": 49.00937,
          "lng": 8.40444,
          "subdistricts": [
            {
              "name": "Achern",
              "lat": 48.63115,
              "lng": 8.07607
            },
            {
              "name": "Au am Rhein",
              "lat": 48.95,
              "lng": 8.23333
            },
            {
              "name": "Bad Herrenalb",
              "lat": 48.79787,
              "lng": 8.43617
            },
            {
              "name": "Bad Rippoldsau-Schapbach",
              "lat": 48.42883,
              "lng": 8.32584
            },
            {
              "name": "Baden-Baden",
              "lat": 48.7606,
              "lng": 8.23975
            },
            {
              "name": "Biberach",
              "lat": 48.61008,
              "lng": 8.27704
            },
            {
              "name": "Bietigheim",
              "lat": 48.90919,
              "lng": 8.25202
            },
            {
              "name": "Bischweier",
              "lat": 48.83766,
              "lng": 8.28412
            },
            {
              "name": "Bruchsal",
              "lat": 49.12426,
              "lng": 8.59804
            },
            {
              "name": "Bühl",
              "lat": 48.69676,
              "lng": 8.13523
            },
            {
              "name": "Bühlertal",
              "lat": 48.68569,
              "lng": 8.18876
            },
            {
              "name": "Durmersheim",
              "lat": 48.93333,
              "lng": 8.26667
            },
            {
              "name": "Eggenstein-Leopoldshafen",
              "lat": 49.09006,
              "lng": 8.39879
            },
            {
              "name": "Ettlingen",
              "lat": 48.94094,
              "lng": 8.40763
            },
            {
              "name": "Forbach",
              "lat": 48.68333,
              "lng": 8.35
            },
            {
              "name": "Forst",
              "lat": 49.15861,
              "lng": 8.58083
            },
            {
              "name": "Gaggenau",
              "lat": 48.8,
              "lng": 8.33333
            },
            {
              "name": "Gernsbach",
              "lat": 48.77034,
              "lng": 8.34306
            },
            {
              "name": "Graben-Neudorf",
              "lat": 49.16695,
              "lng": 8.49243
            },
            {
              "name": "Greffern",
              "lat": 48.75205,
              "lng": 8.00515
            },
            {
              "name": "Hambrücken",
              "lat": 49.19,
              "lng": 8.54056
            },
            {
              "name": "Haslach",
              "lat": 48.56531,
              "lng": 8.05658
            },
            {
              "name": "Hügelsheim",
              "lat": 48.8,
              "lng": 8.11667
            },
            {
              "name": "Iffezheim",
              "lat": 48.82167,
              "lng": 8.1431
            },
            {
              "name": "Jöhlingen",
              "lat": 49.03218,
              "lng": 8.5735
            },
            {
              "name": "Kappelrodeck",
              "lat": 48.59182,
              "lng": 8.11692
            },
            {
              "name": "Karlsdorf-Neuthard",
              "lat": 49.13472,
              "lng": 8.53028
            },
            {
              "name": "Kuppenheim",
              "lat": 48.82794,
              "lng": 8.25417
            },
            {
              "name": "Lauf",
              "lat": 48.65,
              "lng": 8.13333
            },
            {
              "name": "Lichtenau",
              "lat": 48.72607,
              "lng": 8.00486
            },
            {
              "name": "Linkenheim-Hochstetten",
              "lat": 49.13197,
              "lng": 8.41244
            },
            {
              "name": "Loffenau",
              "lat": 48.77214,
              "lng": 8.38463
            },
            {
              "name": "Muggensturm",
              "lat": 48.86667,
              "lng": 8.28333
            },
            {
              "name": "Oberkirch",
              "lat": 48.53241,
              "lng": 8.07864
            },
            {
              "name": "Ötigheim",
              "lat": 48.89085,
              "lng": 8.23442
            },
            {
              "name": "Ottenhofen",
              "lat": 48.7356,
              "lng": 8.12981
            },
            {
              "name": "Ottersweier",
              "lat": 48.67022,
              "lng": 8.11323
            },
            {
              "name": "Philippsburg",
              "lat": 49.2317,
              "lng": 8.46074
            },
            {
              "name": "Rastatt",
              "lat": 48.85851,
              "lng": 8.20965
            },
            {
              "name": "Renchen",
              "lat": 48.5885,
              "lng": 8.01321
            },
            {
              "name": "Rheinau",
              "lat": 48.66602,
              "lng": 7.93659
            },
            {
              "name": "Rheinstetten",
              "lat": 48.9685,
              "lng": 8.30704
            },
            {
              "name": "Sasbach",
              "lat": 48.63971,
              "lng": 8.09375
            },
            {
              "name": "Sasbachwalden",
              "lat": 48.61667,
              "lng": 8.13333
            },
            {
              "name": "Schwarzach",
              "lat": 48.74738,
              "lng": 8.03738
            },
            {
              "name": "Seebach",
              "lat": 48.57621,
              "lng": 8.17048
            },
            {
              "name": "Sinzheim",
              "lat": 48.76667,
              "lng": 8.16667
            },
            {
              "name": "Steinmauern",
              "lat": 48.90095,
              "lng": 8.19692
            },
            {
              "name": "Weingarten",
              "lat": 49.05457,
              "lng": 8.52678
            },
            {
              "name": "Weisenbach",
              "lat": 48.72757,
              "lng": 8.35378
            },
            {
              "name": "Zell",
              "lat": 48.69235,
              "lng": 8.06301
            }
          ]
        },
        {
          "name": "Mannheim",
          "lat": 49.4891,
          "lng": 8.46694,
          "subdistricts": [
            {
              "name": "Altlußheim",
              "lat": 49.30167,
              "lng": 8.49917
            },
            {
              "name": "Brühl",
              "lat": 49.39722,
              "lng": 8.53361
            },
            {
              "name": "Ilvesheim",
              "lat": 49.47404,
              "lng": 8.5674
            },
            {
              "name": "Ketsch",
              "lat": 49.36778,
              "lng": 8.53111
            },
            {
              "name": "Neulußheim",
              "lat": 49.29806,
              "lng": 8.51833
            },
            {
              "name": "Oberhausen-Rheinhausen",
              "lat": 49.27389,
              "lng": 8.47167
            }
          ]
        },
        {
          "name": "Pforzheim",
          "lat": 48.88436,
          "lng": 8.69892,
          "subdistricts": [
            {
              "name": "Aidlingen",
              "lat": 48.67849,
              "lng": 8.89524
            },
            {
              "name": "Alpirsbach",
              "lat": 48.34507,
              "lng": 8.40197
            },
            {
              "name": "Altensteig",
              "lat": 48.58649,
              "lng": 8.60395
            },
            {
              "name": "Althengstett",
              "lat": 48.72325,
              "lng": 8.79434
            },
            {
              "name": "Bad Liebenzell",
              "lat": 48.77427,
              "lng": 8.72971
            },
            {
              "name": "Bad Teinach-Zavelstein",
              "lat": 48.69051,
              "lng": 8.69285
            },
            {
              "name": "Bad Wildbad",
              "lat": 48.75071,
              "lng": 8.5504
            },
            {
              "name": "Baiersbronn",
              "lat": 48.50318,
              "lng": 8.37699
            },
            {
              "name": "Birkenfeld",
              "lat": 48.86667,
              "lng": 8.63333
            },
            {
              "name": "Bösingen",
              "lat": 48.23333,
              "lng": 8.55
            },
            {
              "name": "Bretten",
              "lat": 49.03685,
              "lng": 8.70745
            },
            {
              "name": "Calw",
              "lat": 48.71419,
              "lng": 8.74031
            },
            {
              "name": "Deckenpfronn",
              "lat": 48.65128,
              "lng": 8.82417
            },
            {
              "name": "Dobel",
              "lat": 48.8,
              "lng": 8.5
            },
            {
              "name": "Dornhan",
              "lat": 48.35008,
              "lng": 8.50901
            },
            {
              "name": "Dornstetten",
              "lat": 48.47198,
              "lng": 8.49817
            },
            {
              "name": "Ebhausen",
              "lat": 48.58333,
              "lng": 8.68333
            },
            {
              "name": "Egenhausen",
              "lat": 48.56667,
              "lng": 8.61667
            },
            {
              "name": "Eisingen",
              "lat": 48.95,
              "lng": 8.66667
            },
            {
              "name": "Empfingen",
              "lat": 48.39258,
              "lng": 8.71036
            },
            {
              "name": "Engelsbrand",
              "lat": 48.83333,
              "lng": 8.65
            },
            {
              "name": "Enzklösterle",
              "lat": 48.66638,
              "lng": 8.47083
            },
            {
              "name": "Epfendorf",
              "lat": 48.25,
              "lng": 8.6
            },
            {
              "name": "Eutingen an der Enz",
              "lat": 48.91246,
              "lng": 8.74898
            },
            {
              "name": "Freudenstadt",
              "lat": 48.46695,
              "lng": 8.41371
            },
            {
              "name": "Friolzheim",
              "lat": 48.83333,
              "lng": 8.83333
            },
            {
              "name": "Gechingen",
              "lat": 48.69527,
              "lng": 8.82915
            },
            {
              "name": "Glatten",
              "lat": 48.44246,
              "lng": 8.51116
            },
            {
              "name": "Gondelsheim",
              "lat": 49.05917,
              "lng": 8.65833
            },
            {
              "name": "Grafenau",
              "lat": 48.71427,
              "lng": 8.91219
            },
            {
              "name": "Haiterbach",
              "lat": 48.52066,
              "lng": 8.64435
            },
            {
              "name": "Heimsheim",
              "lat": 48.80656,
              "lng": 8.86744
            },
            {
              "name": "Herrenberg",
              "lat": 48.59523,
              "lng": 8.86648
            },
            {
              "name": "Höfen an der Enz",
              "lat": 48.8,
              "lng": 8.58333
            },
            {
              "name": "Horb am Neckar",
              "lat": 48.44423,
              "lng": 8.6913
            },
            {
              "name": "Illingen",
              "lat": 48.95616,
              "lng": 8.92459
            },
            {
              "name": "Ispringen",
              "lat": 48.91667,
              "lng": 8.66667
            },
            {
              "name": "Karlsruhe Region",
              "lat": 49,
              "lng": 8.66667
            },
            {
              "name": "Kieselbronn",
              "lat": 48.93333,
              "lng": 8.75
            },
            {
              "name": "Knittlingen",
              "lat": 49.02487,
              "lng": 8.75606
            },
            {
              "name": "Königsbach-Stein",
              "lat": 48.96585,
              "lng": 8.60573
            },
            {
              "name": "Kraichtal",
              "lat": 49.14623,
              "lng": 8.73276
            },
            {
              "name": "Kürnbach",
              "lat": 49.0775,
              "lng": 8.84556
            },
            {
              "name": "Loßburg",
              "lat": 48.4,
              "lng": 8.45
            },
            {
              "name": "Maulbronn",
              "lat": 48.99958,
              "lng": 8.80337
            },
            {
              "name": "Mönsheim",
              "lat": 48.86667,
              "lng": 8.86667
            },
            {
              "name": "Mötzingen",
              "lat": 48.5332,
              "lng": 8.77447
            },
            {
              "name": "Mühlacker",
              "lat": 48.94754,
              "lng": 8.83675
            },
            {
              "name": "Mühlheim am Bach",
              "lat": 48.37863,
              "lng": 8.69735
            },
            {
              "name": "Nagold",
              "lat": 48.5498,
              "lng": 8.72366
            },
            {
              "name": "Neubulach",
              "lat": 48.66092,
              "lng": 8.69611
            },
            {
              "name": "Neuenbürg",
              "lat": 48.84516,
              "lng": 8.59574
            },
            {
              "name": "Neuhausen",
              "lat": 48.7926,
              "lng": 8.77649
            },
            {
              "name": "Neulingen",
              "lat": 48.9591267,
              "lng": 8.6285737
            },
            {
              "name": "Neuweiler",
              "lat": 48.66667,
              "lng": 8.6
            },
            {
              "name": "Niefern-Öschelbronn",
              "lat": 48.91667,
              "lng": 8.78333
            },
            {
              "name": "Nufringen",
              "lat": 48.62253,
              "lng": 8.89009
            },
            {
              "name": "Oberderdingen",
              "lat": 49.06556,
              "lng": 8.80306
            },
            {
              "name": "Oberjettingen",
              "lat": 48.57468,
              "lng": 8.77636
            },
            {
              "name": "Oberndorf",
              "lat": 48.2905,
              "lng": 8.57221
            },
            {
              "name": "Oberreichenbach",
              "lat": 48.73333,
              "lng": 8.66667
            },
            {
              "name": "Ölbronn-Dürrn",
              "lat": 48.96667,
              "lng": 8.75
            },
            {
              "name": "Ostelsheim",
              "lat": 48.72633,
              "lng": 8.84816
            },
            {
              "name": "Ötisheim",
              "lat": 48.96667,
              "lng": 8.8
            },
            {
              "name": "Pfalzgrafenweiler",
              "lat": 48.5265,
              "lng": 8.56582
            },
            {
              "name": "Rohrdorf",
              "lat": 48.56667,
              "lng": 8.7
            },
            {
              "name": "Schömberg",
              "lat": 48.78713,
              "lng": 8.64495
            },
            {
              "name": "Schopfloch",
              "lat": 48.45477,
              "lng": 8.55131
            },
            {
              "name": "Seedorf",
              "lat": 48.24908,
              "lng": 8.48993
            },
            {
              "name": "Simmersfeld",
              "lat": 48.61667,
              "lng": 8.51667
            },
            {
              "name": "Simmozheim",
              "lat": 48.75127,
              "lng": 8.81142
            },
            {
              "name": "Sternenfels",
              "lat": 49.05139,
              "lng": 8.85083
            },
            {
              "name": "Sulz am Neckar",
              "lat": 48.36241,
              "lng": 8.63309
            },
            {
              "name": "Sulzfeld",
              "lat": 49.10472,
              "lng": 8.85583
            },
            {
              "name": "Tiefenbronn",
              "lat": 48.82398,
              "lng": 8.80129
            },
            {
              "name": "Unterjettingen",
              "lat": 48.5623,
              "lng": 8.78445
            },
            {
              "name": "Unterreichenbach",
              "lat": 48.82496,
              "lng": 8.70885
            },
            {
              "name": "Vöhringen",
              "lat": 48.33446,
              "lng": 8.66392
            },
            {
              "name": "Weil der Stadt",
              "lat": 48.74953,
              "lng": 8.87176
            },
            {
              "name": "Weissach",
              "lat": 48.84687,
              "lng": 8.92828
            },
            {
              "name": "Wiernsheim",
              "lat": 48.88333,
              "lng": 8.85
            },
            {
              "name": "Wildberg",
              "lat": 48.62336,
              "lng": 8.74518
            },
            {
              "name": "Wimsheim",
              "lat": 48.85,
              "lng": 8.83333
            },
            {
              "name": "Wössingen",
              "lat": 49.01205,
              "lng": 8.60754
            },
            {
              "name": "Wurmberg",
              "lat": 48.86667,
              "lng": 8.81667
            },
            {
              "name": "Zaberfeld",
              "lat": 49.05611,
              "lng": 8.92694
            },
            {
              "name": "Zaisenhausen",
              "lat": 49.10667,
              "lng": 8.81278
            }
          ]
        },
        {
          "name": "Reutlingen",
          "lat": 48.49144,
          "lng": 9.20427,
          "subdistricts": [
            {
              "name": "Aach",
              "lat": 47.8424,
              "lng": 8.85384
            },
            {
              "name": "Aichelberg",
              "lat": 48.63557,
              "lng": 9.56373
            },
            {
              "name": "Albstadt",
              "lat": 48.21644,
              "lng": 9.02596
            },
            {
              "name": "Aldingen",
              "lat": 48.1,
              "lng": 8.7
            },
            {
              "name": "Allensbach",
              "lat": 47.71536,
              "lng": 9.07145
            },
            {
              "name": "Altenriet",
              "lat": 48.5914,
              "lng": 9.22186
            },
            {
              "name": "Altes Lager",
              "lat": 48.41755,
              "lng": 9.53606
            },
            {
              "name": "Altshausen",
              "lat": 47.93333,
              "lng": 9.53333
            },
            {
              "name": "Bad Urach",
              "lat": 48.49107,
              "lng": 9.40009
            },
            {
              "name": "Balingen",
              "lat": 48.27525,
              "lng": 8.85464
            },
            {
              "name": "Bempflingen",
              "lat": 48.57178,
              "lng": 9.26834
            },
            {
              "name": "Bermatingen",
              "lat": 47.73333,
              "lng": 9.35
            },
            {
              "name": "Beuren",
              "lat": 48.56927,
              "lng": 9.40406
            },
            {
              "name": "Bingen",
              "lat": 48.11127,
              "lng": 9.27238
            },
            {
              "name": "Bisingen",
              "lat": 48.31012,
              "lng": 8.91738
            },
            {
              "name": "Bissingen an der Teck",
              "lat": 48.59915,
              "lng": 9.49146
            },
            {
              "name": "Bitz",
              "lat": 48.244,
              "lng": 9.09144
            },
            {
              "name": "Bodelshausen",
              "lat": 48.38886,
              "lng": 8.97703
            },
            {
              "name": "Bodman-Ludwigshafen",
              "lat": 47.81817,
              "lng": 9.0554
            },
            {
              "name": "Boll",
              "lat": 48.64357,
              "lng": 9.61295
            },
            {
              "name": "Bondorf",
              "lat": 48.52064,
              "lng": 8.83704
            },
            {
              "name": "Böttingen",
              "lat": 48.1,
              "lng": 8.8
            },
            {
              "name": "Bubsheim",
              "lat": 48.11667,
              "lng": 8.83333
            },
            {
              "name": "Burladingen",
              "lat": 48.29111,
              "lng": 9.11286
            },
            {
              "name": "Daisendorf",
              "lat": 47.71265,
              "lng": 9.26783
            },
            {
              "name": "Deilingen",
              "lat": 48.1741,
              "lng": 8.78533
            },
            {
              "name": "Deißlingen",
              "lat": 48.1123,
              "lng": 8.60736
            },
            {
              "name": "Denkingen",
              "lat": 48.1111,
              "lng": 8.7382
            },
            {
              "name": "Dettenhausen",
              "lat": 48.60758,
              "lng": 9.10041
            },
            {
              "name": "Dettingen an der Erms",
              "lat": 48.53077,
              "lng": 9.34458
            },
            {
              "name": "Dettingen unter Teck",
              "lat": 48.61667,
              "lng": 9.45
            },
            {
              "name": "Dietingen",
              "lat": 48.2048,
              "lng": 8.64864
            },
            {
              "name": "Dormettingen",
              "lat": 48.23688,
              "lng": 8.77327
            },
            {
              "name": "Dotternhausen",
              "lat": 48.22848,
              "lng": 8.79228
            },
            {
              "name": "Dürbheim",
              "lat": 48.05623,
              "lng": 8.79344
            },
            {
              "name": "Dürmentingen",
              "lat": 48.11667,
              "lng": 9.53333
            },
            {
              "name": "Dußlingen",
              "lat": 48.45357,
              "lng": 9.05552
            },
            {
              "name": "Ebenweiler",
              "lat": 47.9,
              "lng": 9.51667
            },
            {
              "name": "Eigeltingen",
              "lat": 47.85802,
              "lng": 8.89784
            },
            {
              "name": "Emmingen-Liptingen",
              "lat": 47.93333,
              "lng": 8.88333
            },
            {
              "name": "Engen",
              "lat": 47.85534,
              "lng": 8.77342
            },
            {
              "name": "Eningen unter Achalm",
              "lat": 48.48686,
              "lng": 9.25946
            },
            {
              "name": "Ennetach",
              "lat": 48.05238,
              "lng": 9.3201
            },
            {
              "name": "Erkenbrechtsweiler",
              "lat": 48.55656,
              "lng": 9.43211
            },
            {
              "name": "Ertingen",
              "lat": 48.1,
              "lng": 9.46667
            },
            {
              "name": "Frickenhausen",
              "lat": 48.59353,
              "lng": 9.36005
            },
            {
              "name": "Frickingen",
              "lat": 47.81438,
              "lng": 9.27349
            },
            {
              "name": "Fridingen an der Donau",
              "lat": 48.01955,
              "lng": 8.92322
            },
            {
              "name": "Friedrichshafen",
              "lat": 47.65689,
              "lng": 9.47554
            },
            {
              "name": "Frittlingen",
              "lat": 48.12709,
              "lng": 8.70774
            },
            {
              "name": "Fürstenberg",
              "lat": 47.67895,
              "lng": 9.15535
            },
            {
              "name": "Gaienhofen",
              "lat": 47.68333,
              "lng": 8.98333
            },
            {
              "name": "Gailingen",
              "lat": 47.69711,
              "lng": 8.75567
            },
            {
              "name": "Gammertingen",
              "lat": 48.2524,
              "lng": 9.22349
            },
            {
              "name": "Geisingen",
              "lat": 47.92504,
              "lng": 8.65002
            },
            {
              "name": "Geislingen",
              "lat": 48.28768,
              "lng": 8.81241
            },
            {
              "name": "Gomadingen",
              "lat": 48.3998,
              "lng": 9.39065
            },
            {
              "name": "Gomaringen",
              "lat": 48.45349,
              "lng": 9.09582
            },
            {
              "name": "Gosheim",
              "lat": 48.1343,
              "lng": 8.75426
            },
            {
              "name": "Gottmadingen",
              "lat": 47.73511,
              "lng": 8.77687
            },
            {
              "name": "Grabenstetten",
              "lat": 48.52397,
              "lng": 9.46155
            },
            {
              "name": "Großbettlingen",
              "lat": 48.59052,
              "lng": 9.30782
            },
            {
              "name": "Grosselfingen",
              "lat": 48.33229,
              "lng": 8.88704
            },
            {
              "name": "Hagnau",
              "lat": 47.67666,
              "lng": 9.31787
            },
            {
              "name": "Haigerloch",
              "lat": 48.36614,
              "lng": 8.80357
            },
            {
              "name": "Hattenhofen",
              "lat": 48.66648,
              "lng": 9.57456
            },
            {
              "name": "Hayingen",
              "lat": 48.27531,
              "lng": 9.4776
            },
            {
              "name": "Hechingen",
              "lat": 48.35149,
              "lng": 8.96317
            },
            {
              "name": "Heiligenberg",
              "lat": 47.82094,
              "lng": 9.3128
            },
            {
              "name": "Herbertingen",
              "lat": 48.06667,
              "lng": 9.43333
            },
            {
              "name": "Herdwangen-Schönach",
              "lat": 47.85,
              "lng": 9.2
            },
            {
              "name": "Hettingen",
              "lat": 48.21601,
              "lng": 9.23169
            },
            {
              "name": "Hilzingen",
              "lat": 47.76667,
              "lng": 8.78333
            },
            {
              "name": "Hirrlingen",
              "lat": 48.41245,
              "lng": 8.88742
            },
            {
              "name": "Holzmaden",
              "lat": 48.63333,
              "lng": 9.51667
            },
            {
              "name": "Horgenzell",
              "lat": 47.80534,
              "lng": 9.49727
            },
            {
              "name": "Hülben",
              "lat": 48.51982,
              "lng": 9.4079
            },
            {
              "name": "Illmensee",
              "lat": 47.86229,
              "lng": 9.37235
            },
            {
              "name": "Immendingen",
              "lat": 47.93333,
              "lng": 8.73333
            },
            {
              "name": "Immenstaad am Bodensee",
              "lat": 47.66667,
              "lng": 9.36667
            },
            {
              "name": "Inzigkofen",
              "lat": 48.07034,
              "lng": 9.17998
            },
            {
              "name": "Jungingen",
              "lat": 48.32787,
              "lng": 9.04095
            },
            {
              "name": "Kirchentellinsfurt",
              "lat": 48.53315,
              "lng": 9.14732
            },
            {
              "name": "Kirchheim unter Teck",
              "lat": 48.64683,
              "lng": 9.45378
            },
            {
              "name": "Kohlberg",
              "lat": 48.55845,
              "lng": 9.33576
            },
            {
              "name": "Kolbingen",
              "lat": 48.05227,
              "lng": 8.88957
            },
            {
              "name": "Konstanz",
              "lat": 47.66033,
              "lng": 9.17582
            },
            {
              "name": "Krauchenwies",
              "lat": 48.01651,
              "lng": 9.24757
            },
            {
              "name": "Kusterdingen",
              "lat": 48.52291,
              "lng": 9.11977
            },
            {
              "name": "Langenenslingen",
              "lat": 48.14851,
              "lng": 9.37765
            },
            {
              "name": "Leibertingen",
              "lat": 48.04263,
              "lng": 9.01308
            },
            {
              "name": "Lenningen",
              "lat": 48.55048,
              "lng": 9.47674
            },
            {
              "name": "Markdorf",
              "lat": 47.71916,
              "lng": 9.39028
            },
            {
              "name": "Meersburg",
              "lat": 47.69419,
              "lng": 9.27113
            },
            {
              "name": "Mehrstetten",
              "lat": 48.37609,
              "lng": 9.566
            },
            {
              "name": "Mengen",
              "lat": 48.04951,
              "lng": 9.33005
            },
            {
              "name": "Meßkirch",
              "lat": 47.99457,
              "lng": 9.11479
            },
            {
              "name": "Meßstetten",
              "lat": 48.18317,
              "lng": 8.96565
            },
            {
              "name": "Metzingen",
              "lat": 48.53695,
              "lng": 9.2833
            },
            {
              "name": "Moos",
              "lat": 47.72439,
              "lng": 8.93479
            },
            {
              "name": "Mössingen",
              "lat": 48.40567,
              "lng": 9.05419
            },
            {
              "name": "Mühlhausen-Ehingen",
              "lat": 47.81102,
              "lng": 8.81224
            },
            {
              "name": "Mühlingen",
              "lat": 47.91667,
              "lng": 9.01667
            },
            {
              "name": "Münsingen",
              "lat": 48.41126,
              "lng": 9.49704
            },
            {
              "name": "Neckartailfingen",
              "lat": 48.61172,
              "lng": 9.26371
            },
            {
              "name": "Neckartenzlingen",
              "lat": 48.58981,
              "lng": 9.23478
            },
            {
              "name": "Nehren",
              "lat": 48.43097,
              "lng": 9.0699
            },
            {
              "name": "Neidlingen",
              "lat": 48.57865,
              "lng": 9.56454
            },
            {
              "name": "Neuffen",
              "lat": 48.5546,
              "lng": 9.3755
            },
            {
              "name": "Neufra",
              "lat": 48.1288,
              "lng": 9.47554
            },
            {
              "name": "Nürtingen",
              "lat": 48.62565,
              "lng": 9.34203
            },
            {
              "name": "Oberboihingen",
              "lat": 48.65,
              "lng": 9.36667
            },
            {
              "name": "Obermarchtal",
              "lat": 48.23279,
              "lng": 9.57235
            },
            {
              "name": "Obernheim",
              "lat": 48.16297,
              "lng": 8.86113
            },
            {
              "name": "Oberteuringen",
              "lat": 47.72409,
              "lng": 9.46979
            },
            {
              "name": "Ofterdingen",
              "lat": 48.41667,
              "lng": 9.03333
            },
            {
              "name": "Ohmden",
              "lat": 48.64599,
              "lng": 9.52698
            },
            {
              "name": "Öhningen",
              "lat": 47.66186,
              "lng": 8.88674
            },
            {
              "name": "Orsingen-Nenzingen",
              "lat": 47.84272,
              "lng": 8.95909
            },
            {
              "name": "Ostrach",
              "lat": 47.95,
              "lng": 9.38333
            },
            {
              "name": "Owen",
              "lat": 48.58742,
              "lng": 9.44978
            },
            {
              "name": "Owingen",
              "lat": 47.80967,
              "lng": 9.17173
            },
            {
              "name": "Pfronstetten",
              "lat": 48.27641,
              "lng": 9.35995
            },
            {
              "name": "Pfullendorf",
              "lat": 47.9261,
              "lng": 9.2578
            },
            {
              "name": "Pfullingen",
              "lat": 48.46458,
              "lng": 9.22796
            },
            {
              "name": "Pliezhausen",
              "lat": 48.55934,
              "lng": 9.20749
            },
            {
              "name": "Radolfzell",
              "lat": 47.74194,
              "lng": 8.97098
            },
            {
              "name": "Rangendingen",
              "lat": 48.38168,
              "lng": 8.8894
            },
            {
              "name": "Reichenau",
              "lat": 47.68885,
              "lng": 9.06355
            },
            {
              "name": "Riederich",
              "lat": 48.56029,
              "lng": 9.26883
            },
            {
              "name": "Riedlingen",
              "lat": 48.15455,
              "lng": 9.47558
            },
            {
              "name": "Rielasingen-Worblingen",
              "lat": 47.73465,
              "lng": 8.84013
            },
            {
              "name": "Rietheim-Weilheim",
              "lat": 48.01667,
              "lng": 8.76667
            },
            {
              "name": "Rosenfeld",
              "lat": 48.28639,
              "lng": 8.72357
            },
            {
              "name": "Rot",
              "lat": 47.92278,
              "lng": 9.10485
            },
            {
              "name": "Rottenburg",
              "lat": 48.47629,
              "lng": 8.93528
            },
            {
              "name": "Rottweil",
              "lat": 48.16783,
              "lng": 8.62719
            },
            {
              "name": "Salem",
              "lat": 47.76258,
              "lng": 9.29031
            },
            {
              "name": "Sankt Johann",
              "lat": 48.45397,
              "lng": 9.34396
            },
            {
              "name": "Sauldorf",
              "lat": 47.94371,
              "lng": 9.10833
            },
            {
              "name": "Saulgau",
              "lat": 48.01676,
              "lng": 9.50064
            },
            {
              "name": "Scheer",
              "lat": 48.07292,
              "lng": 9.29486
            },
            {
              "name": "Schlaitdorf",
              "lat": 48.60431,
              "lng": 9.22268
            },
            {
              "name": "Schwenningen",
              "lat": 48.1,
              "lng": 9
            },
            {
              "name": "Seitingen-Oberflacht",
              "lat": 48.01667,
              "lng": 8.71667
            },
            {
              "name": "Sickenhausen",
              "lat": 48.53252,
              "lng": 9.18114
            },
            {
              "name": "Sigmaringen",
              "lat": 48.08829,
              "lng": 9.23033
            },
            {
              "name": "Sigmaringendorf",
              "lat": 48.06586,
              "lng": 9.26208
            },
            {
              "name": "Singen",
              "lat": 47.75935,
              "lng": 8.8403
            },
            {
              "name": "Sipplingen",
              "lat": 47.79678,
              "lng": 9.09737
            },
            {
              "name": "Spaichingen",
              "lat": 48.07477,
              "lng": 8.73508
            },
            {
              "name": "Steißlingen",
              "lat": 47.8,
              "lng": 8.93333
            },
            {
              "name": "Stetten am Kalten Markt",
              "lat": 48.12419,
              "lng": 9.07775
            },
            {
              "name": "Stockach",
              "lat": 47.85105,
              "lng": 9.0091
            },
            {
              "name": "Straßberg",
              "lat": 48.17805,
              "lng": 9.09059
            },
            {
              "name": "Trochtelfingen",
              "lat": 48.30843,
              "lng": 9.24491
            },
            {
              "name": "Trossingen",
              "lat": 48.07667,
              "lng": 8.64409
            },
            {
              "name": "Tübingen",
              "lat": 48.52266,
              "lng": 9.05222
            },
            {
              "name": "Tübingen Region",
              "lat": 48.16667,
              "lng": 9.5
            },
            {
              "name": "Tuttlingen",
              "lat": 47.98464,
              "lng": 8.8177
            },
            {
              "name": "Überlingen",
              "lat": 47.76977,
              "lng": 9.17136
            },
            {
              "name": "Uhldingen-Mühlhofen",
              "lat": 47.73333,
              "lng": 9.25
            },
            {
              "name": "Unlingen",
              "lat": 48.16734,
              "lng": 9.52219
            },
            {
              "name": "Unterhausen",
              "lat": 48.4298,
              "lng": 9.25504
            },
            {
              "name": "Veringenstadt",
              "lat": 48.18515,
              "lng": 9.21079
            },
            {
              "name": "Villingendorf",
              "lat": 48.2,
              "lng": 8.58333
            },
            {
              "name": "Volkertshausen",
              "lat": 47.81667,
              "lng": 8.86667
            },
            {
              "name": "Wald",
              "lat": 47.93333,
              "lng": 9.16667
            },
            {
              "name": "Wannweil",
              "lat": 48.51667,
              "lng": 9.15
            },
            {
              "name": "Wehingen",
              "lat": 48.14533,
              "lng": 8.79151
            },
            {
              "name": "Weil im Schönbuch",
              "lat": 48.6227,
              "lng": 9.06355
            },
            {
              "name": "Weilheim an der Teck",
              "lat": 48.61572,
              "lng": 9.53751
            },
            {
              "name": "Wellendingen",
              "lat": 48.14745,
              "lng": 8.70375
            },
            {
              "name": "Wilhelmsdorf",
              "lat": 47.86612,
              "lng": 9.42621
            },
            {
              "name": "Winterlingen",
              "lat": 48.18333,
              "lng": 9.11667
            },
            {
              "name": "Wurmlingen",
              "lat": 48,
              "lng": 8.78333
            },
            {
              "name": "Zell unter Aichelberg",
              "lat": 48.64882,
              "lng": 9.57137
            },
            {
              "name": "Zimmern ob Rottweil",
              "lat": 48.1666,
              "lng": 8.59436
            },
            {
              "name": "Zwiefalten",
              "lat": 48.23396,
              "lng": 9.46232
            }
          ]
        },
        {
          "name": "Stuttgart",
          "lat": 48.78232,
          "lng": 9.17702,
          "subdistricts": [
            {
              "name": "Adelberg",
              "lat": 48.76227,
              "lng": 9.59991
            },
            {
              "name": "Affalterbach",
              "lat": 48.92267,
              "lng": 9.32362
            },
            {
              "name": "Albershausen",
              "lat": 48.69136,
              "lng": 9.56493
            },
            {
              "name": "Allmersbach im Tal",
              "lat": 48.90659,
              "lng": 9.46815
            },
            {
              "name": "Altbach",
              "lat": 48.72268,
              "lng": 9.38078
            },
            {
              "name": "Altdorf",
              "lat": 48.63112,
              "lng": 8.99626
            },
            {
              "name": "Althütte",
              "lat": 48.91565,
              "lng": 9.56984
            },
            {
              "name": "Asperg",
              "lat": 48.90525,
              "lng": 9.13502
            },
            {
              "name": "Baltmannsweiler",
              "lat": 48.74215,
              "lng": 9.4494
            },
            {
              "name": "Benningen am Neckar",
              "lat": 48.94672,
              "lng": 9.24212
            },
            {
              "name": "Bietigheim-Bissingen",
              "lat": 48.94407,
              "lng": 9.11755
            },
            {
              "name": "Böblingen",
              "lat": 48.68212,
              "lng": 9.01171
            },
            {
              "name": "Börtlingen",
              "lat": 48.75376,
              "lng": 9.63181
            },
            {
              "name": "Burgstetten",
              "lat": 48.92805,
              "lng": 9.37239
            },
            {
              "name": "Deizisau",
              "lat": 48.7122,
              "lng": 9.3861
            },
            {
              "name": "Denkendorf",
              "lat": 48.69555,
              "lng": 9.31675
            },
            {
              "name": "Ditzingen",
              "lat": 48.82672,
              "lng": 9.06703
            },
            {
              "name": "Eberdingen",
              "lat": 48.87942,
              "lng": 8.96502
            },
            {
              "name": "Ebersbach an der Fils",
              "lat": 48.716,
              "lng": 9.5236
            },
            {
              "name": "Ehningen",
              "lat": 48.65882,
              "lng": 8.94124
            },
            {
              "name": "Erdmannhausen",
              "lat": 48.94256,
              "lng": 9.29615
            },
            {
              "name": "Esslingen",
              "lat": 48.73961,
              "lng": 9.30473
            },
            {
              "name": "Fellbach",
              "lat": 48.80912,
              "lng": 9.27697
            },
            {
              "name": "Filderstadt",
              "lat": 48.65698,
              "lng": 9.22049
            },
            {
              "name": "Freiberg am Neckar",
              "lat": 48.93196,
              "lng": 9.2024
            },
            {
              "name": "Gärtringen",
              "lat": 48.64176,
              "lng": 8.90073
            },
            {
              "name": "Gerlingen",
              "lat": 48.79954,
              "lng": 9.06316
            },
            {
              "name": "Hemmingen",
              "lat": 48.86667,
              "lng": 9.03333
            },
            {
              "name": "Hildrizhausen",
              "lat": 48.62423,
              "lng": 8.96605
            },
            {
              "name": "Holzgerlingen",
              "lat": 48.63969,
              "lng": 9.01149
            },
            {
              "name": "Kirchberg an der Murr",
              "lat": 48.94297,
              "lng": 9.34083
            },
            {
              "name": "Köngen",
              "lat": 48.68333,
              "lng": 9.36667
            },
            {
              "name": "Korb",
              "lat": 48.84303,
              "lng": 9.36258
            },
            {
              "name": "Korntal",
              "lat": 48.83218,
              "lng": 9.1214
            },
            {
              "name": "Kornwestheim",
              "lat": 48.86158,
              "lng": 9.18569
            },
            {
              "name": "Leinfelden-Echterdingen",
              "lat": 48.69406,
              "lng": 9.16809
            },
            {
              "name": "Leonberg",
              "lat": 48.8,
              "lng": 9.01667
            },
            {
              "name": "Leutenbach",
              "lat": 48.88791,
              "lng": 9.39267
            },
            {
              "name": "Ludwigsburg",
              "lat": 48.89731,
              "lng": 9.19161
            },
            {
              "name": "Magstadt",
              "lat": 48.74471,
              "lng": 8.96675
            },
            {
              "name": "Marbach am Neckar",
              "lat": 48.93964,
              "lng": 9.25995
            },
            {
              "name": "Markgröningen",
              "lat": 48.90493,
              "lng": 9.08059
            },
            {
              "name": "Möglingen",
              "lat": 48.88741,
              "lng": 9.12694
            },
            {
              "name": "Neuhausen auf den Fildern",
              "lat": 48.68333,
              "lng": 9.28333
            },
            {
              "name": "Notzingen",
              "lat": 48.67076,
              "lng": 9.45721
            },
            {
              "name": "Oberriexingen",
              "lat": 48.92652,
              "lng": 9.02701
            },
            {
              "name": "Ostfildern",
              "lat": 48.72704,
              "lng": 9.24954
            },
            {
              "name": "Pleidelsheim",
              "lat": 48.9592,
              "lng": 9.20311
            },
            {
              "name": "Plochingen",
              "lat": 48.71067,
              "lng": 9.41949
            },
            {
              "name": "Plüderhausen",
              "lat": 48.79875,
              "lng": 9.59587
            },
            {
              "name": "Rechberghausen",
              "lat": 48.7308,
              "lng": 9.64419
            },
            {
              "name": "Reichenbach an der Fils",
              "lat": 48.71011,
              "lng": 9.46429
            },
            {
              "name": "Renningen",
              "lat": 48.76974,
              "lng": 8.93871
            },
            {
              "name": "Rudersberg",
              "lat": 48.88515,
              "lng": 9.52927
            },
            {
              "name": "Rutesheim",
              "lat": 48.80808,
              "lng": 8.94536
            },
            {
              "name": "Sachsenheim",
              "lat": 48.96,
              "lng": 9.06472
            },
            {
              "name": "Schlierbach",
              "lat": 48.67362,
              "lng": 9.51811
            },
            {
              "name": "Schönaich",
              "lat": 48.65871,
              "lng": 9.06012
            },
            {
              "name": "Schorndorf",
              "lat": 48.80537,
              "lng": 9.52721
            },
            {
              "name": "Schwaikheim",
              "lat": 48.87733,
              "lng": 9.34958
            },
            {
              "name": "Schwieberdingen",
              "lat": 48.87644,
              "lng": 9.07439
            },
            {
              "name": "Sersheim",
              "lat": 48.96667,
              "lng": 9.01667
            },
            {
              "name": "Sindelfingen",
              "lat": 48.7,
              "lng": 9.01667
            },
            {
              "name": "Steinenbronn",
              "lat": 48.66667,
              "lng": 9.11667
            },
            {
              "name": "Stuttgart Feuerbach",
              "lat": 48.80867,
              "lng": 9.15719
            },
            {
              "name": "Stuttgart Mühlhausen",
              "lat": 48.84232,
              "lng": 9.23028
            },
            {
              "name": "Stuttgart-Ost",
              "lat": 48.78363,
              "lng": 9.21032
            },
            {
              "name": "Tamm",
              "lat": 48.91988,
              "lng": 9.11556
            },
            {
              "name": "Uhingen",
              "lat": 48.70475,
              "lng": 9.5857
            },
            {
              "name": "Unterensingen",
              "lat": 48.65452,
              "lng": 9.35799
            },
            {
              "name": "Urbach",
              "lat": 48.8168,
              "lng": 9.5769
            },
            {
              "name": "Vaihingen an der Enz",
              "lat": 48.93563,
              "lng": 8.96045
            },
            {
              "name": "Waiblingen",
              "lat": 48.83241,
              "lng": 9.31641
            },
            {
              "name": "Waldenbuch",
              "lat": 48.6383,
              "lng": 9.13256
            },
            {
              "name": "Weinstadt-Endersbach",
              "lat": 48.81311,
              "lng": 9.36387
            },
            {
              "name": "Welzheim",
              "lat": 48.87675,
              "lng": 9.63434
            },
            {
              "name": "Wendlingen am Neckar",
              "lat": 48.67124,
              "lng": 9.37632
            },
            {
              "name": "Wernau",
              "lat": 48.69306,
              "lng": 9.41533
            },
            {
              "name": "Winnenden",
              "lat": 48.87563,
              "lng": 9.39819
            },
            {
              "name": "Winterbach",
              "lat": 48.79918,
              "lng": 9.47914
            },
            {
              "name": "Wolfschlugen",
              "lat": 48.65,
              "lng": 9.28333
            }
          ]
        },
        {
          "name": "Ulm",
          "lat": 48.39841,
          "lng": 9.99155,
          "subdistricts": [
            {
              "name": "Aalen",
              "lat": 48.83777,
              "lng": 10.0933
            },
            {
              "name": "Abtsgmünd",
              "lat": 48.89503,
              "lng": 10.00172
            },
            {
              "name": "Achstetten",
              "lat": 48.25886,
              "lng": 9.89748
            },
            {
              "name": "Adelmannsfelden",
              "lat": 48.95476,
              "lng": 10.00466
            },
            {
              "name": "Aichstetten",
              "lat": 47.89295,
              "lng": 10.07837
            },
            {
              "name": "Aitrach",
              "lat": 47.93333,
              "lng": 10.08333
            },
            {
              "name": "Alfdorf",
              "lat": 48.84385,
              "lng": 9.71857
            },
            {
              "name": "Allmendingen",
              "lat": 48.33052,
              "lng": 9.72419
            },
            {
              "name": "Amstetten",
              "lat": 48.57876,
              "lng": 9.87388
            },
            {
              "name": "Amtzell",
              "lat": 47.7,
              "lng": 9.75
            },
            {
              "name": "Asselfingen",
              "lat": 48.52959,
              "lng": 10.19166
            },
            {
              "name": "Attenweiler",
              "lat": 48.13333,
              "lng": 9.7
            },
            {
              "name": "Aulendorf",
              "lat": 47.95083,
              "lng": 9.63745
            },
            {
              "name": "Bad Buchau",
              "lat": 48.06231,
              "lng": 9.61244
            },
            {
              "name": "Bad Ditzenbach",
              "lat": 48.5883,
              "lng": 9.70393
            },
            {
              "name": "Bad Schussenried",
              "lat": 48.00468,
              "lng": 9.65741
            },
            {
              "name": "Bad Überkingen",
              "lat": 48.59991,
              "lng": 9.79586
            },
            {
              "name": "Bad Waldsee",
              "lat": 47.92027,
              "lng": 9.7549
            },
            {
              "name": "Bad Wurzach",
              "lat": 47.90799,
              "lng": 9.89686
            },
            {
              "name": "Baienfurt",
              "lat": 47.82857,
              "lng": 9.65157
            },
            {
              "name": "Baindt",
              "lat": 47.85,
              "lng": 9.66667
            },
            {
              "name": "Bartholomä",
              "lat": 48.7535,
              "lng": 9.98752
            },