{
  "name": "Ghana",
  "lat": 8,
  "lng": -2,
  "cities": [
    {
      "name": "Ahafo",
      "lat": 6.9096645,
      "lng": -2.2330123,
      "districts": [
        {
          "name": "Asunafo North",
          "lat": 6.8196891,
          "lng": -2.807705
        },
        {
          "name": "Asunafo South",
          "lat": 6.6821,
          "lng": -2.4399753
        },
        {
          "name": "Asutifi North",
          "lat": 6.9477486,
          "lng": -2.7675716
        },
        {
          "name": "Asutifi South",
          "lat": 6.9321581,
          "lng": -2.3552189
        },
        {
          "name": "Tano North",
          "lat": 7.2260301,
          "lng": -2.3045656
        },
        {
          "name": "Tano South",
          "lat": 7.1953793,
          "lng": -2.1258661
        }
      ]
    },
    {
      "name": "Ashanti",
      "lat": 6.8003319,
      "lng": -1.5188142,
      "districts": [
        {
          "name": "Kumasi",
          "lat": 6.68848,
          "lng": -1.62443
        },
        {
          "name": "Obuase",
          "lat": 6.20228,
          "lng": -1.66796
        },
        {
          "name": "Agogo",
          "lat": 6.80004,
          "lng": -1.08193
        },
        {
          "name": "Bekwai",
          "lat": 6.45195,
          "lng": -1.57866
        },
        {
          "name": "Ejura",
          "lat": 7.38558,
          "lng": -1.35617
        },
        {
          "name": "Konongo",
          "lat": 6.61667,
          "lng": -1.21667
        },
        {
          "name": "Mampong",
          "lat": 7.06273,
          "lng": -1.4001
        },
        {
          "name": "Tafo",
          "lat": 6.73156,
          "lng": -1.6137
        }
      ]
    },
    {
      "name": "Bono",
      "lat": 7.8035236,
      "lng": -1.0876492,
      "districts": [
        {
          "name": "Jaman North",
          "lat": 7.9883234,
          "lng": -2.9685869
        },
        {
          "name": "Sunyani West",
          "lat": 7.3566052,
          "lng": -2.4461862
        },
        {
          "name": "Tain",
          "lat": 8.1811411,
          "lng": -2.8648762
        },
        {
          "name": "Banda",
          "lat": 8.1495671,
          "lng": -2.366395
        },
        {
          "name": "Berekum East",
          "lat": 7.4384619,
          "lng": -2.6029578
        },
        {
          "name": "Berekum West",
          "lat": 7.4393416,
          "lng": -2.6549705
        },
        {
          "name": "Dormaa Central",
          "lat": 7.2775,
          "lng": -2.878333
        },
        {
          "name": "Dormaa East",
          "lat": 7.3,
          "lng": -2.7
        },
        {
          "name": "Dormaa West",
          "lat": 7.016667,
          "lng": -3.05
        },
        {
          "name": "Jaman South",
          "lat": 7.7084375,
          "lng": -3.075017
        },
        {
          "name": "Sunyani",
          "lat": 7.3380332,
          "lng": -2.3487146
        },
        {
          "name": "Wenchi",
          "lat": 7.7405992,
          "lng": -2.1226788
        }
      ]
    },
    {
      "name": "Bono East",
      "lat": 8.2247942,
      "lng": -0.6544711,
      "districts": [
        {
          "name": "Atebubu-Amantin",
          "lat": 7.70237,
          "lng": -1.2197943
        },
        {
          "name": "Kintampo North",
          "lat": 8.3963579,
          "lng": -1.8200007
        },
        {
          "name": "Kintampo South",
          "lat": 7.9897132,
          "lng": -2.0071115
        },
        {
          "name": "Nkoranza North",
          "lat": 7.5660331,
          "lng": -1.723652
        },
        {
          "name": "Nkoranza South",
          "lat": 7.6240512,
          "lng": -1.7997446
        },
        {
          "name": "Pru East",
          "lat": 8.2262,
          "lng": -0.6536
        },
        {
          "name": "Pru West",
          "lat": 8.0735993,
          "lng": -1.2905541
        },
        {
          "name": "Sene East",
          "lat": 7.783,
          "lng": -0.217
        },
        {
          "name": "Sene West",
          "lat": 7.7342,
          "lng": -0.6818
        },
        {
          "name": "Techiman",
          "lat": 7.5896856,
          "lng": -1.9512214
        },
        {
          "name": "Techiman North",
          "lat": 7.7042802,
          "lng": -2.0814057
        }
      ]
    },
    {
      "name": "Central",
      "lat": 5.7244148,
      "lng": -1.3761749,
      "districts": [
        {
          "name": "Cape Coast",
          "lat": 5.10535,
          "lng": -1.2466
        },
        {
          "name": "Apam",
          "lat": 5.28483,
          "lng": -0.73711
        },
        {
          "name": "Dunkwa",
          "lat": 5.95996,
          "lng": -1.77792
        },
        {
          "name": "Elmina",
          "lat": 5.0847,
          "lng": -1.35093
        },
        {
          "name": "Foso",
          "lat": 5.70119,
          "lng": -1.28657
        },
        {
          "name": "Kasoa",
          "lat": 5.53449,
          "lng": -0.41679
        },
        {
          "name": "Mumford",
          "lat": 5.26176,
          "lng": -0.75897
        },
        {
          "name": "Saltpond",
          "lat": 5.20913,
          "lng": -1.06058
        },
        {
          "name": "Swedru",
          "lat": 5.53711,
          "lng": -0.69984
        },
        {
          "name": "Winneba",
          "lat": 5.35113,
          "lng": -0.62313
        }
      ]
    },
    {
      "name": "Eastern",
      "lat": 6.446877,
      "lng": -0.3770964,
      "districts": [
        {
          "name": "Koforidua",
          "lat": 6.09408,
          "lng": -0.25913
        },
        {
          "name": "Aburi",
          "lat": 5.84802,
          "lng": -0.17449
        },
        {
          "name": "Akim Oda",
          "lat": 5.92665,
          "lng": -0.98577
        },
        {
          "name": "Akim Swedru",
          "lat": 5.8938,
          "lng": -1.01636
        },
        {
          "name": "Akropong",
          "lat": 5.97462,
          "lng": -0.08542
        },
        {
          "name": "Akwatia",
          "lat": 6.04024,
          "lng": -0.80876
        },
        {
          "name": "Asamankese",
          "lat": 5.86006,
          "lng": -0.6635
        },
        {
          "name": "Begoro",
          "lat": 6.38706,
          "lng": -0.37738
        },
        {
          "name": "Kibi",
          "lat": 6.16494,
          "lng": -0.55376
        },
        {
          "name": "Mpraeso",
          "lat": 6.59321,
          "lng": -0.73462
        },
        {
          "name": "Nsawam",
          "lat": 5.80893,
          "lng": -0.35026
        },
        {
          "name": "Suhum",
          "lat": 6.04089,
          "lng": -0.45004
        }
      ]
    },
    {
      "name": "Greater Accra",
      "lat": 5.8101532,
      "lng": 0.0995242,
      "districts": [
        {
          "name": "Accra",
          "lat": 5.55602,
          "lng": -0.1969,
          "iscapital": true
        },
        {
          "name": "Atsiaman",
          "lat": 5.69775,
          "lng": -0.32824
        },
        {
          "name": "Medina Estates",
          "lat": 5.6658,
          "lng": -0.16307
        },
        {
          "name": "Tema",
          "lat": 5.6698,
          "lng": -0.01657
        },
        {
          "name": "Teshi Old Town",
          "lat": 5.58365,
          "lng": -0.10722
        },
        {
          "name": "Dome",
          "lat": 5.65003,
          "lng": -0.2361
        },
        {
          "name": "Gbawe",
          "lat": 5.57692,
          "lng": -0.31038
        },
        {
          "name": "Nungua",
          "lat": 5.60105,
          "lng": -0.07713
        }
      ]
    },
    {
      "name": "North East",
      "lat": 10.5279933,
      "lng": -0.3698625,
      "districts": [
        {
          "name": "Bunkpurugu-Nyakpanduri",
          "lat": 10.4660917,
          "lng": -0.2271195
        },
        {
          "name": "Chereponi",
          "lat": 10.1382772,
          "lng": 0.2824258
        },
        {
          "name": "East Mamprusi",
          "lat": 10.4293186,
          "lng": -0.5307885
        },
        {
          "name": "Mamprugu-Moagduri",
          "lat": 10.2329,
          "lng": -1.2836
        },
        {
          "name": "West Mamprusi",
          "lat": 10.2990606,
          "lng": -1.367501
        },
        {
          "name": "Yunyoo-Nasuan",
          "lat": 10.484,
          "lng": -0.009
        }
      ]
    },
    {
      "name": "Northern",
      "lat": 9.6600005,
      "lng": -0.3943799,
      "districts": [
        {
          "name": "Tamale",
          "lat": 9.40079,
          "lng": -0.8393
        },
        {
          "name": "Kpandae",
          "lat": 8.46885,
          "lng": -0.01127
        },
        {
          "name": "Salaga",
          "lat": 8.55083,
          "lng": -0.51875
        },
        {
          "name": "Savelugu",
          "lat": 9.62441,
          "lng": -0.8253
        },
        {
          "name": "Yendi",
          "lat": 9.44272,
          "lng": -0.00991
        }
      ]
    },
    {
      "name": "Oti",
      "lat": 6.1064098,
      "lng": -0.2483786,
      "districts": [
        {
          "name": "Krachi East",
          "lat": 7.7719698,
          "lng": -0.0776376
        },
        {
          "name": "Biakoye",
          "lat": 7.1169869,
          "lng": 0.323243
        },
        {
          "name": "Jasikan",
          "lat": 7.4094088,
          "lng": 0.443015
        },
        {
          "name": "Kadjebi",
          "lat": 7.5263192,
          "lng": 0.4670477
        },
        {
          "name": "Krachi Nchumuru",
          "lat": 8.148498,
          "lng": -0.1634988
        },
        {
          "name": "Krachi West",
          "lat": 7.9828216,
          "lng": -0.3488627
        },
        {
          "name": "Nkwanta North",
          "lat": 8.3518076,
          "lng": 0.1221762
        },
        {
          "name": "Nkwanta South",
          "lat": 8.2593134,
          "lng": 0.5018519
        }
      ]
    },
    {
      "name": "Savannah",
      "lat": 9.1400654,
      "lng": -1.7111234,
      "districts": [
        {
          "name": "Bole",
          "lat": 9.0299664,
          "lng": -2.506943
        },
        {
          "name": "Central Gonja",
          "lat": 8.9278432,
          "lng": -1.9536972
        },
        {
          "name": "East Gonja",
          "lat": 8.725684,
          "lng": -1.0713579
        },
        {
          "name": "North East Gonja",
          "lat": 9.1174669,
          "lng": -0.5557936
        },
        {
          "name": "North Gonja",
          "lat": 9.5413085,
          "lng": -1.3976692
        },
        {
          "name": "Sawla-Tuna-Kalba",
          "lat": 9.3911457,
          "lng": -2.7061166
        },
        {
          "name": "West Gonja",
          "lat": 9.5751317,
          "lng": -2.2644041
        }
      ]
    },
    {
      "name": "Upper East",
      "lat": 10.7245907,
      "lng": -0.8196591,
      "districts": [
        {
          "name": "Bawku",
          "lat": 11.0616,
          "lng": -0.24169
        },
        {
          "name": "Bolgatanga",
          "lat": 10.78556,
          "lng": -0.85139
        },
        {
          "name": "Navrongo",
          "lat": 10.89557,
          "lng": -1.0921
        }
      ]
    },
    {
      "name": "Upper West",
      "lat": 10.3669525,
      "lng": -2.0921426,
      "districts": [
        {
          "name": "Wa",
          "lat": 10.06069,
          "lng": -2.50192
        }
      ]
    },
    {
      "name": "Volta",
      "lat": 6.5348624,
      "lng": 0.4556055,
      "districts": [
        {
          "name": "Ho",
          "lat": 6.60084,
          "lng": 0.4713
        },
        {
          "name": "Aflao",
          "lat": 6.11982,
          "lng": 1.19012
        },
        {
          "name": "Anloga",
          "lat": 5.79473,
          "lng": 0.89728
        },
        {
          "name": "Hohoe",
          "lat": 7.15181,
          "lng": 0.47362
        },
        {
          "name": "Keta",
          "lat": 5.91793,
          "lng": 0.98789
        },
        {
          "name": "Kete Krachi",
          "lat": 7.79391,
          "lng": -0.0498
        },
        {
          "name": "Kpandu",
          "lat": 6.99536,
          "lng": 0.29306
        }
      ]
    },
    {
      "name": "Western",
      "lat": 5.4261241,
      "lng": -2.1286574,
      "districts": [
        {
          "name": "Sekondi-Takoradi",
          "lat": 4.92678,
          "lng": -1.75773
        },
        {
          "name": "Takoradi",
          "lat": 4.89816,
          "lng": -1.76029
        },
        {
          "name": "Aboso",
          "lat": 5.36073,
          "lng": -1.94856
        },
        {
          "name": "Axim",
          "lat": 4.86641,
          "lng": -2.24181
        },
        {
          "name": "Bibiani",
          "lat": 6.46346,
          "lng": -2.31938
        },
        {
          "name": "Prestea",
          "lat": 5.43385,
          "lng": -2.14295
        },
        {
          "name": "Shama Junction",
          "lat": 5.01806,
          "lng": -1.66437
        },
        {
          "name": "Tarkwa",
          "lat": 5.30383,
          "lng": -1.98956
        }
      ]
    },
    {
      "name": "Western North",
      "lat": 6.2064665,
      "lng": -2.4855092,
      "districts": [
        {
          "name": "Aowin",
          "lat": 5.8214385,
          "lng": -2.8236043
        },
        {
          "name": "Bia East",
          "lat": 6.8161445,
          "lng": -3.0038395
        },
        {
          "name": "Bia West",
          "lat": 6.5689417,
          "lng": -3.0662888
        },
        {
          "name": "Bibiani-Anhwiaso-Bekwai",
          "lat": 6.3021004,
          "lng": -2.3567507
        },
        {
          "name": "Bodi",
          "lat": 6.2224091,
          "lng": -2.7661515
        },
        {
          "name": "Juaboso",
          "lat": 6.3333157,
          "lng": -2.8420614
        },
        {
          "name": "Sefwi-Akontombra",
          "lat": 6.0428548,
          "lng": -2.8813362
        },
        {
          "name": "Sefwi-Wiawso",
          "lat": 6.2196567,
          "lng": -2.5005915
        },
        {
          "name": "Suaman",
          "lat": 6.1082416,
          "lng": -3.0086971
        }
      ]
    }
  ]
}
