{
  "name": "Italy",
  "lat": 42.83333333,
  "lng": 12.83333333,
  "cities": [
    {
      "name": "Abruzzo",
      "lat": 42.227681,
      "lng": 13.854983,
      "districts": [
        {
          "name": "Pescara",
          "lat": 42.4584,
          "lng": 14.20283
        },
        {
          "name": "Abbateggio",
          "lat": 42.22421,
          "lng": 14.01001
        },
        {
          "name": "Acciano",
          "lat": 42.17677,
          "lng": 13.71783
        },
        {
          "name": "Aielli",
          "lat": 42.08146,
          "lng": 13.59113
        },
        {
          "name": "Alanno",
          "lat": 42.29552,
          "lng": 13.97084
        },
        {
          "name": "Alba Adriatica",
          "lat": 42.83176,
          "lng": 13.9259
        },
        {
          "name": "Alfedena",
          "lat": 41.73545,
          "lng": 14.035
        },
        {
          "name": "Altino",
          "lat": 42.09954,
          "lng": 14.33267
        },
        {
          "name": "Ancarano",
          "lat": 42.83767,
          "lng": 13.74662
        },
        {
          "name": "Anversa degli Abruzzi",
          "lat": 41.99478,
          "lng": 13.80379
        },
        {
          "name": "Archi",
          "lat": 42.09135,
          "lng": 14.3827
        },
        {
          "name": "Ari",
          "lat": 42.28967,
          "lng": 14.25856
        },
        {
          "name": "Arielli",
          "lat": 42.26003,
          "lng": 14.31004
        },
        {
          "name": "Arsita",
          "lat": 42.50266,
          "lng": 13.78516
        },
        {
          "name": "Ateleta",
          "lat": 41.85435,
          "lng": 14.19806
        },
        {
          "name": "Atessa",
          "lat": 42.07018,
          "lng": 14.45049
        },
        {
          "name": "Atri",
          "lat": 42.57642,
          "lng": 13.98899
        },
        {
          "name": "Avezzano",
          "lat": 42.02896,
          "lng": 13.42641
        },
        {
          "name": "Balsorano",
          "lat": 41.80982,
          "lng": 13.5598
        },
        {
          "name": "Balsorano Nuovo",
          "lat": 41.80881,
          "lng": 13.56069
        },
        {
          "name": "Barberi",
          "lat": 42.44072,
          "lng": 14.04268
        },
        {
          "name": "Barete",
          "lat": 42.45009,
          "lng": 13.28061
        },
        {
          "name": "Barisciano",
          "lat": 42.32465,
          "lng": 13.59036
        },
        {
          "name": "Barrea",
          "lat": 41.75543,
          "lng": 13.99095
        },
        {
          "name": "Basciano",
          "lat": 42.59639,
          "lng": 13.73561
        },
        {
          "name": "Bellante",
          "lat": 42.74421,
          "lng": 13.80234
        },
        {
          "name": "Bellante Stazione",
          "lat": 42.7065,
          "lng": 13.83953
        },
        {
          "name": "Bisegna",
          "lat": 41.92113,
          "lng": 13.7576
        },
        {
          "name": "Bisenti",
          "lat": 42.52883,
          "lng": 13.7995
        },
        {
          "name": "Bolognano",
          "lat": 42.21814,
          "lng": 13.96011
        },
        {
          "name": "Bomba",
          "lat": 42.03343,
          "lng": 14.36656
        },
        {
          "name": "Borgo Santa Maria Immacolata",
          "lat": 42.61172,
          "lng": 14.04553
        },
        {
          "name": "Borrello",
          "lat": 41.9173,
          "lng": 14.30535
        },
        {
          "name": "Brittoli",
          "lat": 42.31518,
          "lng": 13.86026
        },
        {
          "name": "Bucchianico",
          "lat": 42.30368,
          "lng": 14.18377
        },
        {
          "name": "Bugnara",
          "lat": 42.02383,
          "lng": 13.86141
        },
        {
          "name": "Bussi sul Tirino",
          "lat": 42.21321,
          "lng": 13.82511
        },
        {
          "name": "Cagnano Amiterno",
          "lat": 42.45744,
          "lng": 13.22789
        },
        {
          "name": "Calascio",
          "lat": 42.32595,
          "lng": 13.69699
        },
        {
          "name": "Campli",
          "lat": 42.72679,
          "lng": 13.68692
        },
        {
          "name": "Campo di Giove",
          "lat": 42.01013,
          "lng": 14.03941
        },
        {
          "name": "Campotosto",
          "lat": 42.55884,
          "lng": 13.36799
        },
        {
          "name": "Canistro Inferiore",
          "lat": 41.94101,
          "lng": 13.41194
        },
        {
          "name": "Canosa Sannita",
          "lat": 42.29629,
          "lng": 14.30514
        },
        {
          "name": "Cansano",
          "lat": 42.0035,
          "lng": 14.01341
        },
        {
          "name": "Canzano",
          "lat": 42.64564,
          "lng": 13.8041
        },
        {
          "name": "Capestrano",
          "lat": 42.26807,
          "lng": 13.76779
        },
        {
          "name": "Capistrello",
          "lat": 41.97223,
          "lng": 13.39616
        },
        {
          "name": "Capitignano",
          "lat": 42.52041,
          "lng": 13.30122
        },
        {
          "name": "Caporciano",
          "lat": 42.25001,
          "lng": 13.67455
        },
        {
          "name": "Cappadocia",
          "lat": 42.00755,
          "lng": 13.27806
        },
        {
          "name": "Cappelle sul Tavo",
          "lat": 42.47709,
          "lng": 14.10735
        },
        {
          "name": "Caramanico Terme",
          "lat": 42.15593,
          "lng": 14.0048
        },
        {
          "name": "Carapelle Calvisio",
          "lat": 42.29908,
          "lng": 13.68643
        },
        {
          "name": "Carpineto della Nora",
          "lat": 42.33365,
          "lng": 13.86062
        },
        {
          "name": "Carpineto Sinello",
          "lat": 42.01044,
          "lng": 14.50418
        },
        {
          "name": "Carsoli",
          "lat": 42.09882,
          "lng": 13.08856
        },
        {
          "name": "Carunchio",
          "lat": 41.91761,
          "lng": 14.52683
        },
        {
          "name": "Casacanditella",
          "lat": 42.24643,
          "lng": 14.2004
        },
        {
          "name": "Casalanguida",
          "lat": 42.03752,
          "lng": 14.49613
        },
        {
          "name": "Casalbordino-Miracoli",
          "lat": 42.15354,
          "lng": 14.59912
        },
        {
          "name": "Casalincontrada",
          "lat": 42.29744,
          "lng": 14.13511
        },
        {
          "name": "Casoli",
          "lat": 42.61723,
          "lng": 13.9791
        },
        {
          "name": "Castel Castagna",
          "lat": 42.54294,
          "lng": 13.7164
        },
        {
          "name": "Castel del Monte",
          "lat": 42.36544,
          "lng": 13.72592
        },
        {
          "name": "Castel di Ieri",
          "lat": 42.11353,
          "lng": 13.742
        },
        {
          "name": "Castel di Sangro",
          "lat": 41.78392,
          "lng": 14.10653
        },
        {
          "name": "Castel Frentano",
          "lat": 42.19875,
          "lng": 14.35643
        },
        {
          "name": "Castelguidone",
          "lat": 41.82258,
          "lng": 14.52286
        },
        {
          "name": "Castellafiume",
          "lat": 41.98913,
          "lng": 13.3344
        },
        {
          "name": "Castellalto",
          "lat": 42.67705,
          "lng": 13.82101
        },
        {
          "name": "Castelli",
          "lat": 42.48476,
          "lng": 13.71201
        },
        {
          "name": "Castelnuovo Vomano",
          "lat": 42.62933,
          "lng": 13.85003
        },
        {
          "name": "Castelvecchio Calvisio",
          "lat": 42.31134,
          "lng": 13.6872
        },
        {
          "name": "Castelvecchio Subequo",
          "lat": 42.12881,
          "lng": 13.72868
        },
        {
          "name": "Castiglione a Casauria",
          "lat": 42.23601,
          "lng": 13.89832
        },
        {
          "name": "Castiglione Messer Marino",
          "lat": 41.86833,
          "lng": 14.44996
        },
        {
          "name": "Castiglione Messer Raimondo",
          "lat": 42.53194,
          "lng": 13.87953
        },
        {
          "name": "Castilenti",
          "lat": 42.53334,
          "lng": 13.9171
        },
        {
          "name": "Catignano",
          "lat": 42.34697,
          "lng": 13.9519
        },
        {
          "name": "Celano",
          "lat": 42.08077,
          "lng": 13.517
        },
        {
          "name": "Celenza sul Trigno",
          "lat": 41.87198,
          "lng": 14.57893
        },
        {
          "name": "Cellino Attanasio",
          "lat": 42.58574,
          "lng": 13.8605
        },
        {
          "name": "Cepagatti",
          "lat": 42.36506,
          "lng": 14.07424
        },
        {
          "name": "Cerchio",
          "lat": 42.06357,
          "lng": 13.60006
        },
        {
          "name": "Cermignano",
          "lat": 42.59131,
          "lng": 13.7954
        },
        {
          "name": "Cerratina",
          "lat": 42.39007,
          "lng": 14.10338
        },
        {
          "name": "Chieti",
          "lat": 42.34827,
          "lng": 14.16494
        },
        {
          "name": "Città Sant'Angelo",
          "lat": 42.51254,
          "lng": 14.06203
        },
        {
          "name": "Civita d'Antino",
          "lat": 41.88629,
          "lng": 13.47215
        },
        {
          "name": "Civitaluparella",
          "lat": 41.9449,
          "lng": 14.30135
        },
        {
          "name": "Civitaquana",
          "lat": 42.32578,
          "lng": 13.90012
        },
        {
          "name": "Civitella Alfedena",
          "lat": 41.76533,
          "lng": 13.94271
        },
        {
          "name": "Civitella Casanova",
          "lat": 42.36391,
          "lng": 13.88514
        },
        {
          "name": "Civitella del Tronto",
          "lat": 42.77298,
          "lng": 13.67626
        },
        {
          "name": "Civitella Messer Raimondo",
          "lat": 42.08893,
          "lng": 14.21701
        },
        {
          "name": "Civitella Roveto",
          "lat": 41.91329,
          "lng": 13.42396
        },
        {
          "name": "Cocullo",
          "lat": 42.03283,
          "lng": 13.775
        },
        {
          "name": "Collarmele",
          "lat": 42.06031,
          "lng": 13.6267
        },
        {
          "name": "Collecorvino",
          "lat": 42.46024,
          "lng": 14.01564
        },
        {
          "name": "Colledara",
          "lat": 42.53918,
          "lng": 13.67556
        },
        {
          "name": "Colledimacine",
          "lat": 42.0037,
          "lng": 14.20079
        },
        {
          "name": "Colledimezzo",
          "lat": 41.98606,
          "lng": 14.3869
        },
        {
          "name": "Collelongo",
          "lat": 41.88659,
          "lng": 13.5838
        },
        {
          "name": "Collepietro",
          "lat": 42.22089,
          "lng": 13.78101
        },
        {
          "name": "Colleranesco",
          "lat": 42.72112,
          "lng": 13.93732
        },
        {
          "name": "Cologna Spiaggia",
          "lat": 42.72152,
          "lng": 13.98311
        },
        {
          "name": "Colonnella",
          "lat": 42.8723,
          "lng": 13.86987
        },
        {
          "name": "Cominio",
          "lat": 42.31248,
          "lng": 13.4325
        },
        {
          "name": "Controguerra",
          "lat": 42.85398,
          "lng": 13.81775
        },
        {
          "name": "Coppito",
          "lat": 42.3673,
          "lng": 13.34358
        },
        {
          "name": "Corfinio",
          "lat": 42.12149,
          "lng": 13.8394
        },
        {
          "name": "Corropoli",
          "lat": 42.8272,
          "lng": 13.83471
        },
        {
          "name": "Cortino",
          "lat": 42.62186,
          "lng": 13.50774
        },
        {
          "name": "Corvara",
          "lat": 42.27511,
          "lng": 13.87363
        },
        {
          "name": "Crecchio",
          "lat": 42.29778,
          "lng": 14.32656
        },
        {
          "name": "Crognaleto",
          "lat": 42.58771,
          "lng": 13.4889
        },
        {
          "name": "Cugnoli",
          "lat": 42.30692,
          "lng": 13.9349
        },
        {
          "name": "Cupello",
          "lat": 42.06936,
          "lng": 14.67054
        },
        {
          "name": "Dogliola",
          "lat": 41.94238,
          "lng": 14.63507
        },
        {
          "name": "Elice",
          "lat": 42.52279,
          "lng": 13.97071
        },
        {
          "name": "Fallo",
          "lat": 41.93833,
          "lng": 14.32362
        },
        {
          "name": "Fano Adriano",
          "lat": 42.5523,
          "lng": 13.53764
        },
        {
          "name": "Fara Filiorum Petri",
          "lat": 42.24152,
          "lng": 14.18026
        },
        {
          "name": "Fara San Martino",
          "lat": 42.09248,
          "lng": 14.20896
        },
        {
          "name": "Farindola",
          "lat": 42.44292,
          "lng": 13.82137
        },
        {
          "name": "Filetto",
          "lat": 42.22931,
          "lng": 14.24501
        },
        {
          "name": "Fonte Umano-San Martino Alta",
          "lat": 42.52084,
          "lng": 14.1076
        },
        {
          "name": "Fontecchio",
          "lat": 42.23027,
          "lng": 13.60613
        },
        {
          "name": "Fossa",
          "lat": 42.29273,
          "lng": 13.48779
        },
        {
          "name": "Fossacesia",
          "lat": 42.24198,
          "lng": 14.48339
        },
        {
          "name": "Fraine",
          "lat": 41.90624,
          "lng": 14.48788
        },
        {
          "name": "Francavilla al Mare",
          "lat": 42.42158,
          "lng": 14.28217
        },
        {
          "name": "Fresagrandinaria",
          "lat": 41.979,
          "lng": 14.66211
        },
        {
          "name": "Frisa",
          "lat": 42.26572,
          "lng": 14.37625
        },
        {
          "name": "Furci",
          "lat": 42.00746,
          "lng": 14.58802
        },
        {
          "name": "Gagliano Aterno",
          "lat": 42.12598,
          "lng": 13.70023
        },
        {
          "name": "Gamberale",
          "lat": 41.90529,
          "lng": 14.20845
        },
        {
          "name": "Gessopalena",
          "lat": 42.05521,
          "lng": 14.27367
        },
        {
          "name": "Gioia dei Marsi",
          "lat": 41.95697,
          "lng": 13.69057
        },
        {
          "name": "Gissi",
          "lat": 42.01803,
          "lng": 14.54484
        },
        {
          "name": "Giuliano Teatino",
          "lat": 42.3122,
          "lng": 14.28082
        },
        {
          "name": "Giulianova",
          "lat": 42.75381,
          "lng": 13.9665
        },
        {
          "name": "Goriano Sicoli",
          "lat": 42.08011,
          "lng": 13.77459
        },
        {
          "name": "Guardiagrele",
          "lat": 42.19406,
          "lng": 14.21939
        },
        {
          "name": "Guilmi",
          "lat": 41.99653,
          "lng": 14.47882
        },
        {
          "name": "Imposte",
          "lat": 42.68634,
          "lng": 13.52829
        },
        {
          "name": "Introdacqua",
          "lat": 42.00968,
          "lng": 13.89779
        },
        {
          "name": "Isola del Gran Sasso d'Italia",
          "lat": 42.50324,
          "lng": 13.65721
        },
        {
          "name": "L'Aquila",
          "lat": 42.35055,
          "lng": 13.39954
        },
        {
          "name": "Lama dei Peligni",
          "lat": 42.04214,
          "lng": 14.18678
        },
        {
          "name": "Lanciano",
          "lat": 42.22718,
          "lng": 14.39024
        },
        {
          "name": "Lecce Nei Marsi",
          "lat": 41.93436,
          "lng": 13.6843
        },
        {
          "name": "Lentella",
          "lat": 41.99576,
          "lng": 14.67692
        },
        {
          "name": "Lettomanoppello",
          "lat": 42.24336,
          "lng": 14.03843
        },
        {
          "name": "Lettopalena",
          "lat": 42.00251,
          "lng": 14.15652
        },
        {
          "name": "Liscia",
          "lat": 41.95524,
          "lng": 14.55532
        },
        {
          "name": "Loreto Aprutino",
          "lat": 42.43104,
          "lng": 13.98057
        },
        {
          "name": "Luco dei Marsi",
          "lat": 41.95925,
          "lng": 13.47349
        },
        {
          "name": "Lucoli",
          "lat": 42.29093,
          "lng": 13.33799
        },
        {
          "name": "Magliano De'Marsi",
          "lat": 42.09153,
          "lng": 13.36379
        },
        {
          "name": "Manoppello",
          "lat": 42.25918,
          "lng": 14.06024
        },
        {
          "name": "Manoppello Scalo",
          "lat": 42.30762,
          "lng": 14.05363
        },
        {
          "name": "Marina di San Vito",
          "lat": 42.30514,
          "lng": 14.44844
        },
        {
          "name": "Marina di Vasto",
          "lat": 42.09373,
          "lng": 14.72683
        },
        {
          "name": "Martinsicuro",
          "lat": 42.88031,
          "lng": 13.91326
        },
        {
          "name": "Massa d'Albe-Corona",
          "lat": 42.10723,
          "lng": 13.39429
        },
        {
          "name": "Miglianico",
          "lat": 42.35773,
          "lng": 14.29179
        },
        {
          "name": "Molina Aterno",
          "lat": 42.14903,
          "lng": 13.7354
        },
        {
          "name": "Montazzoli",
          "lat": 41.94887,
          "lng": 14.43069
        },
        {
          "name": "Montebello di Bertona",
          "lat": 42.41686,
          "lng": 13.87119
        },
        {
          "name": "Montebello sul Sangro",
          "lat": 41.98663,
          "lng": 14.32402
        },
        {
          "name": "Monteferrante",
          "lat": 41.95396,
          "lng": 14.38856
        },
        {
          "name": "Montefino",
          "lat": 42.54551,
          "lng": 13.88479
        },
        {
          "name": "Montelapiano",
          "lat": 41.96267,
          "lng": 14.34212
        },
        {
          "name": "Montenerodomo",
          "lat": 41.97682,
          "lng": 14.25177
        },
        {
          "name": "Monteodorisio",
          "lat": 42.08485,
          "lng": 14.65386
        },
        {
          "name": "Montereale",
          "lat": 42.52332,
          "lng": 13.24585
        },
        {
          "name": "Montesilvano Marina",
          "lat": 42.5114,
          "lng": 14.14507
        },
        {
          "name": "Monticchio",
          "lat": 42.32035,
          "lng": 13.46382
        },
        {
          "name": "Montorio al Vomano",
          "lat": 42.58123,
          "lng": 13.63715
        },
        {
          "name": "Morino",
          "lat": 41.86442,
          "lng": 13.457
        },
        {
          "name": "Morro d'Oro",
          "lat": 42.66291,
          "lng": 13.92129
        },
        {
          "name": "Mosciano Sant'Angelo",
          "lat": 42.747,
          "lng": 13.88891
        },
        {
          "name": "Moscufo",
          "lat": 42.42713,
          "lng": 14.05434
        },
        {
          "name": "Mozzagrogna",
          "lat": 42.21267,
          "lng": 14.44258
        },
        {
          "name": "Navelli",
          "lat": 42.23721,
          "lng": 13.72961
        },
        {
          "name": "Nepezzano",
          "lat": 42.68994,
          "lng": 13.7565
        },
        {
          "name": "Nereto",
          "lat": 42.81548,
          "lng": 13.81989
        },
        {
          "name": "Nerito",
          "lat": 42.54763,
          "lng": 13.47759
        },
        {
          "name": "Nocciano",
          "lat": 42.33366,
          "lng": 13.98571
        },
        {
          "name": "Notaresco",
          "lat": 42.65742,
          "lng": 13.89491
        },
        {
          "name": "Nucleo Industriale di Bazzano",
          "lat": 42.33623,
          "lng": 13.46755
        },
        {
          "name": "Ofena",
          "lat": 42.32536,
          "lng": 13.75864
        },
        {
          "name": "Opi",
          "lat": 41.77838,
          "lng": 13.82932
        },
        {
          "name": "Oricola",
          "lat": 42.04922,
          "lng": 13.03939
        },
        {
          "name": "Orsogna",
          "lat": 42.22344,
          "lng": 14.28085
        },
        {
          "name": "Ortona",
          "lat": 42.35087,
          "lng": 14.40342
        },
        {
          "name": "Ortona dei Marsi",
          "lat": 41.9982,
          "lng": 13.72909
        },
        {
          "name": "Ortucchio",
          "lat": 41.95525,
          "lng": 13.64651
        },
        {
          "name": "Ovindoli",
          "lat": 42.13765,
          "lng": 13.51603
        },
        {
          "name": "Pacentro",
          "lat": 42.05043,
          "lng": 13.99151
        },
        {
          "name": "Paganica-Tempera",
          "lat": 42.35715,
          "lng": 13.47138
        },
        {
          "name": "Pagliare",
          "lat": 42.64372,
          "lng": 13.95171
        },
        {
          "name": "Paglieta",
          "lat": 42.16139,
          "lng": 14.50306
        },
        {
          "name": "Palena",
          "lat": 41.98353,
          "lng": 14.13696
        },
        {
          "name": "Palmoli",
          "lat": 41.93944,
          "lng": 14.58142
        },
        {
          "name": "Palombaro",
          "lat": 42.12323,
          "lng": 14.22989
        },
        {
          "name": "Penna Sant'Andrea",
          "lat": 42.59403,
          "lng": 13.77215
        },
        {
          "name": "Pennadomo",
          "lat": 42.00394,
          "lng": 14.32338
        },
        {
          "name": "Pennapiedimonte",
          "lat": 42.15563,
          "lng": 14.19432
        },
        {
          "name": "Penne",
          "lat": 42.45474,
          "lng": 13.92754
        },
        {
          "name": "Perano",
          "lat": 42.1046,
          "lng": 14.39581
        },
        {
          "name": "Pereto",
          "lat": 42.05821,
          "lng": 13.10231
        },
        {
          "name": "Pescasseroli",
          "lat": 41.80343,
          "lng": 13.78707
        },
        {
          "name": "Pescina",
          "lat": 42.02351,
          "lng": 13.65116
        },
        {
          "name": "Pescocostanzo",
          "lat": 41.88722,
          "lng": 14.06614
        },
        {
          "name": "Pescosansonesco Nuovo",
          "lat": 42.25524,
          "lng": 13.8848
        },
        {
          "name": "Pettorano sul Gizio",
          "lat": 41.97326,
          "lng": 13.96001
        },
        {
          "name": "Pianella",
          "lat": 42.39918,
          "lng": 14.04781
        },
        {
          "name": "Pianola",
          "lat": 42.32341,
          "lng": 13.40394
        },
        {
          "name": "Pianura Vomano",
          "lat": 42.63028,
          "lng": 13.91548
        },
        {
          "name": "Picciano",
          "lat": 42.47525,
          "lng": 13.9899
        },
        {
          "name": "Pietracamela",
          "lat": 42.52344,
          "lng": 13.55431
        },
        {
          "name": "Pietraferrazzana",
          "lat": 41.96943,
          "lng": 14.37451
        },
        {
          "name": "Pietranico",
          "lat": 42.27565,
          "lng": 13.91077
        },
        {
          "name": "Pineto",
          "lat": 42.60879,
          "lng": 14.06639
        },
        {
          "name": "Pizzoferrato",
          "lat": 41.92244,
          "lng": 14.23632
        },
        {
          "name": "Pizzoli",
          "lat": 42.43603,
          "lng": 13.29886
        },
        {
          "name": "Poggio Picenze",
          "lat": 42.32061,
          "lng": 13.54036
        },
        {
          "name": "Poggiofiorito",
          "lat": 42.25414,
          "lng": 14.32082
        },
        {
          "name": "Pollutri",
          "lat": 42.13784,
          "lng": 14.59172
        },
        {
          "name": "Popoli",
          "lat": 42.16866,
          "lng": 13.82997
        },
        {
          "name": "Prata d'Ansidonia",
          "lat": 42.27793,
          "lng": 13.6083
        },
        {
          "name": "Pratola Peligna",
          "lat": 42.09701,
          "lng": 13.87467
        },
        {
          "name": "Pretoro",
          "lat": 42.21923,
          "lng": 14.14248
        },
        {
          "name": "Preturo",
          "lat": 42.37808,
          "lng": 13.29633
        },
        {
          "name": "Prezza",
          "lat": 42.05789,
          "lng": 13.83592
        },
        {
          "name": "Progetto Case Bazzano",
          "lat": 42.33643,
          "lng": 13.4441
        },
        {
          "name": "Progetto Case Coppito 3",
          "lat": 42.36981,
          "lng": 13.31973
        },
        {
          "name": "Progetto Case Sassa Nsi",
          "lat": 42.3656,
          "lng": 13.31509
        },
        {
          "name": "Provincia dell' Aquila",
          "lat": 42.08333,
          "lng": 13.66667
        },
        {
          "name": "Provincia di Chieti",
          "lat": 42.11667,
          "lng": 14.35
        },
        {
          "name": "Provincia di Pescara",
          "lat": 42.33333,
          "lng": 13.95
        },
        {
          "name": "Provincia di Teramo",
          "lat": 42.65,
          "lng": 13.68333
        },
        {
          "name": "Quadri",
          "lat": 41.92402,
          "lng": 14.28768
        },
        {
          "name": "Raiano",
          "lat": 42.10158,
          "lng": 13.81386
        },
        {
          "name": "Rapino",
          "lat": 42.20931,
          "lng": 14.18493
        },
        {
          "name": "Ripa Teatina",
          "lat": 42.36603,
          "lng": 14.24441
        },
        {
          "name": "Rivisondoli",
          "lat": 41.87023,
          "lng": 14.06671
        },
        {
          "name": "Rocca di Botte",
          "lat": 42.03102,
          "lng": 13.07185
        },
        {
          "name": "Rocca di Cambio",
          "lat": 42.23755,
          "lng": 13.48906
        },
        {
          "name": "Rocca di Mezzo",
          "lat": 42.20441,
          "lng": 13.5184
        },
        {
          "name": "Rocca Pia",
          "lat": 41.93429,
          "lng": 13.97726
        },
        {
          "name": "Rocca San Giovanni",
          "lat": 42.24604,
          "lng": 14.46162
        },
        {
          "name": "Roccacasale",
          "lat": 42.12249,
          "lng": 13.88758
        },
        {
          "name": "Roccamorice",
          "lat": 42.21274,
          "lng": 14.02531
        },
        {
          "name": "Roccaraso",
          "lat": 41.84872,
          "lng": 14.07846
        },
        {
          "name": "Roccascalegna",
          "lat": 42.06212,
          "lng": 14.30802
        },
        {
          "name": "Roccaspinalveti-Santa Giusta",
          "lat": 41.94233,
          "lng": 14.47092
        },
        {
          "name": "Roccavivi",
          "lat": 41.81214,
          "lng": 13.53662
        },
        {
          "name": "Roio del Sangro",
          "lat": 41.91153,
          "lng": 14.37382
        },
        {
          "name": "Rosciano",
          "lat": 42.32227,
          "lng": 14.04555
        },
        {
          "name": "Rosello",
          "lat": 41.90116,
          "lng": 14.34919
        },
        {
          "name": "Roseto degli Abruzzi",
          "lat": 42.67164,
          "lng": 14.01481
        },
        {
          "name": "Salino",
          "lat": 42.78571,
          "lng": 13.914
        },
        {
          "name": "Salle",
          "lat": 42.17756,
          "lng": 13.96091
        },
        {
          "name": "Salvo Marina",
          "lat": 42.07037,
          "lng": 14.76597
        },
        {
          "name": "Sambuceto",
          "lat": 42.42168,
          "lng": 14.18747
        },
        {
          "name": "San Benedetto dei Marsi",
          "lat": 42.0076,
          "lng": 13.62381
        },
        {
          "name": "San Benedetto in Perillis",
          "lat": 42.18377,
          "lng": 13.76996
        },
        {
          "name": "San Buono",
          "lat": 41.9814,
          "lng": 14.56818
        },
        {
          "name": "San Demetrio Ne' Vestini",
          "lat": 42.28963,
          "lng": 13.55519
        },
        {
          "name": "San Giovanni Lipioni",
          "lat": 41.84383,
          "lng": 14.56271
        },
        {
          "name": "San Martino Bassa",
          "lat": 42.51827,
          "lng": 14.13045
        },
        {
          "name": "San Martino sulla Marrucina",
          "lat": 42.22419,
          "lng": 14.21577
        },
        {
          "name": "San Nicolò a Tordino",
          "lat": 42.69648,
          "lng": 13.79708
        },
        {
          "name": "San Panfilo d'Ocre",
          "lat": 42.28616,
          "lng": 13.47518
        },
        {
          "name": "San Pio delle Camere",
          "lat": 42.28423,
          "lng": 13.6557
        },
        {
          "name": "San Rocco",
          "lat": 42.24294,
          "lng": 14.12891
        },
        {
          "name": "San Salvo",
          "lat": 42.04413,
          "lng": 14.73335
        },
        {
          "name": "San Valentino in Abruzzo Citeriore",
          "lat": 42.23304,
          "lng": 13.98561
        },
        {
          "name": "San Vincenzo Valle Roveto",
          "lat": 41.84452,
          "lng": 13.53566
        },
        {
          "name": "San Vito Chietino",
          "lat": 42.29014,
          "lng": 14.4427
        },
        {
          "name": "Sant'Egidio alla Vibrata",
          "lat": 42.81705,
          "lng": 13.72164
        },
        {
          "name": "Sant'Eufemia a Maiella",
          "lat": 42.12613,
          "lng": 14.02651
        },
        {
          "name": "Sant'Eusanio del Sangro",
          "lat": 42.16908,
          "lng": 14.32776
        },
        {
          "name": "Sant'Eusanio Forconese",
          "lat": 42.28951,
          "lng": 13.52425
        },
        {
          "name": "Sant'Omero",
          "lat": 42.79011,
          "lng": 13.78906
        },
        {
          "name": "Santa Maria Imbaro",
          "lat": 42.21999,
          "lng": 14.45027
        },
        {
          "name": "Santa Teresa",
          "lat": 42.42753,
          "lng": 14.15816
        },
        {
          "name": "Sante Marie",
          "lat": 42.10369,
          "lng": 13.20163
        },
        {
          "name": "Santo Stefano di Sessanio",
          "lat": 42.34339,
          "lng": 13.64477
        },
        {
          "name": "Sassa",
          "lat": 42.35204,
          "lng": 13.29924
        },
        {
          "name": "Scafa",
          "lat": 42.26575,
          "lng": 13.99665
        },
        {
          "name": "Scanno",
          "lat": 41.90442,
          "lng": 13.87961
        },
        {
          "name": "Scerne",
          "lat": 42.64754,
          "lng": 14.03791
        },
        {
          "name": "Scerni",
          "lat": 42.10418,
          "lng": 14.57428
        },
        {
          "name": "Schiavi di Abruzzo",
          "lat": 41.81311,
          "lng": 14.48655
        },
        {
          "name": "Scontrone",
          "lat": 41.74681,
          "lng": 14.0388
        },
        {
          "name": "Scoppito",
          "lat": 42.36948,
          "lng": 13.25936
        },
        {
          "name": "Scurcola Marsicana",
          "lat": 42.06313,
          "lng": 13.33919
        },
        {
          "name": "Secinaro",
          "lat": 42.15062,
          "lng": 13.68145
        },
        {
          "name": "Selva",
          "lat": 42.11442,
          "lng": 14.34425
        },
        {
          "name": "Serramonacesca",
          "lat": 42.24795,
          "lng": 14.09297
        },
        {
          "name": "Silvi",
          "lat": 42.54984,
          "lng": 14.11759
        },
        {
          "name": "Spoltore",
          "lat": 42.45501,
          "lng": 14.13988
        },
        {
          "name": "Sulmona",
          "lat": 42.04945,
          "lng": 13.92578
        },
        {
          "name": "Tagliacozzo",
          "lat": 42.06933,
          "lng": 13.25469
        },
        {
          "name": "Taranta Peligna",
          "lat": 42.02052,
          "lng": 14.17103
        },
        {
          "name": "Teramo",
          "lat": 42.66123,
          "lng": 13.69901
        },
        {
          "name": "Tione degli Abruzzi",
          "lat": 42.20393,
          "lng": 13.6357
        },
        {
          "name": "Tocco da Casauria",
          "lat": 42.21203,
          "lng": 13.91547
        },
        {
          "name": "Tollo",
          "lat": 42.34542,
          "lng": 14.3236
        },
        {
          "name": "Torano Nuovo",
          "lat": 42.82305,
          "lng": 13.77729
        },
        {
          "name": "Torino di Sangro",
          "lat": 42.191,
          "lng": 14.54272
        },
        {
          "name": "Tornareccio",
          "lat": 42.03763,
          "lng": 14.41525
        },
        {
          "name": "Tornimparte",
          "lat": 42.29007,
          "lng": 13.30092
        },
        {
          "name": "Torre de' Passeri",
          "lat": 42.24324,
          "lng": 13.9333
        },
        {
          "name": "Torrebruna",
          "lat": 41.86742,
          "lng": 14.54148
        },
        {
          "name": "Torrevecchia",
          "lat": 42.38274,
          "lng": 14.21331
        },
        {
          "name": "Torricella",
          "lat": 42.65904,
          "lng": 13.65719
        },
        {
          "name": "Torricella Peligna",
          "lat": 42.02397,
          "lng": 14.25854
        },
        {
          "name": "Tortoreto",
          "lat": 42.80371,
          "lng": 13.91346
        },
        {
          "name": "Tortoreto Lido",
          "lat": 42.79956,
          "lng": 13.94205
        },
        {
          "name": "Tossicia",
          "lat": 42.54472,
          "lng": 13.64595
        },
        {
          "name": "Trasacco",
          "lat": 41.95742,
          "lng": 13.5327
        },
        {
          "name": "Treglio",
          "lat": 42.26184,
          "lng": 14.42315
        },
        {
          "name": "Tufillo",
          "lat": 41.91685,
          "lng": 14.62558
        },
        {
          "name": "Turrivalignani",
          "lat": 42.26296,
          "lng": 14.02852
        },
        {
          "name": "Vacri",
          "lat": 42.29764,
          "lng": 14.22901
        },
        {
          "name": "Valle Castellana",
          "lat": 42.73614,
          "lng": 13.49709
        },
        {
          "name": "Vallecupa",
          "lat": 42.25366,
          "lng": 13.57467
        },
        {
          "name": "Vasto",
          "lat": 42.1115,
          "lng": 14.70649
        },
        {
          "name": "Vicoli",
          "lat": 42.34095,
          "lng": 13.89688
        },
        {
          "name": "Villa Caldari",
          "lat": 42.29566,
          "lng": 14.36157
        },
        {
          "name": "Villa Celiera",
          "lat": 42.38184,
          "lng": 13.8586
        },
        {
          "name": "Villa Lempa",
          "lat": 42.79345,
          "lng": 13.64433
        },
        {
          "name": "Villa Raspa",
          "lat": 42.45542,
          "lng": 14.18457
        },
        {
          "name": "Villa Rosa",
          "lat": 42.85059,
          "lng": 13.92015
        },
        {
          "name": "Villa Sant'Angelo",
          "lat": 42.27043,
          "lng": 13.5371
        },
        {
          "name": "Villa Santa Lucia degli Abruzzi",
          "lat": 42.33286,
          "lng": 13.77792
        },
        {
          "name": "Villa Santa Maria",
          "lat": 41.9513,
          "lng": 14.35148
        },
        {
          "name": "Villagrande",
          "lat": 42.29533,
          "lng": 13.29999
        },
        {
          "name": "Villalago",
          "lat": 41.93514,
          "lng": 13.83868
        },
        {
          "name": "Villalfonsina",
          "lat": 42.16038,
          "lng": 14.56932
        },
        {
          "name": "Villamagna",
          "lat": 42.32984,
          "lng": 14.23689
        },
        {
          "name": "Villanova",
          "lat": 42.38251,
          "lng": 14.12338
        },
        {
          "name": "Villavallelonga",
          "lat": 41.87104,
          "lng": 13.62088
        },
        {
          "name": "Villetta Barrea",
          "lat": 41.77646,
          "lng": 13.93892
        },
        {
          "name": "Vittorito",
          "lat": 42.12703,
          "lng": 13.8167
        }
      ]
    },
    {
      "name": "Agrigento",
      "lat": 37.3122991,
      "lng": 13.57465,
      "districts": []
    },
    {
      "name": "Alessandria",
      "lat": 44.8349533,
      "lng": 8.7450304,
      "districts": []
    },
    {
      "name": "Ancona",
      "lat": 43.4801189,
      "lng": 13.2187279,
      "districts": []
    },
    {
      "name": "Aosta Valley",
      "lat": 45.730099,
      "lng": 7.387426,
      "districts": [
        {
          "name": "Allein",
          "lat": 45.80723,
          "lng": 7.27262
        },
        {
          "name": "Antagnod",
          "lat": 45.81484,
          "lng": 7.68931
        },
        {
          "name": "Antey-Saint-Andrè",
          "lat": 45.80603,
          "lng": 7.58666
        },
        {
          "name": "Aosta",
          "lat": 45.73764,
          "lng": 7.31722
        },
        {
          "name": "Arnad",
          "lat": 45.64726,
          "lng": 7.71701
        },
        {
          "name": "Arvier",
          "lat": 45.70205,
          "lng": 7.16267
        },
        {
          "name": "Avise",
          "lat": 45.70886,
          "lng": 7.1399
        },
        {
          "name": "Ayas",
          "lat": 45.81506,
          "lng": 7.68911
        },
        {
          "name": "Aymavilles",
          "lat": 45.7013,
          "lng": 7.24683
        },
        {
          "name": "Bard",
          "lat": 45.60936,
          "lng": 7.74491
        },
        {
          "name": "Berriat",
          "lat": 45.70729,
          "lng": 7.67617
        },
        {
          "name": "Bionaz",
          "lat": 45.87356,
          "lng": 7.4231
        },
        {
          "name": "Brusson",
          "lat": 45.75926,
          "lng": 7.72899
        },
        {
          "name": "Challand-Saint-Anselme",
          "lat": 45.71456,
          "lng": 7.73451
        },
        {
          "name": "Challand-Saint-Victor",
          "lat": 45.69046,
          "lng": 7.70471
        },
        {
          "name": "Chambave",
          "lat": 45.74426,
          "lng": 7.54931
        },
        {
          "name": "Chamois",
          "lat": 45.83886,
          "lng": 7.61871
        },
        {
          "name": "Champdepraz",
          "lat": 45.68526,
          "lng": 7.65681
        },
        {
          "name": "Champorcher",
          "lat": 45.62376,
          "lng": 7.62151
        },
        {
          "name": "Charvensod",
          "lat": 45.72025,
          "lng": 7.32433
        },
        {
          "name": "Chatillon",
          "lat": 45.74991,
          "lng": 7.61668
        },
        {
          "name": "Chef-Lieu",
          "lat": 45.75091,
          "lng": 7.35372
        },
        {
          "name": "Cogne",
          "lat": 45.60742,
          "lng": 7.35803
        },
        {
          "name": "Courmayeur",
          "lat": 45.79659,
          "lng": 6.96893
        },
        {
          "name": "Donnas",
          "lat": 45.60286,
          "lng": 7.77491
        },
        {
          "name": "Doues",
          "lat": 45.81916,
          "lng": 7.306
        },
        {
          "name": "Emarese",
          "lat": 45.72489,
          "lng": 7.68976
        },
        {
          "name": "Etroubles",
          "lat": 45.82082,
          "lng": 7.23137
        },
        {
          "name": "Fénis",
          "lat": 45.73469,
          "lng": 7.49544
        },
        {
          "name": "Fontainemore",
          "lat": 45.64746,
          "lng": 7.85952
        },
        {
          "name": "Gaby",
          "lat": 45.713,
          "lng": 7.88224
        },
        {
          "name": "Gignod",
          "lat": 45.77996,
          "lng": 7.2964
        },
        {
          "name": "Grand Brissogne",
          "lat": 45.72566,
          "lng": 7.3926
        },
        {
          "name": "Gressan",
          "lat": 45.7205,
          "lng": 7.29311
        },
        {
          "name": "Gressoney-La-Trinitè",
          "lat": 45.82967,
          "lng": 7.82321
        },
        {
          "name": "Gressoney-Saint-Jean",
          "lat": 45.77272,
          "lng": 7.82802
        },
        {
          "name": "Hone",
          "lat": 45.61356,
          "lng": 7.73851
        },
        {
          "name": "Introd",
          "lat": 45.69306,
          "lng": 7.1824
        },
        {
          "name": "Issime",
          "lat": 45.68546,
          "lng": 7.85411
        },
        {
          "name": "Issogne",
          "lat": 45.65496,
          "lng": 7.68571
        },
        {
          "name": "Jovencan",
          "lat": 45.71486,
          "lng": 7.2726
        },
        {
          "name": "La Cretaz-Roisan",
          "lat": 45.78396,
          "lng": 7.3131
        },
        {
          "name": "La Magdeleine",
          "lat": 45.80996,
          "lng": 7.61871
        },
        {
          "name": "La Place",
          "lat": 45.65414,
          "lng": 7.68414
        },
        {
          "name": "La Salle",
          "lat": 45.74497,
          "lng": 7.07295
        },
        {
          "name": "La Thuile",
          "lat": 45.71366,
          "lng": 6.95099
        },
        {
          "name": "Lassolaz",
          "lat": 45.73851,
          "lng": 7.58883
        },
        {
          "name": "Lillianes",
          "lat": 45.62948,
          "lng": 7.84126
        },
        {
          "name": "Mongnod",
          "lat": 45.80549,
          "lng": 7.56806
        },
        {
          "name": "Montan-Angelin-Arensod",
          "lat": 45.7282,
          "lng": 7.27647
        },
        {
          "name": "Montjovet",
          "lat": 45.70796,
          "lng": 7.67411
        },
        {
          "name": "Morgex",
          "lat": 45.75664,
          "lng": 7.04123
        },
        {
          "name": "Nus",
          "lat": 45.74026,
          "lng": 7.4666
        },
        {
          "name": "Ollomont",
          "lat": 45.84976,
          "lng": 7.3106
        },
        {
          "name": "Oyace",
          "lat": 45.85116,
          "lng": 7.383
        },
        {
          "name": "Paquier",
          "lat": 45.87879,
          "lng": 7.62575
        },
        {
          "name": "Perloz",
          "lat": 45.61386,
          "lng": 7.80811
        },
        {
          "name": "Petit Fenis",
          "lat": 45.75115,
          "lng": 7.46391
        },
        {
          "name": "Plan d'Introd",
          "lat": 45.69203,
          "lng": 7.18328
        },
        {
          "name": "Pollein",
          "lat": 45.7278,
          "lng": 7.35146
        },
        {
          "name": "Pont-Bozet",
          "lat": 45.60726,
          "lng": 7.68641
        },
        {
          "name": "Pont-Saint-Martin",
          "lat": 45.59536,
          "lng": 7.79451
        },
        {
          "name": "Pontey",
          "lat": 45.73886,
          "lng": 7.58831
        },
        {
          "name": "Prè Saint Didier",
          "lat": 45.76416,
          "lng": 6.98579
        },
        {
          "name": "Quart",
          "lat": 45.74096,
          "lng": 7.4152
        },
        {
          "name": "Quincod",
          "lat": 45.71513,
          "lng": 7.73495
        },
        {
          "name": "Rhemes-Notre-Dame",
          "lat": 45.56965,
          "lng": 7.1187
        },
        {
          "name": "Rhemes-Saint-Georges",
          "lat": 45.65226,
          "lng": 7.1544
        },
        {
          "name": "Saint Marcel",
          "lat": 45.73146,
          "lng": 7.4482
        },
        {
          "name": "Saint Maurice",
          "lat": 45.71771,
          "lng": 7.25547
        },
        {
          "name": "Saint-Christophe",
          "lat": 45.75406,
          "lng": 7.3472
        },
        {
          "name": "Saint-Denis",
          "lat": 45.75256,
          "lng": 7.55531
        },
        {
          "name": "Saint-Nicolas",
          "lat": 45.71656,
          "lng": 7.1667
        },
        {
          "name": "Saint-Oyen",
          "lat": 45.82439,
          "lng": 7.21372
        },
        {
          "name": "Saint-Pierre",
          "lat": 45.71153,
          "lng": 7.22683
        },
        {
          "name": "Saint-Rhémy",
          "lat": 45.83553,
          "lng": 7.18393
        },
        {
          "name": "Saint-Vincent",
          "lat": 45.75082,
          "lng": 7.64815
        },
        {
          "name": "San Leonardo",
          "lat": 45.82366,
          "lng": 7.1814
        },
        {
          "name": "Torgnon",
          "lat": 45.80616,
          "lng": 7.5698
        },
        {
          "name": "Valgrisenche",
          "lat": 45.63036,
          "lng": 7.064
        },
        {
          "name": "Valle d'Aosta",
          "lat": 45.76667,
          "lng": 7.41667
        },
        {
          "name": "Valpelline",
          "lat": 45.82486,
          "lng": 7.3255
        },
        {
          "name": "Valsavarenche",
          "lat": 45.59186,
          "lng": 7.21
        },
        {
          "name": "Valtournenche",
          "lat": 45.87607,
          "lng": 7.6243
        },
        {
          "name": "Verrayes",
          "lat": 45.76326,
          "lng": 7.5346
        },
        {
          "name": "Verres",
          "lat": 45.66656,
          "lng": 7.68911
        },
        {
          "name": "Villa-Nabian",
          "lat": 45.6897,
          "lng": 7.7047
        },
        {
          "name": "Villair-Amerique",
          "lat": 45.74793,
          "lng": 7.38982
        },
        {
          "name": "Ville Sur Sarre",
          "lat": 45.73339,
          "lng": 7.25857
        },
        {
          "name": "Villefranche",
          "lat": 45.74064,
          "lng": 7.41598
        },
        {
          "name": "Villeneuve",
          "lat": 45.70201,
          "lng": 7.20682
        }
      ]
    },
    {
      "name": "Apulia",
      "lat": 40.9842539,
      "lng": 16.6210027,
      "districts": [
        {
          "name": "Bari",
          "lat": 40.93333,
          "lng": 16.66667
        },
        {
          "name": "Foggia",
          "lat": 41.45845,
          "lng": 15.55188
        },
        {
          "name": "Taranto",
          "lat": 40.46438,
          "lng": 17.24707
        },
        {
          "name": "Accadia",
          "lat": 41.15768,
          "lng": 15.331
        },
        {
          "name": "Acquarica del Capo",
          "lat": 39.90979,
          "lng": 18.2468
        },
        {
          "name": "Acquaviva delle Fonti",
          "lat": 40.89704,
          "lng": 16.8433
        },
        {
          "name": "Adelfia",
          "lat": 41.0033,
          "lng": 16.87208
        },
        {
          "name": "Alberobello",
          "lat": 40.78448,
          "lng": 17.23618
        },
        {
          "name": "Alberona",
          "lat": 41.43225,
          "lng": 15.12304
        },
        {
          "name": "Alessano",
          "lat": 39.89381,
          "lng": 18.33221
        },
        {
          "name": "Alezio",
          "lat": 40.06226,
          "lng": 18.05712
        },
        {
          "name": "Alliste",
          "lat": 39.94803,
          "lng": 18.08971
        },
        {
          "name": "Altamura",
          "lat": 40.82664,
          "lng": 16.54952
        },
        {
          "name": "Andrano",
          "lat": 39.98546,
          "lng": 18.38232
        },
        {
          "name": "Anzano di Puglia",
          "lat": 41.12162,
          "lng": 15.28688
        },
        {
          "name": "Apricena",
          "lat": 41.78629,
          "lng": 15.44394
        },
        {
          "name": "Aradeo",
          "lat": 40.12921,
          "lng": 18.12951
        },
        {
          "name": "Arnesano",
          "lat": 40.33679,
          "lng": 18.09145
        },
        {
          "name": "Ascoli Satriano",
          "lat": 41.20365,
          "lng": 15.56646
        },
        {
          "name": "Avetrana",
          "lat": 40.3507,
          "lng": 17.7326
        },
        {
          "name": "Bagnolo del Salento",
          "lat": 40.14908,
          "lng": 18.35208
        },
        {
          "name": "Biccari",
          "lat": 41.39736,
          "lng": 15.19644
        },
        {
          "name": "Binetto",
          "lat": 41.02343,
          "lng": 16.70988
        },
        {
          "name": "Bitetto",
          "lat": 41.04146,
          "lng": 16.74806
        },
        {
          "name": "Bitonto",
          "lat": 41.11006,
          "lng": 16.69086
        },
        {
          "name": "Bitritto",
          "lat": 41.04336,
          "lng": 16.82682
        },
        {
          "name": "Borgagne",
          "lat": 40.24108,
          "lng": 18.37661
        },
        {
          "name": "Botrugno",
          "lat": 40.06359,
          "lng": 18.32254
        },
        {
          "name": "Bovino",
          "lat": 41.24916,
          "lng": 15.33948
        },
        {
          "name": "Brindisi",
          "lat": 40.63215,
          "lng": 17.93607
        },
        {
          "name": "Cagnano Varano",
          "lat": 41.82832,
          "lng": 15.77203
        },
        {
          "name": "Calimera",
          "lat": 40.24948,
          "lng": 18.27982
        },
        {
          "name": "Campi Salentina",
          "lat": 40.39747,
          "lng": 18.02141
        },
        {
          "name": "Candela",
          "lat": 41.13601,
          "lng": 15.51537
        },
        {
          "name": "Cannole",
          "lat": 40.16592,
          "lng": 18.36456
        },
        {
          "name": "Capirro",
          "lat": 41.25403,
          "lng": 16.42242
        },
        {
          "name": "Caprarica di Lecce",
          "lat": 40.2606,
          "lng": 18.24426
        },
        {
          "name": "Capurso",
          "lat": 41.04598,
          "lng": 16.92168
        },
        {
          "name": "Carapelle",
          "lat": 41.36365,
          "lng": 15.69384
        },
        {
          "name": "Carlantino",
          "lat": 41.59388,
          "lng": 14.97681
        },
        {
          "name": "Carmiano",
          "lat": 40.34404,
          "lng": 18.04195
        },
        {
          "name": "Carosino",
          "lat": 40.46538,
          "lng": 17.39857
        },
        {
          "name": "Carovigno",
          "lat": 40.70626,
          "lng": 17.65847
        },
        {
          "name": "Carpignano Salentino",
          "lat": 40.19537,
          "lng": 18.33826
        },
        {
          "name": "Carpino",
          "lat": 41.8445,
          "lng": 15.85712
        },
        {
          "name": "Casalini",
          "lat": 40.73777,
          "lng": 17.47062
        },
        {
          "name": "Casalnuovo Monterotaro",
          "lat": 41.61942,
          "lng": 15.10411
        },
        {
          "name": "Casalvecchio di Puglia",
          "lat": 41.5947,
          "lng": 15.10999
        },
        {
          "name": "Casamassella",
          "lat": 40.11424,
          "lng": 18.451
        },
        {
          "name": "Casamassima",
          "lat": 40.95653,
          "lng": 16.92075
        },
        {
          "name": "Casarano",
          "lat": 40.01131,
          "lng": 18.16237
        },
        {
          "name": "Cassano delle Murge",
          "lat": 40.89112,
          "lng": 16.76531
        },
        {
          "name": "Castellana",
          "lat": 40.88643,
          "lng": 17.16549
        },
        {
          "name": "Castellaneta",
          "lat": 40.62794,
          "lng": 16.9329
        },
        {
          "name": "Castelluccio dei Sauri",
          "lat": 41.3046,
          "lng": 15.47561
        },
        {
          "name": "Castelluccio Valmaggiore",
          "lat": 41.3429,
          "lng": 15.19944
        },
        {
          "name": "Castelnuovo della Daunia",
          "lat": 41.58139,
          "lng": 15.11796
        },
        {
          "name": "Castiglione",
          "lat": 39.98333,
          "lng": 18.35
        },
        {
          "name": "Castri di Lecce",
          "lat": 40.2736,
          "lng": 18.2624
        },
        {
          "name": "Castrignano De' Greci",
          "lat": 40.17342,
          "lng": 18.29643
        },
        {
          "name": "Castrignano del Capo",
          "lat": 39.8328,
          "lng": 18.35087
        },
        {
          "name": "Castro",
          "lat": 40.00702,
          "lng": 18.42573
        },
        {
          "name": "Castromediano",
          "lat": 40.32803,
          "lng": 18.17877
        },
        {
          "name": "Cavallino",
          "lat": 40.3102,
          "lng": 18.20221
        },
        {
          "name": "Ceglie Messapica",
          "lat": 40.6462,
          "lng": 17.51661
        },
        {
          "name": "Celenza Valfortore",
          "lat": 41.56048,
          "lng": 14.97898
        },
        {
          "name": "Cellamare",
          "lat": 41.01969,
          "lng": 16.92741
        },
        {
          "name": "Celle di San Vito",
          "lat": 41.32593,
          "lng": 15.18104
        },
        {
          "name": "Cellino San Marco",
          "lat": 40.47133,
          "lng": 17.96427
        },
        {
          "name": "Cerfignano",
          "lat": 40.06107,
          "lng": 18.44291
        },
        {
          "name": "Cerignola",
          "lat": 41.26523,
          "lng": 15.89559
        },
        {
          "name": "Chieuti",
          "lat": 41.84486,
          "lng": 15.16681
        },
        {
          "name": "Cisternino",
          "lat": 40.74326,
          "lng": 17.42587
        },
        {
          "name": "Collemeto",
          "lat": 40.20885,
          "lng": 18.10285
        },
        {
          "name": "Collepasso",
          "lat": 40.07115,
          "lng": 18.16222
        },
        {
          "name": "Conversano",
          "lat": 40.96836,
          "lng": 17.11329
        },
        {
          "name": "Copertino",
          "lat": 40.26821,
          "lng": 18.0543
        },
        {
          "name": "Corato",
          "lat": 41.15171,
          "lng": 16.41143
        },
        {
          "name": "Corigliano d'Otranto",
          "lat": 40.15925,
          "lng": 18.25598
        },
        {
          "name": "Corsano",
          "lat": 39.88911,
          "lng": 18.36747
        },
        {
          "name": "Cozzana",
          "lat": 40.92025,
          "lng": 17.22259
        },
        {
          "name": "Crispiano",
          "lat": 40.60379,
          "lng": 17.2329
        },
        {
          "name": "Cursi",
          "lat": 40.14847,
          "lng": 18.31605
        },
        {
          "name": "Cutrofiano",
          "lat": 40.12616,
          "lng": 18.2026
        },
        {
          "name": "Deliceto",
          "lat": 41.22289,
          "lng": 15.38447
        },
        {
          "name": "Depressa",
          "lat": 39.95908,
          "lng": 18.36174
        },
        {
          "name": "Diso",
          "lat": 40.00915,
          "lng": 18.39144
        },
        {
          "name": "Erchie",
          "lat": 40.43609,
          "lng": 17.7361
        },
        {
          "name": "Faeto",
          "lat": 41.32489,
          "lng": 15.16045
        },
        {
          "name": "Faggiano",
          "lat": 40.41616,
          "lng": 17.38861
        },
        {
          "name": "Fasano",
          "lat": 40.83625,
          "lng": 17.36007
        },
        {
          "name": "Felline",
          "lat": 39.93651,
          "lng": 18.11822
        },
        {
          "name": "Fragagnano",
          "lat": 40.4302,
          "lng": 17.47553
        },
        {
          "name": "Francavilla Fontana",
          "lat": 40.53123,
          "lng": 17.58522
        },
        {
          "name": "Gagliano del Capo",
          "lat": 39.84323,
          "lng": 18.36962
        },
        {
          "name": "Galatina",
          "lat": 40.17416,
          "lng": 18.17032
        },
        {
          "name": "Galatone",
          "lat": 40.14673,
          "lng": 18.06937
        },
        {
          "name": "Gallipoli",
          "lat": 40.05594,
          "lng": 17.99088
        },
        {
          "name": "Galugnano",
          "lat": 40.25601,
          "lng": 18.21473
        },
        {
          "name": "Gemini",
          "lat": 39.91134,
          "lng": 18.18742
        },
        {
          "name": "Ginosa",
          "lat": 40.5769,
          "lng": 16.75655
        },
        {
          "name": "Gioia del Colle",
          "lat": 40.79968,
          "lng": 16.92298
        },
        {
          "name": "Giorgilorio",
          "lat": 40.38683,
          "lng": 18.14873
        },
        {
          "name": "Giovinazzo",
          "lat": 41.185,
          "lng": 16.67054
        },
        {
          "name": "Giuggianello",
          "lat": 40.09383,
          "lng": 18.36894
        },
        {
          "name": "Giurdignano",
          "lat": 40.12367,
          "lng": 18.43155
        },
        {
          "name": "Gravina in Puglia",
          "lat": 40.81748,
          "lng": 16.41915
        },
        {
          "name": "Grottaglie",
          "lat": 40.53694,
          "lng": 17.43723
        },
        {
          "name": "Grumo Appula",
          "lat": 41.01089,
          "lng": 16.70844
        },
        {
          "name": "Guagnano",
          "lat": 40.40123,
          "lng": 17.94902
        },
        {
          "name": "Ischitella",
          "lat": 41.90434,
          "lng": 15.89945
        },
        {
          "name": "Isole Tremiti",
          "lat": 42.12085,
          "lng": 15.50424
        },
        {
          "name": "La Rosa",
          "lat": 40.60674,
          "lng": 17.95207
        },
        {
          "name": "Lamie",
          "lat": 41.03364,
          "lng": 16.87559
        },
        {
          "name": "Lamie di Olimpie-Selva",
          "lat": 40.81714,
          "lng": 17.33478
        },
        {
          "name": "Laterza",
          "lat": 40.62881,
          "lng": 16.79947
        },
        {
          "name": "Latiano",
          "lat": 40.55052,
          "lng": 17.71856
        },
        {
          "name": "Lecce",
          "lat": 40.35481,
          "lng": 18.17244
        },
        {
          "name": "Leporano",
          "lat": 40.38218,
          "lng": 17.33426
        },
        {
          "name": "Leporano Marina",
          "lat": 40.3786,
          "lng": 17.3096
        },
        {
          "name": "Lequile",
          "lat": 40.30583,
          "lng": 18.14022
        },
        {
          "name": "Lesina",
          "lat": 41.86125,
          "lng": 15.35322
        },
        {
          "name": "Leuca",
          "lat": 39.79949,
          "lng": 18.35815
        },
        {
          "name": "Leverano",
          "lat": 40.28852,
          "lng": 17.9965
        },
        {
          "name": "Lizzanello",
          "lat": 40.30475,
          "lng": 18.22283
        },
        {
          "name": "Lizzano",
          "lat": 40.39301,
          "lng": 17.44571
        },
        {
          "name": "Locorotondo",
          "lat": 40.75661,
          "lng": 17.32392
        },
        {
          "name": "Loseto",
          "lat": 41.04214,
          "lng": 16.84917
        },
        {
          "name": "Lucera",
          "lat": 41.5055,
          "lng": 15.3391
        },
        {
          "name": "Lucugnano",
          "lat": 39.9349,
          "lng": 18.32174
        },
        {
          "name": "Magliano",
          "lat": 40.3374,
          "lng": 18.06287
        },
        {
          "name": "Maglie",
          "lat": 40.12069,
          "lng": 18.29797
        },
        {
          "name": "Manduria",
          "lat": 40.39899,
          "lng": 17.63726
        },
        {
          "name": "Manfredonia",
          "lat": 41.63065,
          "lng": 15.91876
        },
        {
          "name": "Marina di Ginosa",
          "lat": 40.42833,
          "lng": 16.88003
        },
        {
          "name": "Mariotto",
          "lat": 41.05028,
          "lng": 16.56142
        },
        {
          "name": "Marittima",
          "lat": 39.99609,
          "lng": 18.39895
        },
        {
          "name": "Martano",
          "lat": 40.20205,
          "lng": 18.30193
        },
        {
          "name": "Martignano",
          "lat": 40.23821,
          "lng": 18.25602
        },
        {
          "name": "Martina Franca",
          "lat": 40.70355,
          "lng": 17.33814
        },
        {
          "name": "Maruggio",
          "lat": 40.32054,
          "lng": 17.57052
        },
        {
          "name": "Massafra",
          "lat": 40.58618,
          "lng": 17.11635
        },
        {
          "name": "Materdomini",
          "lat": 40.65571,
          "lng": 17.95949
        },
        {
          "name": "Matino",
          "lat": 40.03083,
          "lng": 18.1363
        },
        {
          "name": "Mattinata",
          "lat": 41.71112,
          "lng": 16.05087
        },
        {
          "name": "Melendugno",
          "lat": 40.27252,
          "lng": 18.33798
        },
        {
          "name": "Melissano",
          "lat": 39.97315,
          "lng": 18.12113
        },
        {
          "name": "Melpignano",
          "lat": 40.15624,
          "lng": 18.29194
        },
        {
          "name": "Merine",
          "lat": 40.33418,
          "lng": 18.22383
        },
        {
          "name": "Mesagne",
          "lat": 40.55851,
          "lng": 17.80774
        },
        {
          "name": "Miggiano",
          "lat": 39.9618,
          "lng": 18.31119
        },
        {
          "name": "Minervino di Lecce",
          "lat": 40.09025,
          "lng": 18.42139
        },
        {
          "name": "Modugno",
          "lat": 41.08433,
          "lng": 16.78342
        },
        {
          "name": "Mola di Bari",
          "lat": 41.05997,
          "lng": 17.09001
        },
        {
          "name": "Molfetta",
          "lat": 41.20036,
          "lng": 16.59905
        },
        {
          "name": "Monopoli",
          "lat": 40.94918,
          "lng": 17.29717
        },
        {
          "name": "Montalbano",
          "lat": 40.77827,
          "lng": 17.48157
        },
        {
          "name": "Monte Sant'Angelo",
          "lat": 41.7053,
          "lng": 15.96068
        },
        {
          "name": "Monteiasi",
          "lat": 40.49992,
          "lng": 17.3826
        },
        {
          "name": "Monteleone di Puglia",
          "lat": 41.16711,
          "lng": 15.25822
        },
        {
          "name": "Montemesola",
          "lat": 40.5676,
          "lng": 17.33665
        },
        {
          "name": "Monteparano",
          "lat": 40.44335,
          "lng": 17.41308
        },
        {
          "name": "Monteroni di Lecce",
          "lat": 40.31929,
          "lng": 18.09163
        },
        {
          "name": "Montesano Salentino",
          "lat": 39.97544,
          "lng": 18.32277
        },
        {
          "name": "Montesardo",
          "lat": 39.87572,
          "lng": 18.33967
        },
        {
          "name": "Monti d'Arena-Bosco Caggione",
          "lat": 40.3551,
          "lng": 17.36432
        },
        {
          "name": "Morciano di Leuca",
          "lat": 39.84719,
          "lng": 18.31089
        },
        {
          "name": "Motta Montecorvino",
          "lat": 41.50743,
          "lng": 15.11414
        },
        {
          "name": "Mottola",
          "lat": 40.6389,
          "lng": 17.03432
        },
        {
          "name": "Muro Leccese",
          "lat": 40.10286,
          "lng": 18.33674
        },
        {
          "name": "Nardò",
          "lat": 40.17953,
          "lng": 18.03174
        },
        {
          "name": "Neviano",
          "lat": 40.1065,
          "lng": 18.11517
        },
        {
          "name": "Noci",
          "lat": 40.79356,
          "lng": 17.12681
        },
        {
          "name": "Nociglia",
          "lat": 40.03804,
          "lng": 18.32757
        },
        {
          "name": "Noha",
          "lat": 40.15323,
          "lng": 18.16569
        },
        {
          "name": "Noicattaro",
          "lat": 41.03449,
          "lng": 16.98963
        },
        {
          "name": "Novoli",
          "lat": 40.37673,
          "lng": 18.04757
        },
        {
          "name": "Ordona",
          "lat": 41.31501,
          "lng": 15.62832
        },
        {
          "name": "Oria",
          "lat": 40.49999,
          "lng": 17.6428
        },
        {
          "name": "Orsara di Puglia",
          "lat": 41.28163,
          "lng": 15.26765
        },
        {
          "name": "Orta Nova",
          "lat": 41.32879,
          "lng": 15.70994
        },
        {
          "name": "Ortelle",
          "lat": 40.03371,
          "lng": 18.39125
        },
        {
          "name": "Ostuni",
          "lat": 40.72913,
          "lng": 17.57675
        },
        {
          "name": "Otranto",
          "lat": 40.14789,
          "lng": 18.48682
        },
        {
          "name": "Palagianello",
          "lat": 40.60851,
          "lng": 16.97802
        },
        {
          "name": "Palagiano",
          "lat": 40.57762,
          "lng": 17.03812
        },
        {
          "name": "Palmariggi",
          "lat": 40.13099,
          "lng": 18.37863
        },
        {
          "name": "Palo del Colle",
          "lat": 41.05562,
          "lng": 16.70321
        },
        {
          "name": "Palombaio",
          "lat": 41.07036,
          "lng": 16.60962
        },
        {
          "name": "Panni",
          "lat": 41.22082,
          "lng": 15.2756
        },
        {
          "name": "Paolo VI",
          "lat": 40.52218,
          "lng": 17.27401
        },
        {
          "name": "Parabita",
          "lat": 40.05139,
          "lng": 18.12651
        },
        {
          "name": "Parco Scizzo-Parchitello",
          "lat": 41.07457,
          "lng": 16.99329
        },
        {
          "name": "Patù",
          "lat": 39.84078,
          "lng": 18.33784
        },
        {
          "name": "Peschici",
          "lat": 41.94521,
          "lng": 16.01612
        },
        {
          "name": "Pezze di Greco",
          "lat": 40.81004,
          "lng": 17.41333
        },
        {
          "name": "Pietramontecorvino",
          "lat": 41.54228,
          "lng": 15.12894
        },
        {
          "name": "Pisignano",
          "lat": 40.3047,
          "lng": 18.27155
        },
        {
          "name": "Poggiardo",
          "lat": 40.05315,
          "lng": 18.37819
        },
        {
          "name": "Poggio Imperiale",
          "lat": 41.82503,
          "lng": 15.3668
        },
        {
          "name": "Poggiorsini",
          "lat": 40.91403,
          "lng": 16.25605
        },
        {
          "name": "Polignano a Mare",
          "lat": 40.99221,
          "lng": 17.22149
        },
        {
          "name": "Porto Cesareo",
          "lat": 40.26228,
          "lng": 17.89896
        },
        {
          "name": "Presicce",
          "lat": 39.90055,
          "lng": 18.26282
        },
        {
          "name": "Provincia di Barletta - Andria - Trani",
          "lat": 41.25097,
          "lng": 16.17599
        },
        {
          "name": "Provincia di Brindisi",
          "lat": 40.58333,
          "lng": 17.66667
        },
        {
          "name": "Provincia di Foggia",
          "lat": 41.45,
          "lng": 15.53333
        },
        {
          "name": "Provincia di Lecce",
          "lat": 40.21667,
          "lng": 18.16667
        },
        {
          "name": "Provincia di Taranto",
          "lat": 40.61667,
          "lng": 17.25
        },
        {
          "name": "Pulsano",
          "lat": 40.38109,
          "lng": 17.35612
        },
        {
          "name": "Putignano",
          "lat": 40.85106,
          "lng": 17.1219
        },
        {
          "name": "Quasano",
          "lat": 40.96724,
          "lng": 16.57354
        },
        {
          "name": "Racale",
          "lat": 39.96086,
          "lng": 18.09154
        },
        {
          "name": "Rignano Garganico",
          "lat": 41.67934,
          "lng": 15.58835
        },
        {
          "name": "Roccaforzata",
          "lat": 40.437,
          "lng": 17.38986
        },
        {
          "name": "Rocchetta Sant'Antonio",
          "lat": 41.10326,
          "lng": 15.45993
        },
        {
          "name": "Rodi Garganico",
          "lat": 41.92745,
          "lng": 15.88217
        },
        {
          "name": "Roseto Valfortore",
          "lat": 41.37544,
          "lng": 15.09824
        },
        {
          "name": "Ruffano",
          "lat": 39.98195,
          "lng": 18.24974
        },
        {
          "name": "Rutigliano",
          "lat": 41.00997,
          "lng": 17.00558
        },
        {
          "name": "Ruvo di Puglia",
          "lat": 41.11758,
          "lng": 16.48421
        },
        {
          "name": "Salice Salentino",
          "lat": 40.38485,
          "lng": 17.96134
        },
        {
          "name": "Salve",
          "lat": 39.86111,
          "lng": 18.29493
        },
        {
          "name": "Sammichele di Bari",
          "lat": 40.88711,
          "lng": 16.94919
        },
        {
          "name": "San Cassiano",
          "lat": 40.05631,
          "lng": 18.33392
        },
        {
          "name": "San Cesario di Lecce",
          "lat": 40.30221,
          "lng": 18.16098
        },
        {
          "name": "San Donaci",
          "lat": 40.44853,
          "lng": 17.92252
        },
        {
          "name": "San Donato di Lecce",
          "lat": 40.26728,
          "lng": 18.18256
        },
        {
          "name": "San Giorgio Ionico",
          "lat": 40.45796,
          "lng": 17.38034
        },
        {
          "name": "San Giovanni Rotondo",
          "lat": 41.70643,
          "lng": 15.7277
        },
        {
          "name": "San Marco in Lamis",
          "lat": 41.7121,
          "lng": 15.63825
        },
        {
          "name": "San Marco la Catola",
          "lat": 41.52483,
          "lng": 15.00594
        },
        {
          "name": "San Marzano di San Giuseppe",
          "lat": 40.45455,
          "lng": 17.50351
        },
        {
          "name": "San Michele Salentino",
          "lat": 40.63163,
          "lng": 17.63254
        },
        {
          "name": "San Pancrazio Salentino",
          "lat": 40.418,
          "lng": 17.83419
        },
        {
          "name": "San Paolo",
          "lat": 41.12476,
          "lng": 16.79258
        },
        {
          "name": "San Paolo di Civitate",
          "lat": 41.73893,
          "lng": 15.2608
        },
        {
          "name": "San Pietro in Lama",
          "lat": 40.30711,
          "lng": 18.12787
        },
        {
          "name": "San Pietro Vernotico",
          "lat": 40.4889,
          "lng": 17.99752
        },
        {
          "name": "San Severo",
          "lat": 41.68564,
          "lng": 15.38148
        },
        {
          "name": "San Vito dei Normanni",
          "lat": 40.65642,
          "lng": 17.70814
        },
        {
          "name": "Sanarica",
          "lat": 40.08908,
          "lng": 18.34803
        },
        {
          "name": "Sannicandro di Bari",
          "lat": 41.00047,
          "lng": 16.79714
        },
        {
          "name": "Sannicandro Garganico",
          "lat": 41.83844,
          "lng": 15.56535
        },
        {
          "name": "Sannicola",
          "lat": 40.09244,
          "lng": 18.06765
        },
        {
          "name": "Sant'Agata di Puglia",
          "lat": 41.15127,
          "lng": 15.37968
        },
        {
          "name": "Santa Cesarea Terme",
          "lat": 40.03607,
          "lng": 18.45542
        },
        {
          "name": "Santeramo in Colle",
          "lat": 40.79236,
          "lng": 16.75873
        },
        {
          "name": "Sava",
          "lat": 40.40203,
          "lng": 17.55267
        },
        {
          "name": "Scorrano",
          "lat": 40.09018,
          "lng": 18.29993
        },
        {
          "name": "Seclì",
          "lat": 40.11897,
          "lng": 18.10931
        },
        {
          "name": "Serracapriola",
          "lat": 41.80912,
          "lng": 15.16098
        },
        {
          "name": "Serrano",
          "lat": 40.18438,
          "lng": 18.35156
        },
        {
          "name": "Sogliano Cavour",
          "lat": 40.14827,
          "lng": 18.19741
        },
        {
          "name": "Soleto",
          "lat": 40.18781,
          "lng": 18.2063
        },
        {
          "name": "Specchia",
          "lat": 39.93913,
          "lng": 18.29784
        },
        {
          "name": "Spongano",
          "lat": 40.01782,
          "lng": 18.36563
        },
        {
          "name": "Squinzano",
          "lat": 40.43513,
          "lng": 18.04086
        },
        {
          "name": "Statte",
          "lat": 40.52856,
          "lng": 17.20122
        },
        {
          "name": "Sternatia",
          "lat": 40.22022,
          "lng": 18.22748
        },
        {
          "name": "Stornara",
          "lat": 41.28672,
          "lng": 15.77003
        },
        {
          "name": "Stornarella",
          "lat": 41.25591,
          "lng": 15.73023
        },
        {
          "name": "Strudà",
          "lat": 40.31991,
          "lng": 18.28176
        },
        {
          "name": "Supersano",
          "lat": 40.01655,
          "lng": 18.24205
        },
        {
          "name": "Surano",
          "lat": 40.02818,
          "lng": 18.34591
        },
        {
          "name": "Surbo",
          "lat": 40.39383,
          "lng": 18.13456
        },
        {
          "name": "Taurisano",
          "lat": 39.95746,
          "lng": 18.21498
        },
        {
          "name": "Taviano",
          "lat": 39.98224,
          "lng": 18.08151
        },
        {
          "name": "Terlizzi",
          "lat": 41.12905,
          "lng": 16.54536
        },
        {
          "name": "Tiggiano",
          "lat": 39.90284,
          "lng": 18.36501
        },
        {
          "name": "Torchiarolo",
          "lat": 40.48349,
          "lng": 18.05122
        },
        {
          "name": "Toritto",
          "lat": 40.99774,
          "lng": 16.67945
        },
        {
          "name": "Torre San Giovanni",
          "lat": 39.89001,
          "lng": 18.11159
        },
        {
          "name": "Torre Santa Susanna",
          "lat": 40.46762,
          "lng": 17.73864
        },
        {
          "name": "Torremaggiore",
          "lat": 41.68894,
          "lng": 15.29408
        },
        {
          "name": "Torricella",
          "lat": 40.35509,
          "lng": 17.49846
        },
        {
          "name": "Trepuzzi",
          "lat": 40.40535,
          "lng": 18.07625
        },
        {
          "name": "Tricase",
          "lat": 39.93018,
          "lng": 18.35421
        },
        {
          "name": "Triggiano",
          "lat": 41.06549,
          "lng": 16.92501
        },
        {
          "name": "Troia",
          "lat": 41.36428,
          "lng": 15.3173
        },
        {
          "name": "Tuglie",
          "lat": 40.07346,
          "lng": 18.09872
        },
        {
          "name": "Turi",
          "lat": 40.91657,
          "lng": 17.02038
        },
        {
          "name": "Tuturano",
          "lat": 40.54474,
          "lng": 17.94754
        },
        {
          "name": "Ugento",
          "lat": 39.92724,
          "lng": 18.15832
        },
        {
          "name": "Uggiano la Chiesa",
          "lat": 40.10091,
          "lng": 18.44872
        },
        {
          "name": "Uggiano Montefusco",
          "lat": 40.38612,
          "lng": 17.6046
        },
        {
          "name": "Valenzano",
          "lat": 41.04376,
          "lng": 16.88491
        },
        {
          "name": "Veglie",
          "lat": 40.33474,
          "lng": 17.96238
        },
        {
          "name": "Vernole",
          "lat": 40.28834,
          "lng": 18.30165
        },
        {
          "name": "Vico del Gargano",
          "lat": 41.89661,
          "lng": 15.95682
        },
        {
          "name": "Vieste",
          "lat": 41.88209,
          "lng": 16.17139
        },
        {
          "name": "Vignacastrisi",
          "lat": 40.01604,
          "lng": 18.40704
        },
        {
          "name": "Villa Castelli",
          "lat": 40.58293,
          "lng": 17.47468
        },
        {
          "name": "Vitigliano",
          "lat": 40.03951,
          "lng": 18.4117
        },
        {
          "name": "Volturara Appula",
          "lat": 41.49603,
          "lng": 15.05224
        },
        {
          "name": "Volturino",
          "lat": 41.47723,
          "lng": 15.12424
        },
        {
          "name": "Zapponeta",
          "lat": 41.4571,
          "lng": 15.95615
        },
        {
          "name": "Zollino",
          "lat": 40.20581,
          "lng": 18.24774
        }
      ]
    },
    {
      "name": "Arezzo",
      "lat": 43.5171442,
      "lng": 11.7639282,
      "districts": []
    },
    {
      "name": "Ascoli Piceno",
      "lat": 42.8546185,
      "lng": 13.5755038,
      "districts": []
    },
    {
      "name": "Asti",
      "lat": 44.9007652,
      "lng": 8.2064315,
      "districts": []
    },
    {
      "name": "Avellino",
      "lat": 40.9965446,
      "lng": 15.140569,
      "districts": []
    },
    {
      "name": "Bari",
      "lat": 41.117143,
      "lng": 16.871872,
      "districts": []
    },
    {
      "name": "Barletta-Andria-Trani",
      "lat": 41.180172,
      "lng": 16.1466408,
      "districts": [
        {
          "name": "Andria",
          "lat": 41.23117,
          "lng": 16.29797
        },
        {
          "name": "Barletta",
          "lat": 41.31429,
          "lng": 16.28165
        },
        {
          "name": "Bisceglie",
          "lat": 41.24264,
          "lng": 16.50104
        },
        {
          "name": "Canosa di Puglia",
          "lat": 41.21954,
          "lng": 16.06768
        },
        {
          "name": "Margherita di Savoia",
          "lat": 41.37174,
          "lng": 16.15275
        },
        {
          "name": "Minervino Murge",
          "lat": 41.08264,
          "lng": 16.07861
        },
        {
          "name": "San Ferdinando di Puglia",
          "lat": 41.30263,
          "lng": 16.07046
        },
        {
          "name": "Spinazzola",
          "lat": 40.96399,
          "lng": 16.09111
        },
        {
          "name": "Trani",
          "lat": 41.27733,
          "lng": 16.41011
        },
        {
          "name": "Trinitapoli",
          "lat": 41.35654,
          "lng": 16.08924
        }
      ]
    },
    {
      "name": "Basilicata",
      "lat": 40.500571,
      "lng": 16.081953,
      "districts": [
        {
          "name": "Abriola",
          "lat": 40.50748,
          "lng": 15.8131
        },
        {
          "name": "Accettura",
          "lat": 40.49102,
          "lng": 16.15798
        },
        {
          "name": "Acerenza",
          "lat": 40.79386,
          "lng": 15.93808
        },
        {
          "name": "Albano di Lucania",
          "lat": 40.58614,
          "lng": 16.03712
        },
        {
          "name": "Aliano",
          "lat": 40.31359,
          "lng": 16.22984
        },
        {
          "name": "Anzi",
          "lat": 40.51662,
          "lng": 15.92457
        },
        {
          "name": "Armento",
          "lat": 40.3066,
          "lng": 16.0655
        },
        {
          "name": "Atella",
          "lat": 40.87855,
          "lng": 15.65226
        },
        {
          "name": "Avigliano",
          "lat": 40.73291,
          "lng": 15.72004
        },
        {
          "name": "Balvano",
          "lat": 40.64953,
          "lng": 15.51345
        },
        {
          "name": "Banzi",
          "lat": 40.86063,
          "lng": 16.00976
        },
        {
          "name": "Baragiano",
          "lat": 40.68001,
          "lng": 15.59398
        },
        {
          "name": "Barile",
          "lat": 40.94327,
          "lng": 15.67167
        },
        {
          "name": "Bella",
          "lat": 40.76059,
          "lng": 15.54101
        },
        {
          "name": "Bernalda",
          "lat": 40.41261,
          "lng": 16.68919
        },
        {
          "name": "Brienza",
          "lat": 40.47751,
          "lng": 15.62927
        },
        {
          "name": "Brindisi Montagna",
          "lat": 40.60952,
          "lng": 15.93977
        },
        {
          "name": "Calciano",
          "lat": 40.58802,
          "lng": 16.19238
        },
        {
          "name": "Calvello",
          "lat": 40.47482,
          "lng": 15.85092
        },
        {
          "name": "Calvera",
          "lat": 40.14871,
          "lng": 16.14362
        },
        {
          "name": "Campomaggiore",
          "lat": 40.5659,
          "lng": 16.0725
        },
        {
          "name": "Cancellara",
          "lat": 40.73068,
          "lng": 15.9247
        },
        {
          "name": "Carbone",
          "lat": 40.14227,
          "lng": 16.08846
        },
        {
          "name": "Castelgrande",
          "lat": 40.78639,
          "lng": 15.43109
        },
        {
          "name": "Castelluccio Inferiore",
          "lat": 40.00151,
          "lng": 15.98149
        },
        {
          "name": "Castelluccio Superiore",
          "lat": 40.01003,
          "lng": 15.97184
        },
        {
          "name": "Castelmezzano",
          "lat": 40.52832,
          "lng": 16.04585
        },
        {
          "name": "Castelsaraceno",
          "lat": 40.16213,
          "lng": 15.99281
        },
        {
          "name": "Castronuovo di Sant'Andrea",
          "lat": 40.18903,
          "lng": 16.18559
        },
        {
          "name": "Cersosimo",
          "lat": 40.04703,
          "lng": 16.35059
        },
        {
          "name": "Chiaromonte",
          "lat": 40.12323,
          "lng": 16.2144
        },
        {
          "name": "Cirigliano",
          "lat": 40.39376,
          "lng": 16.17194
        },
        {
          "name": "Colobraro",
          "lat": 40.18841,
          "lng": 16.4248
        },
        {
          "name": "Corleto Perticara",
          "lat": 40.38214,
          "lng": 16.03917
        },
        {
          "name": "Craco-Sant'Angelo",
          "lat": 40.37992,
          "lng": 16.43708
        },
        {
          "name": "Episcopia",
          "lat": 40.07481,
          "lng": 16.09818
        },
        {
          "name": "Fardella",
          "lat": 40.11381,
          "lng": 16.16978
        },
        {
          "name": "Ferrandina",
          "lat": 40.50084,
          "lng": 16.45258
        },
        {
          "name": "Filiano",
          "lat": 40.81042,
          "lng": 15.70984
        },
        {
          "name": "Forenza",
          "lat": 40.86041,
          "lng": 15.85457
        },
        {
          "name": "Francavilla in Sinni",
          "lat": 40.08142,
          "lng": 16.20417
        },
        {
          "name": "Gallicchio",
          "lat": 40.29232,
          "lng": 16.13561
        },
        {
          "name": "Garaguso",
          "lat": 40.54866,
          "lng": 16.22827
        },
        {
          "name": "Genzano di Lucania",
          "lat": 40.84589,
          "lng": 16.03124
        },
        {
          "name": "Ginestra",
          "lat": 40.93092,
          "lng": 15.73497
        },
        {
          "name": "Gorgoglione",
          "lat": 40.39532,
          "lng": 16.14456
        },
        {
          "name": "Grassano",
          "lat": 40.63457,
          "lng": 16.27792
        },
        {
          "name": "Grottole",
          "lat": 40.60333,
          "lng": 16.37831
        },
        {
          "name": "Grumento Nova",
          "lat": 40.28281,
          "lng": 15.88877
        },
        {
          "name": "Guardia Perticara",
          "lat": 40.36167,
          "lng": 16.09845
        },
        {
          "name": "Irsina",
          "lat": 40.75015,
          "lng": 16.23816
        },
        {
          "name": "La Martella",
          "lat": 40.66251,
          "lng": 16.53551
        },
        {
          "name": "Lagonegro",
          "lat": 40.12785,
          "lng": 15.76212
        },
        {
          "name": "Latronico",
          "lat": 40.08909,
          "lng": 16.00947
        },
        {
          "name": "Laurenzana",
          "lat": 40.45908,
          "lng": 15.97075
        },
        {
          "name": "Lauria",
          "lat": 40.04702,
          "lng": 15.83812
        },
        {
          "name": "Lavello",
          "lat": 41.04769,
          "lng": 15.78915
        },
        {
          "name": "Lido",
          "lat": 40.19128,
          "lng": 16.70692
        },
        {
          "name": "Maratea",
          "lat": 39.99932,
          "lng": 15.71539
        },
        {
          "name": "Marconia",
          "lat": 40.36355,
          "lng": 16.68823
        },
        {
          "name": "Marsico Nuovo",
          "lat": 40.42359,
          "lng": 15.73462
        },
        {
          "name": "Marsicovetere",
          "lat": 40.37591,
          "lng": 15.82569
        },
        {
          "name": "Maschito",
          "lat": 40.90892,
          "lng": 15.82946
        },
        {
          "name": "Matera",
          "lat": 40.66599,
          "lng": 16.60463
        },
        {
          "name": "Melfi",
          "lat": 40.99571,
          "lng": 15.65578
        },
        {
          "name": "Miglionico",
          "lat": 40.56763,
          "lng": 16.49964
        },
        {
          "name": "Missanello",
          "lat": 40.28311,
          "lng": 16.1665
        },
        {
          "name": "Moliterno",
          "lat": 40.24394,
          "lng": 15.86544
        },
        {
          "name": "Montalbano Jonico",
          "lat": 40.28591,
          "lng": 16.5696
        },
        {
          "name": "Montemilone",
          "lat": 41.02742,
          "lng": 15.96661
        },
        {
          "name": "Montemurro",
          "lat": 40.29765,
          "lng": 15.99182
        },
        {
          "name": "Montescaglioso",
          "lat": 40.55024,
          "lng": 16.66541
        },
        {
          "name": "Muro Lucano",
          "lat": 40.75379,
          "lng": 15.48808
        },
        {
          "name": "Nemoli",
          "lat": 40.06765,
          "lng": 15.79962
        },
        {
          "name": "Noepoli",
          "lat": 40.08705,
          "lng": 16.32834
        },
        {
          "name": "Nova Siri",
          "lat": 40.14823,
          "lng": 16.53976
        },
        {
          "name": "Nova Siri Scalo",
          "lat": 40.13177,
          "lng": 16.63593
        },
        {
          "name": "Oliveto Lucano",
          "lat": 40.53554,
          "lng": 16.18547
        },
        {
          "name": "Oppido Lucano",
          "lat": 40.76174,
          "lng": 15.98818
        },
        {
          "name": "Palazzo San Gervasio",
          "lat": 40.93156,
          "lng": 15.98149
        },
        {
          "name": "Paterno",
          "lat": 40.37507,
          "lng": 15.7351
        },
        {
          "name": "Pescopagano",
          "lat": 40.83494,
          "lng": 15.39946
        },
        {
          "name": "Picerno",
          "lat": 40.63975,
          "lng": 15.64232
        },
        {
          "name": "Pietragalla",
          "lat": 40.74572,
          "lng": 15.87398
        },
        {
          "name": "Pietrapertosa",
          "lat": 40.51731,
          "lng": 16.06244
        },
        {
          "name": "Pignola",
          "lat": 40.57412,
          "lng": 15.78295
        },
        {
          "name": "Pisticci",
          "lat": 40.39017,
          "lng": 16.55919
        },
        {
          "name": "Policoro",
          "lat": 40.2128,
          "lng": 16.67795
        },
        {
          "name": "Pomarico",
          "lat": 40.52804,
          "lng": 16.52708
        },
        {
          "name": "Potenza",
          "lat": 40.64175,
          "lng": 15.80794
        },
        {
          "name": "Provincia di Matera",
          "lat": 40.5,
          "lng": 16.41667
        },
        {
          "name": "Provincia di Potenza",
          "lat": 40.46442,
          "lng": 15.89938
        },
        {
          "name": "Rapolla",
          "lat": 40.97499,
          "lng": 15.67201
        },
        {
          "name": "Rapone",
          "lat": 40.8471,
          "lng": 15.49818
        },
        {
          "name": "Rionero in Vulture",
          "lat": 40.92328,
          "lng": 15.6711
        },
        {
          "name": "Ripacandida",
          "lat": 40.91256,
          "lng": 15.72597
        },
        {
          "name": "Rivello",
          "lat": 40.07821,
          "lng": 15.75798
        },
        {
          "name": "Roccanova",
          "lat": 40.2125,
          "lng": 16.20429
        },
        {
          "name": "Rotonda",
          "lat": 39.95215,
          "lng": 16.03904
        },
        {
          "name": "Rotondella",
          "lat": 40.17136,
          "lng": 16.52491
        },
        {
          "name": "Ruoti",
          "lat": 40.7166,
          "lng": 15.68369
        },
        {
          "name": "Ruvo del Monte",
          "lat": 40.84951,
          "lng": 15.54217
        },
        {
          "name": "Salandra",
          "lat": 40.52668,
          "lng": 16.32037
        },
        {
          "name": "San Brancato",
          "lat": 40.25822,
          "lng": 16.25661
        },
        {
          "name": "San Chirico Nuovo",
          "lat": 40.67764,
          "lng": 16.07892
        },
        {
          "name": "San Chirico Raparo",
          "lat": 40.19242,
          "lng": 16.07618
        },
        {
          "name": "San Costantino Albanese",
          "lat": 40.03679,
          "lng": 16.30475
        },
        {
          "name": "San Fele",
          "lat": 40.81647,
          "lng": 15.54043
        },
        {
          "name": "San Giorgio Lucano",
          "lat": 40.11132,
          "lng": 16.3893
        },
        {
          "name": "San Martino d'Agri",
          "lat": 40.23913,
          "lng": 16.05216
        },
        {
          "name": "San Mauro Forte",
          "lat": 40.48333,
          "lng": 16.25155
        },
        {
          "name": "San Paolo Albanese",
          "lat": 40.03567,
          "lng": 16.33498
        },
        {
          "name": "San Severino Lucano",
          "lat": 40.02021,
          "lng": 16.1386
        },
        {
          "name": "Sant'Angelo le Fratte",
          "lat": 40.5449,
          "lng": 15.56156
        },
        {
          "name": "Sant'Arcangelo",
          "lat": 40.24852,
          "lng": 16.27046
        },
        {
          "name": "Sarconi",
          "lat": 40.248,
          "lng": 15.88837
        },
        {
          "name": "Sasso di Castalda",
          "lat": 40.48525,
          "lng": 15.67569
        },
        {
          "name": "Satriano di Lucania",
          "lat": 40.54296,
          "lng": 15.64024
        },
        {
          "name": "Savoia di Lucania",
          "lat": 40.56949,
          "lng": 15.55132
        },
        {
          "name": "Scalo di Baragiano",
          "lat": 40.695,
          "lng": 15.57508
        },
        {
          "name": "Scanzano Jonico",
          "lat": 40.25085,
          "lng": 16.69824
        },
        {
          "name": "Senise",
          "lat": 40.14616,
          "lng": 16.28867
        },
        {
          "name": "Spinoso",
          "lat": 40.26921,
          "lng": 15.96658
        },
        {
          "name": "Stigliano",
          "lat": 40.40237,
          "lng": 16.22983
        },
        {
          "name": "Teana",
          "lat": 40.12586,
          "lng": 16.15281
        },
        {
          "name": "Terranova di Pollino",
          "lat": 39.97765,
          "lng": 16.29583
        },
        {
          "name": "Tito",
          "lat": 40.5837,
          "lng": 15.67621
        },
        {
          "name": "Tolve",
          "lat": 40.69422,
          "lng": 16.01627
        },
        {
          "name": "Tramutola",
          "lat": 40.31858,
          "lng": 15.78753
        },
        {
          "name": "Trecchina",
          "lat": 40.02611,
          "lng": 15.77585
        },
        {
          "name": "Tricarico",
          "lat": 40.61458,
          "lng": 16.14259
        },
        {
          "name": "Trivigno",
          "lat": 40.58015,
          "lng": 15.98857
        },
        {
          "name": "Tursi",
          "lat": 40.24651,
          "lng": 16.4714
        },
        {
          "name": "Vaglio Basilicata",
          "lat": 40.66643,
          "lng": 15.91434
        },
        {
          "name": "Valsinni",
          "lat": 40.17098,
          "lng": 16.44388
        },
        {
          "name": "Venosa",
          "lat": 40.96283,
          "lng": 15.81285
        },
        {
          "name": "Vietri di Potenza",
          "lat": 40.60027,
          "lng": 15.50787
        },
        {
          "name": "Viggianello",
          "lat": 39.97227,
          "lng": 16.08521
        },
        {
          "name": "Viggiano",
          "lat": 40.34213,
          "lng": 15.89964
        },
        {
          "name": "Villa d'Agri",
          "lat": 40.35426,
          "lng": 15.8277
        },
        {
          "name": "Zona 179",
          "lat": 41.00313,
          "lng": 15.61868
        }
      ]
    },
    {
      "name": "Belluno",
      "lat": 46.2805407,
      "lng": 12.0789137,
      "districts": []
    },
    {
      "name": "Benevento",
      "lat": 41.2476307,
      "lng": 14.7057054,
      "districts": []
    },
    {
      "name": "Bergamo",
      "lat": 45.6982642,
      "lng": 9.6772698,
      "districts": []
    },
    {
      "name": "Biella",
      "lat": 45.5628176,
      "lng": 8.0582717,
      "districts": []
    },
    {
      "name": "Bologna",
      "lat": 44.494887,
      "lng": 11.342621,
      "districts": []
    },
    {
      "name": "Brescia",
      "lat": 45.5415526,
      "lng": 10.2118019,
      "districts": []
    },
    {
      "name": "Brindisi",
      "lat": 40.6358599,
      "lng": 17.6884975,
      "districts": []
    },
    {
      "name": "Cagliari",
      "lat": 39.223804,
      "lng": 9.121667,
      "districts": []
    },
    {
      "name": "Calabria",
      "lat": 39.0565974,
      "lng": 16.5249864,
      "districts": [
        {
          "name": "Reggio Calabria",
          "lat": 38.11047,
          "lng": 15.66129
        },
        {
          "name": "Acconia",
          "lat": 38.83585,
          "lng": 16.2653
        },
        {
          "name": "Acquaformosa",
          "lat": 39.72278,
          "lng": 16.09096
        },
        {
          "name": "Acquappesa",
          "lat": 39.49573,
          "lng": 15.95419
        },
        {
          "name": "Acquaro",
          "lat": 38.55729,
          "lng": 16.18781
        },
        {
          "name": "Acri",
          "lat": 39.49624,
          "lng": 16.38635
        },
        {
          "name": "Africo Nuovo",
          "lat": 38.05067,
          "lng": 16.1332
        },
        {
          "name": "Africo Vecchio",
          "lat": 38.06667,
          "lng": 15.98333
        },
        {
          "name": "Agnana Calabra",
          "lat": 38.30206,
          "lng": 16.22718
        },
        {
          "name": "Aiello Calabro",
          "lat": 39.11785,
          "lng": 16.16539
        },
        {
          "name": "Aieta",
          "lat": 39.9278,
          "lng": 15.82348
        },
        {
          "name": "Albi",
          "lat": 39.02456,
          "lng": 16.59721
        },
        {
          "name": "Albidona",
          "lat": 39.92332,
          "lng": 16.47237
        },
        {
          "name": "Alessandria del Carretto",
          "lat": 39.95874,
          "lng": 16.37963
        },
        {
          "name": "Altilia",
          "lat": 39.13049,
          "lng": 16.25269
        },
        {
          "name": "Altomonte",
          "lat": 39.699,
          "lng": 16.12999
        },
        {
          "name": "Amantea",
          "lat": 39.12658,
          "lng": 16.07512
        },
        {
          "name": "Amaroni",
          "lat": 38.79424,
          "lng": 16.44809
        },
        {
          "name": "Amato",
          "lat": 38.38333,
          "lng": 16.13333
        },
        {
          "name": "Amendolara",
          "lat": 39.95162,
          "lng": 16.58293
        },