{
  "name": "Kosovo",
  "lat": 42.5612909,
  "lng": 20.3403035,
  "cities": [
    {
      "name": "Ferizaj",
      "lat": 42.3701844,
      "lng": 21.1483281,
      "districts": [
        {
          "name": "Ferizaj",
          "lat": 42.37056,
          "lng": 21.15528
        },
        {
          "name": "Hani i Elezit",
          "lat": 42.15,
          "lng": 21.29667
        },
        {
          "name": "Kačanik",
          "lat": 42.23194,
          "lng": 21.25944
        },
        {
          "name": "Shtime",
          "lat": 42.43306,
          "lng": 21.03972
        },
        {
          "name": "Štrpce",
          "lat": 42.23944,
          "lng": 21.02722
        }
      ]
    },
    {
      "name": "Gjakove",
      "lat": 42.3798793,
      "lng": 20.4316226,
      "districts": [
        {
          "name": "Deçan",
          "lat": 42.54018,
          "lng": 20.28793
        },
        {
          "name": "Dranoc",
          "lat": 42.51556,
          "lng": 20.29222
        },
        {
          "name": "Gjakovë",
          "lat": 42.38028,
          "lng": 20.43083
        },
        {
          "name": "Gllogjan",
          "lat": 42.50722,
          "lng": 20.36278
        },
        {
          "name": "Irzniq",
          "lat": 42.52,
          "lng": 20.34722
        },
        {
          "name": "Isniq",
          "lat": 42.5575,
          "lng": 20.30278
        },
        {
          "name": "Lëbushë",
          "lat": 42.56306,
          "lng": 20.29083
        },
        {
          "name": "Lloqan",
          "lat": 42.52444,
          "lng": 20.28083
        },
        {
          "name": "Lluka e Eperme",
          "lat": 42.545,
          "lng": 20.30778
        },
        {
          "name": "Lumbardhi",
          "lat": 42.54667,
          "lng": 20.34667
        },
        {
          "name": "Orahovac",
          "lat": 42.39944,
          "lng": 20.65472
        },
        {
          "name": "Papraqan",
          "lat": 42.55278,
          "lng": 20.33111
        },
        {
          "name": "Prilep",
          "lat": 42.5075,
          "lng": 20.31778
        },
        {
          "name": "Strellc i Epërm",
          "lat": 42.57843,
          "lng": 20.29398
        },
        {
          "name": "Strellc i Ulët",
          "lat": 42.58063,
          "lng": 20.31619
        }
      ]
    },
    {
      "name": "Gjilan",
      "lat": 42.4635206,
      "lng": 21.4694011,
      "districts": [
        {
          "name": "Gjilan",
          "lat": 42.46045,
          "lng": 21.46986
        },
        {
          "name": "Kamenica",
          "lat": 42.57806,
          "lng": 21.58028
        },
        {
          "name": "Klokot",
          "lat": 42.37139,
          "lng": 21.37444
        },
        {
          "name": "Partesh",
          "lat": 42.40194,
          "lng": 21.43361
        },
        {
          "name": "Pasjane",
          "lat": 42.40694,
          "lng": 21.49556
        },
        {
          "name": "Ranilug",
          "lat": 42.49222,
          "lng": 21.59889
        },
        {
          "name": "Vitina",
          "lat": 42.32139,
          "lng": 21.35833
        }
      ]
    },
    {
      "name": "Mitrovica",
      "lat": 42.8790424,
      "lng": 20.8657862,
      "districts": [
        {
          "name": "Mitrovicë",
          "lat": 42.88333,
          "lng": 20.86667
        },
        {
          "name": "Leposaviq",
          "lat": 43.10389,
          "lng": 20.80278
        },
        {
          "name": "Srbica",
          "lat": 42.74667,
          "lng": 20.78861
        },
        {
          "name": "Vushtrri",
          "lat": 42.82306,
          "lng": 20.9675
        },
        {
          "name": "Zubin Potok",
          "lat": 42.91444,
          "lng": 20.68972
        },
        {
          "name": "Zvečan",
          "lat": 42.9075,
          "lng": 20.84028
        }
      ]
    },
    {
      "name": "Peja",
      "lat": 42.6593986,
      "lng": 20.2885757,
      "districts": [
        {
          "name": "Dubova (Driloni)",
          "lat": 42.71194,
          "lng": 20.36972
        },
        {
          "name": "Istok",
          "lat": 42.78083,
          "lng": 20.4875
        },
        {
          "name": "Klina",
          "lat": 42.62167,
          "lng": 20.57778
        },
        {
          "name": "Kosuriq",
          "lat": 42.57028,
          "lng": 20.46472
        },
        {
          "name": "Pejë",
          "lat": 42.65913,
          "lng": 20.28828
        }
      ]
    },
    {
      "name": "Pristina",
      "lat": 42.6629138,
      "lng": 21.1655028,
      "districts": [
        {
          "name": "Pristina",
          "lat": 42.67272,
          "lng": 21.16688,
          "iscapital": true
        },
        {
          "name": "Bradash",
          "lat": 42.94028,
          "lng": 21.13806
        },
        {
          "name": "Glogovac",
          "lat": 42.62833,
          "lng": 20.89389
        },
        {
          "name": "Gračanica",
          "lat": 42.60111,
          "lng": 21.19583
        },
        {
          "name": "Kosovo Polje",
          "lat": 42.66394,
          "lng": 21.09611
        },
        {
          "name": "Lipljan",
          "lat": 42.52167,
          "lng": 21.12583
        },
        {
          "name": "Novo Brdo",
          "lat": 42.6159,
          "lng": 21.43405
        },
        {
          "name": "Obiliq",
          "lat": 42.68694,
          "lng": 21.07028
        },
        {
          "name": "Podujeva",
          "lat": 42.91056,
          "lng": 21.19306
        }
      ]
    },
    {
      "name": "Prizren",
      "lat": 42.2130151,
      "lng": 20.7363339,
      "districts": [
        {
          "name": "Prizren",
          "lat": 42.21389,
          "lng": 20.73972
        },
        {
          "name": "Budakovo",
          "lat": 42.355,
          "lng": 20.925
        },
        {
          "name": "Dragash",
          "lat": 42.0265,
          "lng": 20.65333
        },
        {
          "name": "Gjinoc",
          "lat": 42.31833,
          "lng": 20.81861
        },
        {
          "name": "Leshan",
          "lat": 42.32778,
          "lng": 20.78111
        },
        {
          "name": "Llazicë",
          "lat": 42.55528,
          "lng": 20.76333
        },
        {
          "name": "Mališevo",
          "lat": 42.48222,
          "lng": 20.74583
        },
        {
          "name": "Mamuša",
          "lat": 42.33083,
          "lng": 20.72694
        },
        {
          "name": "Nishor",
          "lat": 42.42389,
          "lng": 20.80167
        },
        {
          "name": "Pagaruša",
          "lat": 42.42,
          "lng": 20.74222
        },
        {
          "name": "Peqan",
          "lat": 42.38361,
          "lng": 20.82194
        },
        {
          "name": "Suva Reka",
          "lat": 42.35861,
          "lng": 20.825
        }
      ]
    }
  ]
}
