{
  "name": "Mexico",
  "lat": 23,
  "lng": -102,
  "cities": [
    {
      "name": "Aguascalientes",
      "lat": 21.8852562,
      "lng": -102.2915677,
      "districts": [
        {
          "name": "Rincón de Romos",
          "lat": 22.23333,
          "lng": -102.31666,
          "subdistricts": [
            {
              "name": "San Francisco de los Romo",
              "lat": 22.03307,
              "lng": -102.22902
            },
            {
              "name": "Asientos",
              "lat": 22.23333,
              "lng": -102.08333
            },
            {
              "name": "Pabellón de Arteaga",
              "lat": 22.15,
              "lng": -102.26666
            },
            {
              "name": "Calvillo",
              "lat": 21.85,
              "lng": -102.71666
            },
            {
              "name": "Jesús Gómez Portugal (Margaritas)",
              "lat": 21.99917,
              "lng": -102.29139
            },
            {
              "name": "Jesús Gómez Portugal",
              "lat": 21.99607,
              "lng": -102.29095
            },
            {
              "name": "Ojocaliente",
              "lat": 21.8739,
              "lng": -102.67684
            },
            {
              "name": "El Llano",
              "lat": 21.91667,
              "lng": -101.96666
            },
            {
              "name": "Palo Alto",
              "lat": 21.91801,
              "lng": -101.96453
            },
            {
              "name": "Pocitos",
              "lat": 21.92167,
              "lng": -102.33472
            },
            {
              "name": "San José de Gracia",
              "lat": 22.15,
              "lng": -102.41666
            },
            {
              "name": "Cosío",
              "lat": 22.36667,
              "lng": -102.3
            },
            {
              "name": "Villa Juárez",
              "lat": 22.09447,
              "lng": -102.0693
            },
            {
              "name": "Tepezalá",
              "lat": 22.21667,
              "lng": -102.16666
            },
            {
              "name": "Villa Licenciado Jesús Terán (Calvillito)",
              "lat": 21.82528,
              "lng": -102.18778
            },
            {
              "name": "Pabellón de Hidalgo",
              "lat": 22.17871,
              "lng": -102.34014
            },
            {
              "name": "Las Norias de Ojocaliente",
              "lat": 21.88944,
              "lng": -102.21738
            },
            {
              "name": "Ex-Viñedos Guadalupe",
              "lat": 21.95944,
              "lng": -102.27417
            },
            {
              "name": "Ciénega Grande",
              "lat": 22.19434,
              "lng": -102.0194
            },
            {
              "name": "San Antonio",
              "lat": 22.22823,
              "lng": -102.25034
            },
            {
              "name": "Aguascalientes",
              "lat": 21.88333,
              "lng": -102.3
            },
            {
              "name": "Arboledas Paso Blanco [Fraccionamiento]",
              "lat": 21.96361,
              "lng": -102.30194
            },
            {
              "name": "Corral de Barrancos",
              "lat": 21.95028,
              "lng": -102.33222
            },
            {
              "name": "Emiliano Zapata",
              "lat": 22.10635,
              "lng": -102.30056
            },
            {
              "name": "Escaleras",
              "lat": 22.25054,
              "lng": -102.33377
            },
            {
              "name": "Norias del Paso Hondo",
              "lat": 21.86177,
              "lng": -102.20681
            },
            {
              "name": "Cartagena [Fraccionamiento]",
              "lat": 21.95639,
              "lng": -102.27639
            },
            {
              "name": "La Punta",
              "lat": 22.32411,
              "lng": -102.29212
            },
            {
              "name": "San Jacinto",
              "lat": 22.34861,
              "lng": -102.23361
            },
            {
              "name": "El Cuervero (Cuerveros)",
              "lat": 21.86056,
              "lng": -102.68389
            },
            {
              "name": "Jaltomate",
              "lat": 22.01528,
              "lng": -102.14583
            },
            {
              "name": "Guadalupe de Atlas",
              "lat": 22.26653,
              "lng": -102.03118
            },
            {
              "name": "Maravillas",
              "lat": 21.95408,
              "lng": -102.32982
            },
            {
              "name": "San Antonio de Peñuelas",
              "lat": 21.67471,
              "lng": -102.3001
            },
            {
              "name": "Macario J. Gómez [Colonia]",
              "lat": 21.98056,
              "lng": -102.25139
            },
            {
              "name": "Valle Huejúcar (Fraccionamiento Popular) [Fraccionamiento]",
              "lat": 21.83111,
              "lng": -102.75028
            },
            {
              "name": "La Labor",
              "lat": 21.96207,
              "lng": -102.69626
            },
            {
              "name": "Puertecito de la Virgen",
              "lat": 21.96028,
              "lng": -102.26889
            },
            {
              "name": "Paseos de la Providencia [Fraccionamiento]",
              "lat": 22.02425,
              "lng": -102.27711
            },
            {
              "name": "San Sebastián [Fraccionamiento]",
              "lat": 21.82139,
              "lng": -102.27111
            },
            {
              "name": "El Chayote",
              "lat": 22.28667,
              "lng": -102.239
            },
            {
              "name": "Las Ánimas",
              "lat": 22.09057,
              "lng": -102.26684
            },
            {
              "name": "Paso Blanco",
              "lat": 21.97361,
              "lng": -102.31694
            },
            {
              "name": "Malpaso",
              "lat": 21.85896,
              "lng": -102.66441
            },
            {
              "name": "Tepetates",
              "lat": 21.95667,
              "lng": -102.32167
            },
            {
              "name": "Peñuelas (El Cienegal)",
              "lat": 21.7225,
              "lng": -102.27583
            },
            {
              "name": "General Ignacio Zaragoza",
              "lat": 21.88136,
              "lng": -102.46454
            },
            {
              "name": "El Refugio de Peñuelas",
              "lat": 21.71635,
              "lng": -102.28941
            },
            {
              "name": "Paseos de las Haciendas [Fraccionamiento]",
              "lat": 21.99222,
              "lng": -102.34361
            },
            {
              "name": "Lázaro Cárdenas",
              "lat": 22.17137,
              "lng": -102.02704
            },
            {
              "name": "Montoro",
              "lat": 21.75603,
              "lng": -102.30219
            },
            {
              "name": "La Loma de los Negritos",
              "lat": 21.87056,
              "lng": -102.35
            },
            {
              "name": "San Tadeo",
              "lat": 21.91954,
              "lng": -102.70043
            },
            {
              "name": "La Concepción",
              "lat": 22.03537,
              "lng": -102.29989
            },
            {
              "name": "Valladolid",
              "lat": 22.02111,
              "lng": -102.315
            },
            {
              "name": "Arellano",
              "lat": 21.80106,
              "lng": -102.27384
            },
            {
              "name": "El Refugio de Providencia (Providencia)",
              "lat": 22.34667,
              "lng": -102.25778
            },
            {
              "name": "San Ignacio",
              "lat": 21.89269,
              "lng": -102.33974
            },
            {
              "name": "Cumbres III",
              "lat": 21.92222,
              "lng": -102.2375
            },
            {
              "name": "Pilotos",
              "lat": 22.03722,
              "lng": -101.95917
            },
            {
              "name": "La Escondida",
              "lat": 22.03573,
              "lng": -102.25931
            },
            {
              "name": "Cotorina",
              "lat": 21.75154,
              "lng": -102.26832
            },
            {
              "name": "El Bajío",
              "lat": 22.24558,
              "lng": -102.30825
            },
            {
              "name": "Carboneras",
              "lat": 22.18311,
              "lng": -102.24601
            },
            {
              "name": "San Antonio de los Horcones",
              "lat": 21.99832,
              "lng": -102.32663
            },
            {
              "name": "El Salero",
              "lat": 22.38706,
              "lng": -102.32323
            },
            {
              "name": "Bimbaletes Aguascalientes (El Álamo)",
              "lat": 22.23444,
              "lng": -102.01917
            },
            {
              "name": "Molinos",
              "lat": 22.16278,
              "lng": -102.09472
            },
            {
              "name": "La Panadera",
              "lat": 21.86398,
              "lng": -102.69832
            },
            {
              "name": "El Tule",
              "lat": 22.08438,
              "lng": -102.091
            },
            {
              "name": "Noria del Borrego (Norias)",
              "lat": 22.28722,
              "lng": -102.04194
            },
            {
              "name": "Los Caños",
              "lat": 21.78167,
              "lng": -102.4675
            },
            {
              "name": "Mesa Grande",
              "lat": 21.80529,
              "lng": -102.72181
            },
            {
              "name": "Los Arquitos",
              "lat": 21.92299,
              "lng": -102.38554
            },
            {
              "name": "Jaltiche de Arriba",
              "lat": 21.77525,
              "lng": -102.78849
            },
            {
              "name": "Los Conos",
              "lat": 21.89739,
              "lng": -101.99487
            },
            {
              "name": "Ojo de Agua de Crucitas",
              "lat": 21.96426,
              "lng": -101.95202
            },
            {
              "name": "Miravalle",
              "lat": 21.9725,
              "lng": -102.31139
            },
            {
              "name": "Santa Isabel [Fraccionamiento]",
              "lat": 22.08111,
              "lng": -102.26778
            },
            {
              "name": "Centro de Arriba",
              "lat": 21.73123,
              "lng": -102.49888
            },
            {
              "name": "Santa Rosa (El Huizache)",
              "lat": 21.935,
              "lng": -102.02194
            },
            {
              "name": "San Antonio de los Ríos",
              "lat": 22.16104,
              "lng": -102.47118
            },
            {
              "name": "Jarillas",
              "lat": 22.29611,
              "lng": -102.06333
            },
            {
              "name": "Crucero Las Pilas",
              "lat": 21.82722,
              "lng": -102.76033
            },
            {
              "name": "Ejido la Guayana (Rancho Seco)",
              "lat": 21.98028,
              "lng": -102.27306
            },
            {
              "name": "Santa María de la Paz",
              "lat": 22.38786,
              "lng": -102.25697
            },
            {
              "name": "Santiago",
              "lat": 22.11948,
              "lng": -102.33769
            },
            {
              "name": "San Luis de Letras",
              "lat": 22.13551,
              "lng": -102.29729
            },
            {
              "name": "Paredes",
              "lat": 22.14958,
              "lng": -102.48232
            },
            {
              "name": "Jesús María",
              "lat": 21.96667,
              "lng": -102.35
            }
          ]
        }
      ]
    },
    {
      "name": "Baja California",
      "lat": 30.0338923,
      "lng": -115.1425107,
      "districts": [
        {
          "name": "Mexicali",
          "lat": 32.50513,
          "lng": -115.14771,
          "subdistricts": [
            {
              "name": "Benito Juárez",
              "lat": 32.56852,
              "lng": -114.99422
            },
            {
              "name": "Ciudad Coahuila (Kilómetro Cincuenta y Siete)",
              "lat": 32.19556,
              "lng": -115.0025
            },
            {
              "name": "Colonia Nueva Era",
              "lat": 30.50667,
              "lng": -115.9225
            },
            {
              "name": "Colonia Venustiano Carranza",
              "lat": 32.237,
              "lng": -115.16656
            },
            {
              "name": "Delta",
              "lat": 32.35497,
              "lng": -115.19617
            },
            {
              "name": "Doctor Alberto Oviedo Mota",
              "lat": 32.22756,
              "lng": -115.16792
            },
            {
              "name": "Durango",
              "lat": 32.24865,
              "lng": -115.25227
            },
            {
              "name": "Ejido Doctor Alberto Oviedo Mota (El Indiviso)",
              "lat": 32.02444,
              "lng": -114.98361
            },
            {
              "name": "Ejido Jiquilpan",
              "lat": 32.50131,
              "lng": -115.06382
            },
            {
              "name": "Ejido Lázaro Cárdenas",
              "lat": 32.60794,
              "lng": -115.02076
            },
            {
              "name": "Ejido Michoacán de Ocampo",
              "lat": 32.46512,
              "lng": -115.31003
            },
            {
              "name": "Ejido Netzahualcóyotl",
              "lat": 32.62444,
              "lng": -115.06222
            },
            {
              "name": "Ejido Nuevo León",
              "lat": 32.41103,
              "lng": -115.18827
            },
            {
              "name": "Ejido Pátzcuaro",
              "lat": 32.35139,
              "lng": -115.06583
            },
            {
              "name": "Ejido Plan de Ayala",
              "lat": 32.22023,
              "lng": -115.03158
            },
            {
              "name": "Ejido Quintana Roo",
              "lat": 32.46844,
              "lng": -115.0825
            },
            {
              "name": "Ejido Saltillo",
              "lat": 32.4243,
              "lng": -115.1248
            },
            {
              "name": "Ejido Sinaloa",
              "lat": 32.54734,
              "lng": -115.27041
            },
            {
              "name": "Ejido Sonora",
              "lat": 32.28749,
              "lng": -115.23134
            },
            {
              "name": "Ejido Tabasco",
              "lat": 32.56187,
              "lng": -114.92659
            },
            {
              "name": "Ejido Toluca",
              "lat": 32.4305,
              "lng": -115.08316
            },
            {
              "name": "Ejido Vicente Guerrero",
              "lat": 32.39593,
              "lng": -115.14026
            },
            {
              "name": "Ejido Yucatán",
              "lat": 32.60435,
              "lng": -115.0938
            },
            {
              "name": "El Rosario de Arriba",
              "lat": 30.05984,
              "lng": -115.72448
            },
            {
              "name": "Estación Coahuila",
              "lat": 32.19304,
              "lng": -114.99933
            },
            {
              "name": "Estación Pescaderos",
              "lat": 32.31196,
              "lng": -115.13823
            },
            {
              "name": "Guadalupe Victoria",
              "lat": 32.28924,
              "lng": -115.10534
            },
            {
              "name": "Guerrero Negro",
              "lat": 27.96891,
              "lng": -114.04427
            },
            {
              "name": "Hermosillo",
              "lat": 32.51097,
              "lng": -114.92278
            },
            {
              "name": "Islas Agrarias Grupo A",
              "lat": 32.61096,
              "lng": -115.33151
            },
            {
              "name": "Islas Agrarias Grupo B",
              "lat": 32.60034,
              "lng": -115.27172
            },
            {
              "name": "Lázaro Cárdenas",
              "lat": 30.52815,
              "lng": -115.92617
            },
            {
              "name": "Los Algodones",
              "lat": 32.7,
              "lng": -114.73333
            },
            {
              "name": "Luis Rodríguez (El Vergel)",
              "lat": 30.40722,
              "lng": -115.88722
            },
            {
              "name": "Poblado Lázaro Cárdenas (La Veintiocho)",
              "lat": 32.37333,
              "lng": -115.06528
            },
            {
              "name": "Progreso",
              "lat": 32.58039,
              "lng": -115.58479
            },
            {
              "name": "Puebla",
              "lat": 32.56654,
              "lng": -115.3534
            },
            {
              "name": "Pueblo Benito García",
              "lat": 30.51583,
              "lng": -115.93278
            },
            {
              "name": "Rumorosa",
              "lat": 32.52396,
              "lng": -116.05397
            },
            {
              "name": "San Felipe",
              "lat": 31.02468,
              "lng": -114.83919
            },
            {
              "name": "San Quintín",
              "lat": 30.57228,
              "lng": -115.94607
            },
            {
              "name": "Santa Isabel",
              "lat": 32.6333,
              "lng": -115.57605
            },
            {
              "name": "Tecolots",
              "lat": 32.56667,
              "lng": -114.98333
            },
            {
              "name": "Viñas del Sol",
              "lat": 32.62694,
              "lng": -115.54667
            }
          ]
        },
        {
          "name": "Rosarito",
          "lat": 32.36044,
          "lng": -117.04645,
          "subdistricts": [
            {
              "name": "Benito García (El Zorrillo)",
              "lat": 31.67111,
              "lng": -116.51139
            },
            {
              "name": "Camalú",
              "lat": 30.84222,
              "lng": -116.06328
            },
            {
              "name": "Ciudad Morelos",
              "lat": 32.34389,
              "lng": -117.01056
            },
            {
              "name": "Colinas del Sol",
              "lat": 32.40306,
              "lng": -117.03056
            },
            {
              "name": "Colonia Gómez Morín",
              "lat": 31.88167,
              "lng": -116.54389
            },
            {
              "name": "Colonia Lomas de San Ramón (Triquis)",
              "lat": 30.70167,
              "lng": -116.00278
            },
            {
              "name": "Ejido General Leandro Valle",
              "lat": 30.62167,
              "lng": -115.96583
            },
            {
              "name": "El Porvenir",
              "lat": 32.07606,
              "lng": -116.62473
            },
            {
              "name": "El Sauzal de Rodríguez",
              "lat": 31.89329,
              "lng": -116.69256
            },
            {
              "name": "Emiliano Zapata",
              "lat": 30.75417,
              "lng": -116.00306
            },
            {
              "name": "Ensenada",
              "lat": 31.86667,
              "lng": -116.61666
            },
            {
              "name": "Fraccionamiento del Valle",
              "lat": 31.91139,
              "lng": -116.26056
            },
            {
              "name": "Francisco Zarco",
              "lat": 32.09872,
              "lng": -116.56863
            },
            {
              "name": "La Esperanza [Granjas Familiares]",
              "lat": 32.46278,
              "lng": -117.105
            },
            {
              "name": "La Providencia",
              "lat": 30.96889,
              "lng": -116.15861
            },
            {
              "name": "Las Brisas",
              "lat": 30.96056,
              "lng": -116.16444
            },
            {
              "name": "Licenciado Gustavo Díaz Ordaz",
              "lat": 30.97506,
              "lng": -116.15565
            },
            {
              "name": "Los Valles",
              "lat": 32.3925,
              "lng": -116.955
            },
            {
              "name": "Playas de Rosarito",
              "lat": 32.34342,
              "lng": -117.03186
            },
            {
              "name": "Poblado Chulavista (El Chorizo)",
              "lat": 30.74722,
              "lng": -116.00306
            },
            {
              "name": "Pórticos de San Antonio",
              "lat": 32.4425,
              "lng": -117.03417
            },
            {
              "name": "Primo Tapia",
              "lat": 32.22226,
              "lng": -116.9139
            },
            {
              "name": "Quinta del Cedro",
              "lat": 32.4375,
              "lng": -117.06583
            },
            {
              "name": "Rancho Verde",
              "lat": 31.91611,
              "lng": -116.58833
            },
            {
              "name": "Rodolfo Sánchez Taboada",
              "lat": 31.72099,
              "lng": -116.57184
            },
            {
              "name": "Salvador Rosas Magallón",
              "lat": 31.90139,
              "lng": -116.54778
            },
            {
              "name": "San Vicente",
              "lat": 31.32518,
              "lng": -116.24662
            },
            {
              "name": "Santa Anita",
              "lat": 32.10083,
              "lng": -116.86917
            },
            {
              "name": "Santa Fé",
              "lat": 30.67984,
              "lng": -115.97653
            },
            {
              "name": "Vicente Guerrero",
              "lat": 30.73097,
              "lng": -115.99071
            }
          ]
        },
        {
          "name": "Tijuana",
          "lat": 32.50223,
          "lng": -116.97212,
          "subdistricts": [
            {
              "name": "Alfonso Garzón [Granjas Familiares]",
              "lat": 32.54667,
              "lng": -116.61722
            },
            {
              "name": "Buenos Aires",
              "lat": 32.42278,
              "lng": -116.94111
            },
            {
              "name": "Cereso del Hongo",
              "lat": 32.48417,
              "lng": -116.25056
            },
            {
              "name": "Ejido Javier Rojo Gómez",
              "lat": 32.49389,
              "lng": -116.82222
            },
            {
              "name": "Ejido Ojo de Agua",
              "lat": 32.47556,
              "lng": -116.78917
            },
            {
              "name": "El Niño",
              "lat": 32.5075,
              "lng": -116.79194
            },
            {
              "name": "Hacienda Tecate",
              "lat": 32.565,
              "lng": -116.525
            },
            {
              "name": "Las Delicias",
              "lat": 32.40889,
              "lng": -116.94361
            },
            {
              "name": "Lomas de Santa Anita",
              "lat": 32.54278,
              "lng": -116.65139
            },
            {
              "name": "Lomas de Tlatelolco",
              "lat": 32.48306,
              "lng": -116.80167
            },
            {
              "name": "Maclovio Herrera (Colonia Aviación)",
              "lat": 32.54194,
              "lng": -116.63611
            },
            {
              "name": "Maclovio Rojas",
              "lat": 32.47306,
              "lng": -116.80278
            },
            {
              "name": "Rancho La Gloria",
              "lat": 32.44619,
              "lng": -117.00103
            },
            {
              "name": "San Luis",
              "lat": 32.43167,
              "lng": -116.95361
            },
            {
              "name": "Tecate",
              "lat": 32.55029,
              "lng": -116.63223
            },
            {
              "name": "Terrazas del Valle",
              "lat": 32.4875,
              "lng": -116.82667
            },
            {
              "name": "Villa del Campo",
              "lat": 32.5075,
              "lng": -116.73833
            },
            {
              "name": "Villa del Prado 2da Sección",
              "lat": 32.42389,
              "lng": -116.97167
            }
          ]
        }
      ]
    },
    {
      "name": "Baja California Sur",
      "lat": 25.5818014,
      "lng": -111.5706164,
      "districts": [
        {
          "name": "Cabo San Lucas",
          "lat": 22.89088,
          "lng": -109.91238,
          "subdistricts": [
            {
              "name": "Colonia del Sol",
              "lat": 22.91273,
              "lng": -109.92655
            },
            {
              "name": "Las Palmas",
              "lat": 22.93672,
              "lng": -109.94235
            }
          ]
        },
        {
          "name": "Los Cabos",
          "lat": 23.27663,
          "lng": -109.75322,
          "subdistricts": [
            {
              "name": "Bahía Asunción",
              "lat": 27.14231,
              "lng": -114.29582
            },
            {
              "name": "Bahía Tortugas",
              "lat": 27.69056,
              "lng": -114.8966
            },
            {
              "name": "Chametla",
              "lat": 24.09926,
              "lng": -110.37395
            },
            {
              "name": "Ciudad Constitución",
              "lat": 25.0321,
              "lng": -111.66256
            },
            {
              "name": "Ciudad Insurgentes",
              "lat": 25.26345,
              "lng": -111.77444
            },
            {
              "name": "Comondú",
              "lat": 26.06667,
              "lng": -111.81666
            },
            {
              "name": "El Centenario",
              "lat": 24.1025,
              "lng": -110.41444
            },
            {
              "name": "El Pescadero",
              "lat": 23.36417,
              "lng": -110.16833
            },
            {
              "name": "El Silencio",
              "lat": 27.46801,
              "lng": -113.29987
            },
            {
              "name": "La Paz",
              "lat": 24.14437,
              "lng": -110.3005
            },
            {
              "name": "La Rivera",
              "lat": 23.59458,
              "lng": -109.58523
            },
            {
              "name": "Las Margaritas",
              "lat": 27.61833,
              "lng": -113.45361
            },
            {
              "name": "Loreto",
              "lat": 26.01217,
              "lng": -111.34888
            },
            {
              "name": "Los Barriles",
              "lat": 23.68273,
              "lng": -109.69953
            },
            {
              "name": "Melitón Albáñez Domínguez",
              "lat": 23.66139,
              "lng": -110.42083
            },
            {
              "name": "Miraflores",
              "lat": 23.36975,
              "lng": -109.77436
            },
            {
              "name": "Mulegé",
              "lat": 26.6,
              "lng": -112.33333
            },
            {
              "name": "Puerto Adolfo Lopez Mateos",
              "lat": 25.19224,
              "lng": -112.1168
            },
            {
              "name": "Puerto San Carlos",
              "lat": 24.78874,
              "lng": -112.10504
            },
            {
              "name": "San Francisco",
              "lat": 27.645,
              "lng": -113.41917
            },
            {
              "name": "Santa Rosalía",
              "lat": 27.34045,
              "lng": -112.26761
            },
            {
              "name": "Todos Santos",
              "lat": 23.44688,
              "lng": -110.22308
            },
            {
              "name": "Villa Alberto Andrés Alvarado Arámburo",
              "lat": 27.64444,
              "lng": -113.38472
            },
            {
              "name": "Villa Morelos",
              "lat": 24.93,
              "lng": -111.62806
            }
          ]
        },
        {
          "name": "San José del Cabo",
          "lat": 23.05888,
          "lng": -109.69771,
          "subdistricts": [
            {
              "name": "La Playa",
              "lat": 23.06417,
              "lng": -109.66833
            },
            {
              "name": "Las Veredas",
              "lat": 23.15028,
              "lng": -109.70611
            }
          ]
        }
      ]
    },
    {
      "name": "Campeche",
      "lat": 19.8381215,
      "lng": -90.5198253,
      "districts": [
        {
          "name": "Carmen",
          "lat": 18.63,
          "lng": -91.83,
          "subdistricts": [
            {
              "name": "Altamira de Zináparo",
              "lat": 18.58208,
              "lng": -90.2561
            },
            {
              "name": "Atasta",
              "lat": 18.61954,
              "lng": -92.10326
            },
            {
              "name": "Benito Juárez Uno",
              "lat": 18.27695,
              "lng": -91.09914
            },
            {
              "name": "Calakmul",
              "lat": 18,
              "lng": -89.75
            },
            {
              "name": "Candelaria",
              "lat": 18,
              "lng": -90.75
            },
            {
              "name": "Constitución",
              "lat": 18.62675,
              "lng": -90.13584
            },
            {
              "name": "División del Norte",
              "lat": 18.52946,
              "lng": -90.76416
            },
            {
              "name": "Don Samuel",
              "lat": 18.36,
              "lng": -90.85722
            },
            {
              "name": "El Aguacatal",
              "lat": 18.21361,
              "lng": -91.51095
            },
            {
              "name": "El Naranjo",
              "lat": 18.02193,
              "lng": -91.12654
            },
            {
              "name": "Escárcega",
              "lat": 18.61404,
              "lng": -90.7287
            },
            {
              "name": "Haro",
              "lat": 18.44418,
              "lng": -90.79153
            },
            {
              "name": "La Libertad",
              "lat": 18.57042,
              "lng": -90.51399
            },
            {
              "name": "Licenciado Gustavo Díaz Ordaz (18 de Marzo)",
              "lat": 18.63222,
              "lng": -91.00278
            },
            {
              "name": "Mamantel",
              "lat": 18.52512,
              "lng": -91.08885
            },
            {
              "name": "Matamoros",
              "lat": 18.58414,
              "lng": -90.64669
            },
            {
              "name": "Nuevo Progreso",
              "lat": 18.62294,
              "lng": -92.29124
            },
            {
              "name": "Palizada",
              "lat": 18.25261,
              "lng": -92.07779
            },
            {
              "name": "San Antonio Cárdenas",
              "lat": 18.61399,
              "lng": -92.22341
            },
            {
              "name": "Xpujil",
              "lat": 18.5076,
              "lng": -89.39437
            },
            {
              "name": "Zoh-Laguna",
              "lat": 18.59306,
              "lng": -89.41714
            }
          ]
        },
        {
          "name": "Ciudad del Carmen",
          "lat": 18.64592,
          "lng": -91.82991,
          "subdistricts": [
            {
              "name": "Abelardo L. Rodríguez",
              "lat": 18.72842,
              "lng": -90.90456
            },
            {
              "name": "Alfredo V. Bonfil",
              "lat": 19.53032,
              "lng": -90.18214
            },
            {
              "name": "Bacabchén",
              "lat": 20.28903,
              "lng": -90.05602
            },
            {
              "name": "Bécal",
              "lat": 20.44172,
              "lng": -90.02738
            },
            {
              "name": "Bolonchén de Rejón",
              "lat": 20.00386,
              "lng": -89.74663
            },
            {
              "name": "Calkiní",
              "lat": 20.38583,
              "lng": -89.98764
            },
            {
              "name": "Campeche",
              "lat": 19.84386,
              "lng": -90.52554
            },
            {
              "name": "Carrillo Puerto",
              "lat": 19.094,
              "lng": -90.52279
            },
            {
              "name": "Castamay",
              "lat": 19.83782,
              "lng": -90.43181
            },
            {
              "name": "Champotón",
              "lat": 19.35042,
              "lng": -90.70991
            },
            {
              "name": "Chicbul",
              "lat": 18.77558,
              "lng": -90.92429
            },
            {
              "name": "Chiná",
              "lat": 19.76993,
              "lng": -90.49595
            },
            {
              "name": "Chunchintok",
              "lat": 19.36145,
              "lng": -89.58218
            },
            {
              "name": "Colonia Emiliano Zapata",
              "lat": 18.66504,
              "lng": -92.31088
            },
            {
              "name": "Cumpich",
              "lat": 20.18612,
              "lng": -89.97081
            },
            {
              "name": "Dzibalchén",
              "lat": 19.45847,
              "lng": -89.73111
            },
            {
              "name": "Dzitbalché",
              "lat": 20.31857,
              "lng": -90.05611
            },
            {
              "name": "Hampolol",
              "lat": 19.92716,
              "lng": -90.38924
            },
            {
              "name": "Hecelchakán",
              "lat": 20.16667,
              "lng": -90.13333
            },
            {
              "name": "Hool",
              "lat": 19.51294,
              "lng": -90.44631
            },
            {
              "name": "Hopelchén",
              "lat": 19.74671,
              "lng": -89.84437
            },
            {
              "name": "Isla Aguada",
              "lat": 18.78714,
              "lng": -91.49277
            },
            {
              "name": "Iturbide",
              "lat": 19.57903,
              "lng": -89.60222
            },
            {
              "name": "La Joya",
              "lat": 19.48028,
              "lng": -90.67333
            },
            {
              "name": "Lerma",
              "lat": 19.80404,
              "lng": -90.60088
            },
            {
              "name": "Los Laureles",
              "lat": 19.48778,
              "lng": -89.99444
            },
            {
              "name": "Maya Tecún I",
              "lat": 19.15292,
              "lng": -90.50641
            },
            {
              "name": "Nunkiní",
              "lat": 20.40046,
              "lng": -90.14803
            },
            {
              "name": "Pich",
              "lat": 19.48568,
              "lng": -90.11795
            },
            {
              "name": "Pocboc",
              "lat": 20.23541,
              "lng": -90.10219
            },
            {
              "name": "Pomuch",
              "lat": 20.13727,
              "lng": -90.17488
            },
            {
              "name": "Sabancuy",
              "lat": 18.9727,
              "lng": -91.17783
            },
            {
              "name": "San Antonio Sahcabchén",
              "lat": 20.30696,
              "lng": -90.13778
            },
            {
              "name": "San Francisco Kobén",
              "lat": 19.91516,
              "lng": -90.41709
            },
            {
              "name": "San Pablo Pixtún",
              "lat": 19.13361,
              "lng": -90.73194
            },
            {
              "name": "Santa Cruz",
              "lat": 20.20339,
              "lng": -90.11771
            },
            {
              "name": "Santa Cruz Ex-Hacienda",
              "lat": 20.39684,
              "lng": -90.24068
            },
            {
              "name": "Santa Cruz Pueblo",
              "lat": 20.33359,
              "lng": -90.10342
            },
            {
              "name": "Santo Domingo Kesté",
              "lat": 19.49972,
              "lng": -90.51139
            },
            {
              "name": "Seybaplaya",
              "lat": 19.63994,
              "lng": -90.68706
            },
            {
              "name": "Sihochac",
              "lat": 19.5012,
              "lng": -90.58472
            },
            {
              "name": "Suc-Tuc",
              "lat": 19.71259,
              "lng": -90.03768
            },
            {
              "name": "Tankuché",
              "lat": 20.50743,
              "lng": -90.24164
            },
            {
              "name": "Tenabo",
              "lat": 19.83333,
              "lng": -90
            },
            {
              "name": "Tepakán",
              "lat": 20.39716,
              "lng": -90.04075
            },
            {
              "name": "Tikinmul",
              "lat": 19.76611,
              "lng": -90.22306
            },
            {
              "name": "Ukúm",
              "lat": 19.24197,
              "lng": -89.33529
            },
            {
              "name": "Villa Madero",
              "lat": 19.52833,
              "lng": -90.69917
            },
            {
              "name": "Xbacab",
              "lat": 18.94139,
              "lng": -90.72194
            },
            {
              "name": "Xmabén",
              "lat": 19.2353,
              "lng": -89.31426
            }
          ]
        }
      ]
    },
    {
      "name": "Chiapas",
      "lat": 16.5000001,
      "lng": -92.5000001,
      "districts": [
        {
          "name": "Chilón",
          "lat": 17.11667,
          "lng": -92.28333,
          "subdistricts": [
            {
              "name": "Abasolo",
              "lat": 16.8214,
              "lng": -92.21611
            },
            {
              "name": "Agua Azul",
              "lat": 16.81432,
              "lng": -91.52391
            },
            {
              "name": "Agua Blanca Serranía",
              "lat": 17.26781,
              "lng": -91.83564
            },
            {
              "name": "Altamirano",
              "lat": 16.88333,
              "lng": -92.15
            },
            {
              "name": "Amado Nervo",
              "lat": 17.23107,
              "lng": -92.24581
            },
            {
              "name": "Amatán",
              "lat": 17.36667,
              "lng": -92.81667
            },
            {
              "name": "Arimatea",
              "lat": 17.34139,
              "lng": -91.87639
            },
            {
              "name": "Arroyo Granizo",
              "lat": 17.03716,
              "lng": -91.42563
            },
            {
              "name": "Arroyo Palenque",
              "lat": 17.39167,
              "lng": -92.10444
            },
            {
              "name": "Aurora Esquipulas",
              "lat": 17.11704,
              "lng": -92.47626
            },
            {
              "name": "Bachajón",
              "lat": 17.03963,
              "lng": -92.18986
            },
            {
              "name": "Cantioc",
              "lat": 17.26222,
              "lng": -92.40694
            },
            {
              "name": "Catazajá",
              "lat": 17.73333,
              "lng": -92.01667
            },
            {
              "name": "Cenobio Aguilar (La Trinidad)",
              "lat": 17.40472,
              "lng": -92.31944
            },
            {
              "name": "Chiquinival",
              "lat": 16.99111,
              "lng": -91.96028
            },
            {
              "name": "Chiquinshulum",
              "lat": 17.07194,
              "lng": -92.59806
            },
            {
              "name": "Chulum Cárdenas",
              "lat": 17.38417,
              "lng": -92.57389
            },
            {
              "name": "Chulum Juárez",
              "lat": 17.33194,
              "lng": -92.53389
            },
            {
              "name": "Constitución",
              "lat": 17.07556,
              "lng": -92.52417
            },
            {
              "name": "Cristóbal Colón",
              "lat": 17.19194,
              "lng": -91.62917
            },
            {
              "name": "Damasco",
              "lat": 17.16161,
              "lng": -91.60058
            },
            {
              "name": "Doctor Samuel León Brindis",
              "lat": 17.43528,
              "lng": -91.93194
            },
            {
              "name": "Egipto",
              "lat": 17.26207,
              "lng": -91.9715
            },
            {
              "name": "El Calvario",
              "lat": 17.2175,
              "lng": -92.55694
            },
            {
              "name": "El Censo",
              "lat": 16.86287,
              "lng": -91.55988
            },
            {
              "name": "El Jardín",
              "lat": 17.16657,
              "lng": -92.59933
            },
            {
              "name": "El Limar",
              "lat": 17.41491,
              "lng": -92.40293
            },
            {
              "name": "El Limonar",
              "lat": 16.97026,
              "lng": -91.3782
            },
            {
              "name": "El Mango",
              "lat": 17.16236,
              "lng": -92.05985
            },
            {
              "name": "El Paraíso",
              "lat": 17.24639,
              "lng": -92.55694
            },
            {
              "name": "El Pozo",
              "lat": 16.92034,
              "lng": -92.41166
            },
            {
              "name": "El Sibal",
              "lat": 16.98,
              "lng": -91.49111
            },
            {
              "name": "El Tumbo",
              "lat": 17.07779,
              "lng": -91.62595
            },
            {
              "name": "El Tzay",
              "lat": 16.86361,
              "lng": -92.31222
            },
            {
              "name": "Emiliano Zapata",
              "lat": 17.74058,
              "lng": -91.76635
            },
            {
              "name": "Estrella de Belén",
              "lat": 17.38722,
              "lng": -91.95861
            },
            {
              "name": "Guaquitepec",
              "lat": 16.98017,
              "lng": -92.28795
            },
            {
              "name": "Hidalgo Joshil",
              "lat": 17.22743,
              "lng": -92.34719
            },
            {
              "name": "Huitiupán",
              "lat": 17.1724,
              "lng": -92.68621
            },
            {
              "name": "Jerusalén",
              "lat": 17.36806,
              "lng": -92.06083
            },
            {
              "name": "Joljá",
              "lat": 17.20459,
              "lng": -92.49946
            },
            {
              "name": "Jolsibaquil",
              "lat": 17.25972,
              "lng": -92.48167
            },
            {
              "name": "Joltealal",
              "lat": 17.07683,
              "lng": -92.62163
            },
            {
              "name": "José María Morelos y Pavón",
              "lat": 17.24105,
              "lng": -92.70231
            },
            {
              "name": "Joshil",
              "lat": 17.24667,
              "lng": -92.36278
            },
            {
              "name": "La Ceiba",
              "lat": 17.13371,
              "lng": -92.51887
            },
            {
              "name": "La Competencia",
              "lat": 17.23588,
              "lng": -92.75718
            },
            {
              "name": "Lacandón",
              "lat": 17.02141,
              "lng": -91.59523
            },
            {
              "name": "Loma Bonita",
              "lat": 17.78697,
              "lng": -92.07651
            },
            {
              "name": "Los Naranjos",
              "lat": 17.26446,
              "lng": -92.61972
            },
            {
              "name": "Los Pinos",
              "lat": 16.92083,
              "lng": -92.10861
            },
            {
              "name": "Majastic",
              "lat": 17.28944,
              "lng": -92.62833
            },
            {
              "name": "Mariscal Subikuski",
              "lat": 17.3325,
              "lng": -92.38083
            },
            {
              "name": "Miguel Utrilla (Los Chorros)",
              "lat": 16.94278,
              "lng": -92.47972
            },
            {
              "name": "Misija",
              "lat": 17.26611,
              "lng": -92.38167
            },
            {
              "name": "Morelia (Victórico Rodolfo Grajales)",
              "lat": 16.72306,
              "lng": -91.96778
            },
            {
              "name": "Moyos",
              "lat": 17.35889,
              "lng": -92.64134
            },
            {
              "name": "Nueva Esperanza",
              "lat": 17.24746,
              "lng": -92.45524
            },
            {
              "name": "Nuevo Francisco León",
              "lat": 17.03031,
              "lng": -91.32216
            },
            {
              "name": "Nuevo Limar",
              "lat": 17.45514,
              "lng": -92.3989
            },
            {
              "name": "Nuevo Sitalá",
              "lat": 17.13936,
              "lng": -92.48287
            },
            {
              "name": "Ocosingo",
              "lat": 16.90639,
              "lng": -92.09374
            },
            {
              "name": "Palenque",
              "lat": 17.50953,
              "lng": -91.98248
            },
            {
              "name": "Pantelhó",
              "lat": 17.00563,
              "lng": -92.47165
            },
            {
              "name": "Patria Nueva (San José el Contento)",
              "lat": 16.92778,
              "lng": -92.11361
            },
            {
              "name": "Petalcingo",
              "lat": 17.22715,
              "lng": -92.41511
            },
            {
              "name": "Profresor Roberto Barrios",
              "lat": 17.32583,
              "lng": -91.92639
            },
            {
              "name": "Punta Arena",
              "lat": 17.74601,
              "lng": -92.05871
            },
            {
              "name": "Reforma y Planada",
              "lat": 17.38694,
              "lng": -92.86583
            },
            {
              "name": "Río Chancalá",
              "lat": 17.33454,
              "lng": -91.6843
            },
            {
              "name": "Río Jordán",
              "lat": 17.24611,
              "lng": -91.93306
            },
            {
              "name": "Sabanilla",
              "lat": 17.30308,
              "lng": -92.58368
            },
            {
              "name": "Salto de Agua",
              "lat": 17.55435,
              "lng": -92.33941
            },
            {
              "name": "San Antonio Bulujib",
              "lat": 16.99667,
              "lng": -92.29667
            },
            {
              "name": "San Jerónimo Tulijá",
              "lat": 17.22361,
              "lng": -91.78972
            },
            {
              "name": "San Miguel",
              "lat": 17.36324,
              "lng": -92.00762
            },
            {
              "name": "Santa Elena",
              "lat": 16.89267,
              "lng": -91.58987
            },
            {
              "name": "Santa María",
              "lat": 17.3523,
              "lng": -92.07679
            },
            {
              "name": "Santiago Pojcol",
              "lat": 16.99148,
              "lng": -91.98071
            },
            {
              "name": "Shoctic",
              "lat": 17.22361,
              "lng": -92.48806
            },
            {
              "name": "Sibacá",
              "lat": 16.93093,
              "lng": -92.14006
            },
            {
              "name": "Simojovel",
              "lat": 17.14736,
              "lng": -92.67154
            },
            {
              "name": "Sitalá",
              "lat": 17.02417,
              "lng": -92.30694
            },
            {
              "name": "Tacuba Nueva",
              "lat": 17.09028,
              "lng": -92.37028
            },
            {
              "name": "Taniperla",
              "lat": 16.82222,
              "lng": -91.52333
            },
            {
              "name": "Tenango",
              "lat": 16.96667,
              "lng": -92.41667
            },
            {
              "name": "Tila",
              "lat": 17.30054,
              "lng": -92.4273
            },
            {
              "name": "Tocob Leglemal",
              "lat": 17.23389,
              "lng": -92.37833
            },
            {
              "name": "Tumbala",
              "lat": 17.27746,
              "lng": -92.317
            },
            {
              "name": "Tzajalá",
              "lat": 17.13559,
              "lng": -92.39328
            },
            {
              "name": "Tzeltal",
              "lat": 16.93944,
              "lng": -92.47778
            },
            {
              "name": "Ubilio García",
              "lat": 17.08405,
              "lng": -91.47241
            },
            {
              "name": "Unión Juárez",
              "lat": 17.28083,
              "lng": -92.39972
            },
            {
              "name": "Usipa",
              "lat": 17.50028,
              "lng": -92.43806
            },
            {
              "name": "Yajalón",
              "lat": 17.18519,
              "lng": -92.32715
            },
            {
              "name": "Zacatonal de Juárez",
              "lat": 17.27097,
              "lng": -92.79936
            },
            {
              "name": "Zaragoza",
              "lat": 17.00906,
              "lng": -91.64033
            }
          ]
        },
        {
          "name": "Comitán",
          "lat": 16.2471,
          "lng": -92.13515,
          "subdistricts": [
            {
              "name": "Agua Zarca",
              "lat": 15.63417,
              "lng": -92.14472
            },
            {
              "name": "Ángel Albino Corzo",
              "lat": 15.86624,
              "lng": -92.72324
            },
            {
              "name": "Bajucu",
              "lat": 16.4752,
              "lng": -92.06471
            },
            {
              "name": "Bella Vista",
              "lat": 15.58333,
              "lng": -92.21667
            },
            {
              "name": "Benemérito de las Américas",
              "lat": 16.51599,
              "lng": -90.65371
            },
            {
              "name": "Buenavista",
              "lat": 16.24278,
              "lng": -91.98778
            },
            {
              "name": "Cash",
              "lat": 16.26426,
              "lng": -92.09775
            },
            {
              "name": "Chacaljocóm",
              "lat": 16.29919,
              "lng": -92.18345
            },
            {
              "name": "Chicomuselo",
              "lat": 15.7442,
              "lng": -92.2833
            },
            {
              "name": "Chihuahua",
              "lat": 16.02966,
              "lng": -91.97331
            },
            {
              "name": "Ciudad Cuauhtémoc",
              "lat": 15.66587,
              "lng": -92.00388
            },
            {
              "name": "Comalapa",
              "lat": 15.65924,
              "lng": -92.14237
            },
            {
              "name": "Doctor Rodulfo Figueroa (Tierra Blanca)",
              "lat": 15.85083,
              "lng": -92.06222
            },
            {
              "name": "Efraín A. Gutiérrez",
              "lat": 16.34442,
              "lng": -92.19927
            },
            {
              "name": "El Edén",
              "lat": 16.29191,
              "lng": -91.63755
            },
            {
              "name": "El Pacayal",
              "lat": 15.59849,
              "lng": -92.04254
            },
            {
              "name": "El Portal",
              "lat": 15.67726,
              "lng": -92.09588
            },
            {
              "name": "El Porvenir Agrarista",
              "lat": 16.16465,
              "lng": -91.83575
            },
            {
              "name": "El Puerto",
              "lat": 16.42575,
              "lng": -92.43059
            },
            {
              "name": "El Triunfo",
              "lat": 16.202,
              "lng": -91.85916
            },
            {
              "name": "El Triunfo de las Tres Maravillas",
              "lat": 15.64694,
              "lng": -92.15639
            },
            {
              "name": "El Vergel",
              "lat": 16.57951,
              "lng": -92.08148
            },
            {
              "name": "El Zapotal",
              "lat": 16.74991,
              "lng": -91.44192
            },
            {
              "name": "Flor de Cacao",
              "lat": 16.12889,
              "lng": -90.45111
            },
            {
              "name": "Frontera Corozal",
              "lat": 16.81473,
              "lng": -90.88351
            },
            {
              "name": "Guadalupe Grijalva",
              "lat": 15.69899,
              "lng": -92.16414
            },
            {
              "name": "Héroes de Chapultepec",
              "lat": 16.0692,
              "lng": -92.28621
            },
            {
              "name": "Jalisco",
              "lat": 16.43033,
              "lng": -91.97499
            },
            {
              "name": "Jaltenango de la Paz",
              "lat": 15.87314,
              "lng": -92.72437
            },
            {
              "name": "José María Morelos",
              "lat": 16.04189,
              "lng": -91.83201
            },
            {
              "name": "Justo Sierra",
              "lat": 16.54248,
              "lng": -92.05737
            },
            {
              "name": "La Concordia",
              "lat": 16.11774,
              "lng": -92.69018
            },
            {
              "name": "La Esperanza",
              "lat": 16.15191,
              "lng": -91.86874
            },
            {
              "name": "La Floresta",
              "lat": 16.50915,
              "lng": -92.31251
            },
            {
              "name": "La Gloria",
              "lat": 15.96389,
              "lng": -91.965
            },
            {
              "name": "La Independencia",
              "lat": 16.25263,
              "lng": -92.02371
            },
            {
              "name": "La Laguna",
              "lat": 16.69357,
              "lng": -91.94929
            },
            {
              "name": "La Patria",
              "lat": 16.22975,
              "lng": -91.91148
            },
            {
              "name": "La Rinconada",
              "lat": 15.59333,
              "lng": -92.26806
            },
            {
              "name": "La Trinitaria",
              "lat": 16.11859,
              "lng": -92.05201
            },
            {
              "name": "Laguna del Cofre",
              "lat": 15.62751,
              "lng": -92.64143
            },
            {
              "name": "Las Chicharras",
              "lat": 15.67089,
              "lng": -92.2107
            },
            {
              "name": "Las Delicias",
              "lat": 15.96932,
              "lng": -91.86315
            },
            {
              "name": "Las Margaritas",
              "lat": 16.31265,
              "lng": -91.98107
            },
            {
              "name": "Las Rosas",
              "lat": 16.36574,
              "lng": -92.3704
            },
            {
              "name": "Las Tazas",
              "lat": 16.75722,
              "lng": -91.615
            },
            {
              "name": "Lomantán",
              "lat": 16.43999,
              "lng": -92.06445
            },
            {
              "name": "Los Riegos",
              "lat": 16.30457,
              "lng": -92.12425
            },
            {
              "name": "Maravilla Tenejapa",
              "lat": 16.20391,
              "lng": -91.26093
            },
            {
              "name": "Marqués de Comillas",
              "lat": 16.21471,
              "lng": -90.75917
            },
            {
              "name": "Monte Redondo",
              "lat": 15.65217,
              "lng": -92.05045
            },
            {
              "name": "Montecristo",
              "lat": 15.69263,
              "lng": -92.61999
            },
            {
              "name": "Montecristo de Guerrero",
              "lat": 15.67526,
              "lng": -92.64399
            },
            {
              "name": "Nueva América",
              "lat": 15.92281,
              "lng": -92.30587
            },
            {
              "name": "Nueva Colombia",
              "lat": 15.6967,
              "lng": -92.72111
            },
            {
              "name": "Nueva Independencia",
              "lat": 15.78259,
              "lng": -92.20883
            },
            {
              "name": "Nueva Libertad (El Colorado)",
              "lat": 15.89861,
              "lng": -92.05917
            },
            {
              "name": "Nueva Morelia",
              "lat": 15.61784,
              "lng": -92.14517
            },
            {
              "name": "Nueva Palestina",
              "lat": 16.81722,
              "lng": -91.26
            },
            {
              "name": "Nuevo Pacayal",
              "lat": 15.6601,
              "lng": -92.31538
            },
            {
              "name": "Nuevo San Juan Chamula",
              "lat": 16.14426,
              "lng": -91.44379
            },
            {
              "name": "Ochusjob",
              "lat": 16.22482,
              "lng": -92.25201
            },
            {
              "name": "Ojo de Agua",
              "lat": 16.15773,
              "lng": -91.75794
            },
            {
              "name": "Pablo L. Sidar",
              "lat": 15.83053,
              "lng": -92.27977
            },
            {
              "name": "Paso Hondo",
              "lat": 15.6839,
              "lng": -92.0186
            },
            {
              "name": "Perla de Acapulco",
              "lat": 16.7957,
              "lng": -91.47793
            },
            {
              "name": "Piedra Labrada",
              "lat": 15.68226,
              "lng": -92.30538
            },
            {
              "name": "Plan de Ayala",
              "lat": 16.47152,
              "lng": -92.02735
            },
            {
              "name": "Potrerillo",
              "lat": 15.63096,
              "lng": -92.02059
            },
            {
              "name": "Querétaro",
              "lat": 15.83752,
              "lng": -92.75774
            },
            {
              "name": "Rafael Ramírez",
              "lat": 16.46199,
              "lng": -91.94523
            },
            {
              "name": "Ramón F. Balboa",
              "lat": 16.47427,
              "lng": -91.40318
            },
            {
              "name": "Río Blanco",
              "lat": 16.20501,
              "lng": -91.63429
            },
            {
              "name": "Rizo de Oro",
              "lat": 15.97088,
              "lng": -92.48316
            },
            {
              "name": "Rodulfo Figueroa",
              "lat": 15.92006,
              "lng": -91.9037
            },
            {
              "name": "Sabinalito",
              "lat": 15.70186,
              "lng": -91.98636
            },
            {
              "name": "Saltillo",
              "lat": 16.39359,
              "lng": -91.9489
            },
            {
              "name": "San Antonio Buenavista",
              "lat": 16.15234,
              "lng": -91.6502
            },
            {
              "name": "San Caralampio",
              "lat": 15.82935,
              "lng": -92.03555
            },
            {
              "name": "San Francisco Pujiltic",
              "lat": 16.27922,
              "lng": -92.45319
            },
            {
              "name": "San José las Chicharras",
              "lat": 15.64363,
              "lng": -92.20659
            },
            {
              "name": "San José Yocnajab",
              "lat": 16.25383,
              "lng": -92.08698
            },
            {
              "name": "San Quintín",
              "lat": 16.40672,
              "lng": -91.34575
            },
            {
              "name": "San Vicente la Mesilla",
              "lat": 16.17861,
              "lng": -92.29333
            },
            {
              "name": "Santa Rita",
              "lat": 16.13167,
              "lng": -91.975
            },
            {
              "name": "Santo Domingo de las Palmas",
              "lat": 16.13667,
              "lng": -91.32194
            },
            {
              "name": "Señor del Pozo",
              "lat": 16.29625,
              "lng": -92.11165
            },
            {
              "name": "Sinaloa",
              "lat": 15.89261,
              "lng": -92.12896
            },
            {
              "name": "Socoltenango",
              "lat": 16.17412,
              "lng": -92.36658
            },
            {
              "name": "Soyatitán",
              "lat": 16.29427,
              "lng": -92.42402
            },
            {
              "name": "Tzimol",
              "lat": 16.18356,
              "lng": -92.18934
            },
            {
              "name": "Tzinil",
              "lat": 16.25778,
              "lng": -92.32222
            },
            {
              "name": "Tziscao",
              "lat": 16.08155,
              "lng": -91.66641
            },
            {
              "name": "Unión Buenavista",
              "lat": 15.79527,
              "lng": -92.54417
            },
            {
              "name": "Veracruz",
              "lat": 16.40417,
              "lng": -91.99944
            },
            {
              "name": "Verapaz",
              "lat": 15.71166,
              "lng": -92.06199
            },
            {
              "name": "Villahermosa Yaluma",
              "lat": 16.33366,
              "lng": -92.07771
            },
            {
              "name": "Yasha",
              "lat": 16.39141,
              "lng": -92.06878
            },
            {
              "name": "Zamora Pico de Oro",
              "lat": 16.33205,
              "lng": -90.7656
            },
            {
              "name": "Zaragoza la Montaña",
              "lat": 16.41653,
              "lng": -92.20512
            }
          ]
        },
        {
          "name": "San Cristóbal de las Casas",
          "lat": 16.73176,
          "lng": -92.64126,
          "subdistricts": [
            {
              "name": "Acala",
              "lat": 16.55625,
              "lng": -92.80449
            },
            {
              "name": "Aguacatenango",
              "lat": 16.47388,
              "lng": -92.40875
            },
            {
              "name": "Aldama",
              "lat": 16.91667,
              "lng": -92.68333
            },
            {
              "name": "Amatenango del Valle",
              "lat": 16.52722,
              "lng": -92.43472
            },
            {
              "name": "Apas",
              "lat": 16.71066,
              "lng": -92.79335
            },
            {
              "name": "Arvenza Uno",
              "lat": 16.77972,
              "lng": -92.72028
            },
            {
              "name": "Bautista Chico",
              "lat": 16.79972,
              "lng": -92.71194
            },
            {
              "name": "Betania",
              "lat": 16.60639,
              "lng": -92.52194
            },
            {
              "name": "Bochojbo Alto",
              "lat": 16.73583,
              "lng": -92.71694
            },
            {
              "name": "Cacaté",
              "lat": 16.84534,
              "lng": -92.83485
            },
            {
              "name": "Cálido",
              "lat": 17.09889,
              "lng": -92.7875
            },
            {
              "name": "Cancuc",
              "lat": 16.91667,
              "lng": -92.48333
            },
            {
              "name": "Carmen Yalchuch",
              "lat": 16.64482,
              "lng": -92.36245
            },
            {
              "name": "Carmen Zacatal",
              "lat": 17.08083,
              "lng": -92.8025
            },
            {
              "name": "Catishtic",
              "lat": 16.78028,
              "lng": -92.73778
            },
            {
              "name": "Chacoma",
              "lat": 16.87611,
              "lng": -92.49139
            },
            {
              "name": "Chalam",
              "lat": 16.88771,
              "lng": -92.55009
            },
            {
              "name": "Chalchihuitán",
              "lat": 16.96667,
              "lng": -92.65
            },
            {
              "name": "Chamula",
              "lat": 16.78416,
              "lng": -92.68959
            },
            {
              "name": "Chanal",
              "lat": 16.6575,
              "lng": -92.2575
            },
            {
              "name": "Chiapilla",
              "lat": 16.55397,
              "lng": -92.72594
            },
            {
              "name": "Chicumtantic",
              "lat": 16.86556,
              "lng": -92.60528
            },
            {
              "name": "Chiloljá",
              "lat": 16.88528,
              "lng": -92.42472
            },
            {
              "name": "Chimhucum",
              "lat": 16.89,
              "lng": -92.53139
            },
            {
              "name": "Chixtontic",
              "lat": 16.8908,
              "lng": -92.45793
            },
            {
              "name": "Cruztón",
              "lat": 16.76167,
              "lng": -92.57917
            },
            {
              "name": "Cuchulumtic",
              "lat": 16.77722,
              "lng": -92.70417
            },
            {
              "name": "El Ámbar",
              "lat": 17.025,
              "lng": -92.83417
            },
            {
              "name": "El Bosque",
              "lat": 17.06273,
              "lng": -92.72147
            },
            {
              "name": "El Nopal",
              "lat": 16.91161,
              "lng": -92.84471
            },
            {
              "name": "Guadalupe Victoria",
              "lat": 16.405,
              "lng": -92.5525
            },
            {
              "name": "Jomanichim",
              "lat": 16.90056,
              "lng": -92.47222
            },
            {
              "name": "Kotolte",
              "lat": 16.86444,
              "lng": -92.46111
            },
            {
              "name": "La Candelaria",
              "lat": 16.74289,
              "lng": -92.52156
            },
            {
              "name": "La Pimienta",
              "lat": 17.14111,
              "lng": -92.76222
            },
            {
              "name": "Larráinzar",
              "lat": 16.88392,
              "lng": -92.71329
            },
            {
              "name": "Las Ollas",
              "lat": 16.78146,
              "lng": -92.55278
            },
            {
              "name": "Lázaro Cárdenas (Chilil)",
              "lat": 16.67611,
              "lng": -92.48917
            },
            {
              "name": "Los Plátanos",
              "lat": 17.00556,
              "lng": -92.74264
            },
            {
              "name": "Los Pozos",
              "lat": 16.6477,
              "lng": -92.40726
            },
            {
              "name": "Macvilhó",
              "lat": 16.8576,
              "lng": -92.69419
            },
            {
              "name": "Majomut",
              "lat": 16.84917,
              "lng": -92.65944
            },
            {
              "name": "Mariano Matamoros",
              "lat": 16.48119,
              "lng": -92.58472
            },
            {
              "name": "Matzam",
              "lat": 16.78917,
              "lng": -92.47694
            },
            {
              "name": "Miguel Hidalgo",
              "lat": 16.3506,
              "lng": -92.62852
            },
            {
              "name": "Mitontic",
              "lat": 16.8754,
              "lng": -92.5713
            },
            {
              "name": "Mitzitón",
              "lat": 16.64639,
              "lng": -92.54333
            },
            {
              "name": "Muquén",
              "lat": 16.80641,
              "lng": -92.61006
            },
            {
              "name": "Nachig",
              "lat": 16.73056,
              "lng": -92.72528
            },
            {
              "name": "Navenchauc",
              "lat": 16.73501,
              "lng": -92.779
            },
            {
              "name": "Nicolás Ruiz",
              "lat": 16.43714,
              "lng": -92.58522
            },
            {
              "name": "Nuevo León",
              "lat": 16.48629,
              "lng": -92.5714
            },
            {
              "name": "Nuevo Vicente Guerrero (El Chichonal)",
              "lat": 16.48528,
              "lng": -92.87139
            },
            {
              "name": "Ococh",
              "lat": 16.83806,
              "lng": -92.47528
            },
            {
              "name": "Oxchuc",
              "lat": 16.78588,
              "lng": -92.34455
            },
            {
              "name": "Oxinam",
              "lat": 16.86306,
              "lng": -92.54917
            },
            {
              "name": "Paraíso del Grijalva",
              "lat": 16.22576,
              "lng": -92.64318
            },
            {
              "name": "Pasté",
              "lat": 16.7042,
              "lng": -92.74111
            },
            {
              "name": "Patosil",
              "lat": 16.7521,
              "lng": -92.74133
            },
            {
              "name": "Presidente Echeverría (Laja Tendida)",
              "lat": 16.33583,
              "lng": -92.66861
            },
            {
              "name": "Puebla",
              "lat": 16.91583,
              "lng": -92.50389
            },
            {
              "name": "Pugchén Mumuntic",
              "lat": 16.86389,
              "lng": -92.82361
            },
            {
              "name": "Ricardo Flores Magón",
              "lat": 16.39397,
              "lng": -92.69618
            },
            {
              "name": "Romerillo",
              "lat": 16.76528,
              "lng": -92.5675
            },
            {
              "name": "Saclamantón",
              "lat": 16.78833,
              "lng": -92.635
            },
            {
              "name": "San Andrés Duraznal",
              "lat": 17.15653,
              "lng": -92.79606
            },
            {
              "name": "San Antonio del Monte",
              "lat": 16.76028,
              "lng": -92.65306
            },
            {
              "name": "San Cayetano",
              "lat": 16.96119,
              "lng": -92.76016
            },
            {
              "name": "San Francisco (El Calvito)",
              "lat": 16.32167,
              "lng": -92.56194
            },
            {
              "name": "San José Yashitinín",
              "lat": 16.65472,
              "lng": -92.445
            },
            {
              "name": "San Lucas",
              "lat": 16.61167,
              "lng": -92.71806
            },
            {
              "name": "San Pedro Nichtalucum",
              "lat": 17.03444,
              "lng": -92.72694
            },
            {
              "name": "Santiago el Pinar",
              "lat": 16.94838,
              "lng": -92.72074
            },
            {
              "name": "Sibaniljá Pocolum",
              "lat": 16.87639,
              "lng": -92.46111
            },
            {
              "name": "Simojovel de Allende",
              "lat": 17.14036,
              "lng": -92.71394
            },
            {
              "name": "Tentic",
              "lat": 16.86333,
              "lng": -92.68222
            },
            {
              "name": "Teopisca",
              "lat": 16.54182,
              "lng": -92.47405
            },
            {
              "name": "Totolapa",
              "lat": 16.54357,
              "lng": -92.68019
            },
            {
              "name": "Tres Cerros",
              "lat": 16.91556,
              "lng": -92.47278
            },
            {
              "name": "Tz'Aquiviljok",
              "lat": 16.85528,
              "lng": -92.45972
            },
            {
              "name": "Tzajalchén",
              "lat": 16.84165,
              "lng": -92.46014
            },
            {
              "name": "Tzoeptic",
              "lat": 16.88278,
              "lng": -92.56806
            },
            {
              "name": "Tzontehuitz",
              "lat": 16.83314,
              "lng": -92.57965
            },
            {
              "name": "Tzopilja",
              "lat": 16.73972,
              "lng": -92.30917
            },
            {
              "name": "Unión Buena Vista",
              "lat": 16.48582,
              "lng": -92.81823
            },
            {
              "name": "Venustiano Carranza",
              "lat": 16.32314,
              "lng": -92.55844
            },
            {
              "name": "Yaltem",
              "lat": 16.84402,
              "lng": -92.79057
            },
            {
              "name": "Yashanal",
              "lat": 16.82889,
              "lng": -92.45194
            },
            {
              "name": "Yibeljoj",
              "lat": 16.9575,
              "lng": -92.50361
            },
            {
              "name": "Yoshib",
              "lat": 16.84528,
              "lng": -92.44611
            },
            {
              "name": "Zequentic",
              "lat": 16.71694,
              "lng": -92.82667
            },
            {
              "name": "Zinacantán",
              "lat": 16.7602,
              "lng": -92.72257
            }
          ]
        },
        {
          "name": "Tapachula",
          "lat": 14.90385,
          "lng": -92.25749,
          "subdistricts": [
            {
              "name": "1ra. Sección de Izapa",
              "lat": 14.92083,
              "lng": -92.17083
            },
            {
              "name": "2da. Sección de Medio Monte",
              "lat": 14.88194,
              "lng": -92.18444
            },
            {
              "name": "Acacoyagua",
              "lat": 15.41414,
              "lng": -92.68169
            },
            {
              "name": "Acapetahua",
              "lat": 15.28189,
              "lng": -92.68987
            },
            {
              "name": "Agustín de Iturbide",
              "lat": 15.07523,
              "lng": -92.19858
            },
            {
              "name": "Ahuacatlán",
              "lat": 15.0403,
              "lng": -92.18036
            },
            {
              "name": "Álvaro Obregón",
              "lat": 14.92231,
              "lng": -92.37813
            },
            {
              "name": "Amatenango de la Frontera",
              "lat": 15.43333,
              "lng": -92.11667
            },
            {
              "name": "Aquiles Serdán",
              "lat": 14.9398,
              "lng": -92.51444
            },
            {
              "name": "Bejucal de Ocampo",
              "lat": 15.45535,
              "lng": -92.15835
            },
            {
              "name": "Belisario Domínguez",
              "lat": 15.29944,
              "lng": -92.38056
            },
            {
              "name": "Benito Juárez",
              "lat": 15.055,
              "lng": -92.19111
            },
            {
              "name": "Brisas Barra de Suchiate",
              "lat": 14.53588,
              "lng": -92.22414
            },
            {
              "name": "Buenos Aires",
              "lat": 14.8898,
              "lng": -92.48121
            },
            {
              "name": "Cacahoatán",
              "lat": 14.99201,
              "lng": -92.16376
            },
            {
              "name": "Cantón las Delicias",
              "lat": 15.10245,
              "lng": -92.50002
            },
            {
              "name": "Cantón Rancho Nuevo",
              "lat": 15.06742,
              "lng": -92.52565
            },
            {
              "name": "Cantón Villaflor",
              "lat": 15.11424,
              "lng": -92.35261
            },
            {
              "name": "Carrillo Puerto",
              "lat": 15.0112,
              "lng": -92.19552
            },
            {
              "name": "Cebadilla 1ra. Sección",
              "lat": 14.86381,
              "lng": -92.27969
            },
            {
              "name": "Chamulapita",
              "lat": 15.06892,
              "lng": -92.36942
            },
            {
              "name": "Ciudad Hidalgo",
              "lat": 14.68148,
              "lng": -92.15217
            },
            {
              "name": "Colonia Obrera",
              "lat": 15.09806,
              "lng": -92.49806
            },
            {
              "name": "Congregación Reforma",
              "lat": 14.78208,
              "lng": -92.31424
            },
            {
              "name": "El Águila",
              "lat": 15.09334,
              "lng": -92.18512
            },
            {
              "name": "El Arenal",
              "lat": 15.17273,
              "lng": -92.69923
            },
            {
              "name": "El Consuelo Ulapa",
              "lat": 15.38662,
              "lng": -92.79228
            },
            {
              "name": "El Encanto",
              "lat": 14.73083,
              "lng": -92.41028
            },
            {
              "name": "El Palmar Grande",
              "lat": 15.49858,
              "lng": -92.25518
            },
            {
              "name": "El Porvenir",
              "lat": 15.43092,
              "lng": -92.26447
            },
            {
              "name": "El Porvenir de Velasco Suárez",
              "lat": 15.45695,
              "lng": -92.27987
            },
            {
              "name": "El Sacrificio",
              "lat": 14.87283,
              "lng": -92.22782
            },
            {
              "name": "Escuintla",
              "lat": 15.33333,
              "lng": -92.63333
            },
            {
              "name": "Estación Huehuetán",
              "lat": 15.01091,
              "lng": -92.40662
            },
            {
              "name": "Estación Tuzantán",
              "lat": 15.10643,
              "lng": -92.45092
            },
            {
              "name": "Faja de Oro",
              "lat": 15.03244,
              "lng": -92.15634
            },
            {
              "name": "Frontera Hidalgo",
              "lat": 14.77744,
              "lng": -92.17741
            },
            {
              "name": "Guadalupe",
              "lat": 14.98033,
              "lng": -92.33938
            },
            {
              "name": "Hidalgo",
              "lat": 15.16249,
              "lng": -92.6303
            },
            {
              "name": "Huehuetán",
              "lat": 15.01981,
              "lng": -92.38249
            },
            {
              "name": "Huixtla",
              "lat": 15.13915,
              "lng": -92.4641
            },
            {
              "name": "Ignacio López Rayón",
              "lat": 14.62164,
              "lng": -92.18678
            },
            {
              "name": "Jiquilpan (Estación Bonanza)",
              "lat": 15.34194,
              "lng": -92.7475
            },
            {
              "name": "La Grandeza",
              "lat": 15.51033,
              "lng": -92.22603
            },
            {
              "name": "La Libertad",
              "lat": 14.59167,
              "lng": -92.19315
            },
            {
              "name": "Libertad Ventanas",
              "lat": 15.53954,
              "lng": -92.27576
            },
            {
              "name": "Llano de la Lima",
              "lat": 14.86596,
              "lng": -92.29714
            },
            {
              "name": "Los Cafetales",
              "lat": 14.86745,
              "lng": -92.302
            },
            {
              "name": "Los Palacios",
              "lat": 14.85718,
              "lng": -92.25821
            },
            {
              "name": "Manuel Lazos",
              "lat": 14.97159,
              "lng": -92.18726
            },
            {
              "name": "Mapastepec",
              "lat": 15.43358,
              "lng": -92.90039
            },
            {
              "name": "Marte R. Gómez",
              "lat": 14.92653,
              "lng": -92.44389
            },
            {
              "name": "Mazapa",
              "lat": 15.38773,
              "lng": -92.1878
            },
            {
              "name": "Mazapa de Madero",
              "lat": 15.36461,
              "lng": -92.18762
            },
            {
              "name": "Mazatán",
              "lat": 14.86319,
              "lng": -92.4503
            },
            {
              "name": "Metapa",
              "lat": 14.83624,
              "lng": -92.19186
            },
            {
              "name": "Mixcum",
              "lat": 15.0256,
              "lng": -92.1408
            },
            {
              "name": "Motozintla",
              "lat": 15.36694,
              "lng": -92.24605
            },
            {
              "name": "Nueva Sesecapa",
              "lat": 15.40205,
              "lng": -92.82239
            },
            {
              "name": "Nuevo Amatenango",
              "lat": 15.50852,
              "lng": -92.10958
            },
            {
              "name": "Nuevo Milenio Valdivia",
              "lat": 15.50306,
              "lng": -92.94861
            },
            {
              "name": "Nuevo Pumpuapa (Cereso)",
              "lat": 14.92562,
              "lng": -92.36533
            },
            {
              "name": "Octavio Paz",
              "lat": 14.85778,
              "lng": -92.26389
            },
            {
              "name": "Omoa",
              "lat": 14.83292,
              "lng": -92.23279
            },
            {
              "name": "Once de Abril",
              "lat": 15.05199,
              "lng": -92.14224
            },
            {
              "name": "Pavencul",
              "lat": 15.20249,
              "lng": -92.17993
            },
            {
              "name": "Primer Cantón",
              "lat": 15.12056,
              "lng": -92.44
            },
            {
              "name": "Puerto Madero",
              "lat": 14.72076,
              "lng": -92.42146
            },
            {
              "name": "Raymundo Enríquez",
              "lat": 14.86722,
              "lng": -92.31466
            },
            {
              "name": "Salvador Urbina",
              "lat": 15.03535,
              "lng": -92.20805
            },
            {
              "name": "San Felipe Tizapa",
              "lat": 15.27616,
              "lng": -92.613
            },
            {
              "name": "Santo Domingo",
              "lat": 15.03067,
              "lng": -92.10361
            },
            {
              "name": "Siltepec",
              "lat": 15.55717,
              "lng": -92.32314
            },
            {
              "name": "Soconusco",
              "lat": 15.31502,
              "lng": -92.72645
            },
            {
              "name": "Suchiate",
              "lat": 14.64138,
              "lng": -92.22252
            },
            {
              "name": "Talismán",
              "lat": 14.96333,
              "lng": -92.14722
            },
            {
              "name": "Texcaltic",
              "lat": 14.7955,
              "lng": -92.18737
            },
            {
              "name": "Tinajas 1ra. Sección",
              "lat": 14.7175,
              "lng": -92.32861
            },
            {
              "name": "Tuxtla Chico",
              "lat": 14.93945,
              "lng": -92.1673
            },
            {
              "name": "Tuzantán",
              "lat": 15.14711,
              "lng": -92.42237
            },
            {
              "name": "Unión Roja",
              "lat": 15.04658,
              "lng": -92.21653
            },
            {
              "name": "Vega del Rosario",
              "lat": 15.52083,
              "lng": -92.3072
            },
            {
              "name": "Veinte de Noviembre",
              "lat": 14.9773,
              "lng": -92.26509
            },
            {
              "name": "Vida Mejor I",
              "lat": 14.86972,
              "lng": -92.30778
            },
            {
              "name": "Villa Comaltitlán",
              "lat": 15.18645,
              "lng": -92.59053
            },
            {
              "name": "Viva México",
              "lat": 14.91008,
              "lng": -92.32609
            },
            {
              "name": "Xochiltepec",
              "lat": 15.1278,
              "lng": -92.43388
            },
            {
              "name": "Zacualpa",
              "lat": 15.1682,
              "lng": -92.62705
            }
          ]
        },
        {
          "name": "Tuxtla",
          "lat": 16.75973,
          "lng": -93.11308,
          "subdistricts": [
            {
              "name": "Adolfo López Mateos",
              "lat": 17.216,
              "lng": -93.47895
            },
            {
              "name": "Ajilhó",
              "lat": 16.98376,
              "lng": -92.93804
            },
            {
              "name": "América Libre",
              "lat": 16.61462,
              "lng": -92.99185
            },
            {
              "name": "Ángel Albino Corzo (Guadalupe)",
              "lat": 17.12639,
              "lng": -93.275
            },
            {
              "name": "Arroyo Grande",
              "lat": 17.19122,
              "lng": -92.87207
            },
            {
              "name": "Aurora Ermita",
              "lat": 17.23583,
              "lng": -92.87389
            },
            {
              "name": "Aztlán",
              "lat": 16.76919,
              "lng": -92.92316
            },
            {
              "name": "Berriozábal",
              "lat": 16.8,
              "lng": -93.26667
            },
            {
              "name": "Bochil",
              "lat": 16.99625,
              "lng": -92.89218
            },
            {
              "name": "Buenavista (Matasanos)",
              "lat": 17.10778,
              "lng": -93.06694
            },
            {
              "name": "Chapallal Grande",
              "lat": 17.29631,
              "lng": -92.94519
            },
            {
              "name": "Chapultenango",
              "lat": 17.33333,
              "lng": -93.13333
            },
            {
              "name": "Chiapa de Corzo",
              "lat": 16.7077,
              "lng": -93.01184
            },
            {
              "name": "Chicoasén",
              "lat": 16.96528,
              "lng": -93.10472
            },
            {
              "name": "Coapilla",
              "lat": 17.13137,
              "lng": -93.15946
            },
            {
              "name": "Concepción",
              "lat": 16.80908,
              "lng": -92.96526
            },
            {
              "name": "Copainalá",
              "lat": 17.09366,
              "lng": -93.21059
            },
            {
              "name": "Copoya",
              "lat": 16.71191,
              "lng": -93.12089
            },
            {
              "name": "El Carmen (El Limón)",
              "lat": 17.89056,
              "lng": -93.16528
            },
            {
              "name": "El Copal",
              "lat": 16.96729,
              "lng": -92.92625
            },
            {
              "name": "El Copalar",
              "lat": 16.87694,
              "lng": -93.21389
            },
            {
              "name": "El Jobo",
              "lat": 16.70369,
              "lng": -93.10569
            },
            {
              "name": "El Palmar (San Gabriel)",
              "lat": 16.84556,
              "lng": -93.01639
            },
            {
              "name": "El Progreso",
              "lat": 16.87694,
              "lng": -93.22222
            },
            {
              "name": "El Triunfo 1ra. Sección (Cardona)",
              "lat": 17.60778,
              "lng": -93.23306
            },
            {
              "name": "El Zapotillo",
              "lat": 16.837,
              "lng": -92.95152
            },
            {
              "name": "Estación San Manuel",
              "lat": 17.65256,
              "lng": -93.38427
            },
            {
              "name": "Francisco I. Madero",
              "lat": 16.87427,
              "lng": -93.21678
            },
            {
              "name": "Francisco León",
              "lat": 17.31667,
              "lng": -93.25
            },
            {
              "name": "Francisco Sarabia",
              "lat": 16.94583,
              "lng": -93.01306
            },
            {
              "name": "Gabriel Esquinca",
              "lat": 16.94056,
              "lng": -93.17555
            },
            {
              "name": "Galecio Narcia",
              "lat": 16.5882,
              "lng": -93.02052
            },
            {
              "name": "Ignacio Allende",
              "lat": 16.52556,
              "lng": -92.99222
            },
            {
              "name": "Ignacio Zaragoza",
              "lat": 17.29,
              "lng": -92.93806
            },
            {
              "name": "Ixhuatán",
              "lat": 17.29341,
              "lng": -93.00829
            },
            {
              "name": "Ixtacomitán",
              "lat": 17.43093,
              "lng": -93.09704
            },
            {
              "name": "Ixtapa",
              "lat": 16.8032,
              "lng": -92.90532
            },
            {
              "name": "Ixtapangajoya",
              "lat": 17.49849,
              "lng": -93.00155
            },
            {
              "name": "Jardínes del Grijalva",
              "lat": 16.72847,
              "lng": -93.03463
            },
            {
              "name": "Jitotol",
              "lat": 17.06723,
              "lng": -92.86111
            },
            {
              "name": "Juan Aldama",
              "lat": 17.60939,
              "lng": -93.02826
            },
            {
              "name": "Juan del Grijalva",
              "lat": 16.72806,
              "lng": -92.9775
            },
            {
              "name": "Juárez",
              "lat": 17.60572,
              "lng": -93.19433
            },
            {
              "name": "La Independencia (Las Pilas)",
              "lat": 16.6775,
              "lng": -93.24944
            },
            {
              "name": "Las Flechas",
              "lat": 16.70028,
              "lng": -93.02639
            },
            {
              "name": "Las Maravillas",
              "lat": 16.95951,
              "lng": -93.32012
            },
            {
              "name": "Luis Espinoza",
              "lat": 17.03167,
              "lng": -93.02694
            },
            {
              "name": "Maravillas",
              "lat": 17.09693,
              "lng": -92.89107
            },
            {
              "name": "Narciso Mendoza",
              "lat": 16.57996,
              "lng": -92.98911
            },
            {
              "name": "Nicolás Bravo",
              "lat": 16.51058,
              "lng": -92.99222
            },
            {
              "name": "Nuevo Carmen Tonapac",
              "lat": 16.69667,
              "lng": -92.95556
            },
            {
              "name": "Nuevo Juan del Grijalva",
              "lat": 17.42722,
              "lng": -93.37222
            },
            {
              "name": "Nuevo Naranjo",
              "lat": 17.15444,
              "lng": -93.43333
            },
            {
              "name": "Nuevo Nicapa",
              "lat": 17.63464,
              "lng": -93.07238
            },
            {
              "name": "Nuevo Volcán Chichonal",
              "lat": 17.77263,
              "lng": -93.10955
            },
            {
              "name": "Nuevo Xochimilco",
              "lat": 17.45442,
              "lng": -93.36904
            },
            {
              "name": "Ocotepec",
              "lat": 17.2262,
              "lng": -93.1644
            },
            {
              "name": "Ocozocoautla de Espinosa",
              "lat": 16.76231,
              "lng": -93.37476
            },
            {
              "name": "Ostuacán",
              "lat": 17.40664,
              "lng": -93.33643
            },
            {
              "name": "Osumacinta",
              "lat": 16.93611,
              "lng": -93.09028
            },
            {
              "name": "Pacú",
              "lat": 16.63584,
              "lng": -93.13437
            },
            {
              "name": "Pantepec",
              "lat": 17.18842,
              "lng": -93.04998
            },
            {
              "name": "Pichucalco",
              "lat": 17.51,
              "lng": -93.11591
            },
            {
              "name": "Pueblo Nuevo",
              "lat": 17.16027,
              "lng": -92.89977
            },
            {
              "name": "Rafael Pascacio Gamboa",
              "lat": 17.91818,
              "lng": -93.26833
            },
            {
              "name": "Raudales Malpaso",
              "lat": 17.18833,
              "lng": -93.60583
            },
            {
              "name": "Rayón",
              "lat": 17.20137,
              "lng": -93.0111
            },
            {
              "name": "Reforma",
              "lat": 17.86876,
              "lng": -93.22673
            },
            {
              "name": "Rincón Chamula",
              "lat": 17.20718,
              "lng": -92.93912
            },
            {
              "name": "San Fernando",
              "lat": 16.87153,
              "lng": -93.20759
            },
            {
              "name": "San Francisco Jaconá",
              "lat": 17.26278,
              "lng": -93.0325
            },
            {
              "name": "San Isidro las Banderas",
              "lat": 17.23028,
              "lng": -93.06028
            },
            {
              "name": "San José Chapayal",
              "lat": 17.30056,
              "lng": -92.89028
            },
            {
              "name": "San Miguel la Sardina",
              "lat": 17.29417,
              "lng": -93.3525
            },
            {
              "name": "San Pablo Huacano",
              "lat": 17.19583,
              "lng": -93.2075
            },
            {
              "name": "Solosuchiapa",
              "lat": 17.39364,
              "lng": -93.01301
            },
            {
              "name": "Soyaló",
              "lat": 16.91352,
              "lng": -92.96579
            },
            {
              "name": "Suchiapa",
              "lat": 16.60775,
              "lng": -93.10003
            },
            {
              "name": "Tapalapa",
              "lat": 17.22618,
              "lng": -93.11552
            },
            {
              "name": "Tapilula",
              "lat": 17.25355,
              "lng": -93.00933
            },
            {
              "name": "Tecpatán",
              "lat": 17.13676,
              "lng": -93.31133
            },
            {
              "name": "Viva Cárdenas",
              "lat": 16.8357,
              "lng": -93.19333
            }
          ]
        },
        {
          "name": "Villaflores",
          "lat": 16.34149,
          "lng": -93.33191,
          "subdistricts": [
            {
              "name": "Agrónomos Mexicanos",
              "lat": 16.35,
              "lng": -93.53
            },
            {
              "name": "Alfonso Moguel",
              "lat": 16.6675,
              "lng": -93.50639
            },
            {
              "name": "Arriaga",
              "lat": 16.23589,
              "lng": -93.89995
            },