{
  "name": "Poland",
  "lat": 52,
  "lng": 20,
  "cities": [
    {
      "name": "Greater Poland",
      "lat": 52.1458506,
      "lng": 17.397672,
      "districts": [
        {
          "name": "Poznań",
          "lat": 52.40692,
          "lng": 16.92993
        },
        {
          "name": "Babiak",
          "lat": 52.3453,
          "lng": 18.66663
        },
        {
          "name": "Baranów",
          "lat": 51.26342,
          "lng": 18.0047
        },
        {
          "name": "Baranowo",
          "lat": 52.43525,
          "lng": 16.78631
        },
        {
          "name": "Białośliwie",
          "lat": 53.10461,
          "lng": 17.12533
        },
        {
          "name": "Blizanów",
          "lat": 51.90372,
          "lng": 18.01003
        },
        {
          "name": "Bojanowo",
          "lat": 51.70749,
          "lng": 16.74827
        },
        {
          "name": "Bojanowo Stare",
          "lat": 51.99302,
          "lng": 16.58369
        },
        {
          "name": "Borek Wielkopolski",
          "lat": 51.91674,
          "lng": 17.24133
        },
        {
          "name": "Bralin",
          "lat": 51.28581,
          "lng": 17.90325
        },
        {
          "name": "Brdów",
          "lat": 52.3539,
          "lng": 18.7298
        },
        {
          "name": "Brenno",
          "lat": 51.92257,
          "lng": 16.21488
        },
        {
          "name": "Brodnica",
          "lat": 52.14123,
          "lng": 16.89096
        },
        {
          "name": "Broniszewice",
          "lat": 51.96696,
          "lng": 17.81648
        },
        {
          "name": "Brudzew",
          "lat": 52.09949,
          "lng": 18.60432
        },
        {
          "name": "Budzyń",
          "lat": 52.88954,
          "lng": 16.98812
        },
        {
          "name": "Buk",
          "lat": 52.35532,
          "lng": 16.51958
        },
        {
          "name": "Chocz",
          "lat": 51.97642,
          "lng": 17.86995
        },
        {
          "name": "Chodów",
          "lat": 52.24961,
          "lng": 19.01218
        },
        {
          "name": "Chodzież",
          "lat": 52.99505,
          "lng": 16.9198
        },
        {
          "name": "Chrzypsko Wielkie",
          "lat": 52.62817,
          "lng": 16.22852
        },
        {
          "name": "Czajków",
          "lat": 51.49197,
          "lng": 18.32726
        },
        {
          "name": "Czapury",
          "lat": 52.31719,
          "lng": 16.91268
        },
        {
          "name": "Czarnków",
          "lat": 52.90214,
          "lng": 16.56413
        },
        {
          "name": "Czempiń",
          "lat": 52.14404,
          "lng": 16.76408
        },
        {
          "name": "Czermin",
          "lat": 51.95008,
          "lng": 17.74957
        },
        {
          "name": "Czerniejewo",
          "lat": 52.4264,
          "lng": 17.48925
        },
        {
          "name": "Czerwonak",
          "lat": 52.46459,
          "lng": 16.98169
        },
        {
          "name": "Dąbie",
          "lat": 52.08668,
          "lng": 18.8225
        },
        {
          "name": "Damasławek",
          "lat": 52.83979,
          "lng": 17.50062
        },
        {
          "name": "Daszewice",
          "lat": 52.30002,
          "lng": 16.95723
        },
        {
          "name": "Dobra",
          "lat": 51.91664,
          "lng": 18.61556
        },
        {
          "name": "Dobrzyca",
          "lat": 51.86663,
          "lng": 17.60336
        },
        {
          "name": "Dolsk",
          "lat": 51.9818,
          "lng": 17.06273
        },
        {
          "name": "Dominowo",
          "lat": 52.29158,
          "lng": 17.35754
        },
        {
          "name": "Dopiewo",
          "lat": 52.35726,
          "lng": 16.67562
        },
        {
          "name": "Doruchów",
          "lat": 51.41719,
          "lng": 18.07697
        },
        {
          "name": "Drawsko",
          "lat": 52.85421,
          "lng": 16.03125
        },
        {
          "name": "Duszniki",
          "lat": 52.44691,
          "lng": 16.40602
        },
        {
          "name": "Gizałki",
          "lat": 52.04267,
          "lng": 17.76936
        },
        {
          "name": "Gniezno",
          "lat": 52.53481,
          "lng": 17.58259
        },
        {
          "name": "Golina",
          "lat": 52.24315,
          "lng": 18.09268
        },
        {
          "name": "Gołańcz",
          "lat": 52.94326,
          "lng": 17.29995
        },
        {
          "name": "Gołuchów",
          "lat": 51.85036,
          "lng": 17.9314
        },
        {
          "name": "Gorzyce Wielkie",
          "lat": 51.63725,
          "lng": 17.72953
        },
        {
          "name": "Gostyń",
          "lat": 51.88247,
          "lng": 17.01225
        },
        {
          "name": "Grabów nad Prosną",
          "lat": 51.50596,
          "lng": 18.11929
        },
        {
          "name": "Granowo",
          "lat": 52.22244,
          "lng": 16.52859
        },
        {
          "name": "Grodziec",
          "lat": 52.03855,
          "lng": 18.05972
        },
        {
          "name": "Grodzisk Wielkopolski",
          "lat": 52.22762,
          "lng": 16.36534
        },
        {
          "name": "Grzegorzew",
          "lat": 52.20177,
          "lng": 18.73409
        },
        {
          "name": "Jabłonna",
          "lat": 52.20598,
          "lng": 16.20741
        },
        {
          "name": "Janków Przygodzki",
          "lat": 51.59808,
          "lng": 17.78824
        },
        {
          "name": "Jaraczewo",
          "lat": 51.96854,
          "lng": 17.29707
        },
        {
          "name": "Jarocin",
          "lat": 51.97266,
          "lng": 17.50256
        },
        {
          "name": "Jastrowie",
          "lat": 53.42048,
          "lng": 16.81756
        },
        {
          "name": "Jutrosin",
          "lat": 51.65009,
          "lng": 17.16957
        },
        {
          "name": "Kaczory",
          "lat": 53.10348,
          "lng": 16.88169
        },
        {
          "name": "Kalisz",
          "lat": 51.76109,
          "lng": 18.09102
        },
        {
          "name": "Kamieniec",
          "lat": 52.16614,
          "lng": 16.46164
        },
        {
          "name": "Kawęczyn",
          "lat": 51.90923,
          "lng": 18.53102
        },
        {
          "name": "Kazimierz Biskupi",
          "lat": 52.311,
          "lng": 18.16581
        },
        {
          "name": "Kaźmierz",
          "lat": 52.51309,
          "lng": 16.58403
        },
        {
          "name": "Kępno",
          "lat": 51.2784,
          "lng": 17.98908
        },
        {
          "name": "Kiszkowo",
          "lat": 52.58871,
          "lng": 17.2663
        },
        {
          "name": "Kleczew",
          "lat": 52.37057,
          "lng": 18.17714
        },
        {
          "name": "Kleszczewo",
          "lat": 52.33377,
          "lng": 17.17163
        },
        {
          "name": "Kłecko",
          "lat": 52.63181,
          "lng": 17.43075
        },
        {
          "name": "Kłodawa",
          "lat": 52.25447,
          "lng": 18.91352
        },
        {
          "name": "Kobyla Góra",
          "lat": 51.37923,
          "lng": 17.83811
        },
        {
          "name": "Kobylin",
          "lat": 51.71645,
          "lng": 17.22682
        },
        {
          "name": "Kobylnica",
          "lat": 52.44597,
          "lng": 17.07644
        },
        {
          "name": "Kołaczkowo",
          "lat": 52.21739,
          "lng": 17.62413
        },
        {
          "name": "Koło",
          "lat": 52.20024,
          "lng": 18.63865
        },
        {
          "name": "Komorniki",
          "lat": 52.3387,
          "lng": 16.81063
        },
        {
          "name": "Konary",
          "lat": 51.6569,
          "lng": 17.04185
        },
        {
          "name": "Konin",
          "lat": 52.22338,
          "lng": 18.25121
        },
        {
          "name": "Kórnik",
          "lat": 52.24772,
          "lng": 17.08949
        },
        {
          "name": "Kościan",
          "lat": 52.08829,
          "lng": 16.64866
        },
        {
          "name": "Kościelec",
          "lat": 52.17425,
          "lng": 18.57067
        },
        {
          "name": "Kostrzyn",
          "lat": 52.39847,
          "lng": 17.22811
        },
        {
          "name": "Kotlin",
          "lat": 51.91913,
          "lng": 17.64825
        },
        {
          "name": "Koźmin Wielkopolski",
          "lat": 51.82712,
          "lng": 17.45391
        },
        {
          "name": "Koźminek",
          "lat": 51.79874,
          "lng": 18.33893
        },
        {
          "name": "Krajenka",
          "lat": 53.29759,
          "lng": 16.99079
        },
        {
          "name": "Kramsk",
          "lat": 52.26469,
          "lng": 18.42407
        },
        {
          "name": "Kraszewice",
          "lat": 51.51868,
          "lng": 18.21997
        },
        {
          "name": "Krobia",
          "lat": 51.77405,
          "lng": 16.98237
        },
        {
          "name": "Krosno",
          "lat": 52.22357,
          "lng": 16.83251
        },
        {
          "name": "Krotoszyn",
          "lat": 51.69868,
          "lng": 17.43738
        },
        {
          "name": "Krzemieniewo",
          "lat": 51.85905,
          "lng": 16.83354
        },
        {
          "name": "Krzykosy",
          "lat": 52.11041,
          "lng": 17.37411
        },
        {
          "name": "Krzywiń",
          "lat": 51.96296,
          "lng": 16.81985
        },
        {
          "name": "Krzyż Wielkopolski",
          "lat": 52.88097,
          "lng": 16.01116
        },
        {
          "name": "Książ Wielkopolski",
          "lat": 52.06167,
          "lng": 17.23952
        },
        {
          "name": "Kuślin",
          "lat": 52.36386,
          "lng": 16.31538
        },
        {
          "name": "Kwilcz",
          "lat": 52.55506,
          "lng": 16.08562
        },
        {
          "name": "Lądek",
          "lat": 52.20929,
          "lng": 17.92994
        },
        {
          "name": "Leszno",
          "lat": 51.84034,
          "lng": 16.57494
        },
        {
          "name": "Licheń Stary",
          "lat": 52.31226,
          "lng": 18.35515
        },
        {
          "name": "Lipka",
          "lat": 53.49601,
          "lng": 17.25085
        },
        {
          "name": "Lipno",
          "lat": 51.91722,
          "lng": 16.56708
        },
        {
          "name": "Lisków",
          "lat": 51.83313,
          "lng": 18.39789
        },
        {
          "name": "Lubasz",
          "lat": 52.85213,
          "lng": 16.52344
        },
        {
          "name": "Luboń",
          "lat": 52.34705,
          "lng": 16.89267
        },
        {
          "name": "Lwówek",
          "lat": 52.44798,
          "lng": 16.18106
        },
        {
          "name": "Łęka Opatowska",
          "lat": 51.21231,
          "lng": 18.1071
        },
        {
          "name": "Łobżenica",
          "lat": 53.26244,
          "lng": 17.25574
        },
        {
          "name": "Łubowo",
          "lat": 52.51168,
          "lng": 17.45333
        },
        {
          "name": "Malanów",
          "lat": 51.95358,
          "lng": 18.39128
        },
        {
          "name": "Margonin",
          "lat": 52.97335,
          "lng": 17.09464
        },
        {
          "name": "Miasteczko Krajeńskie",
          "lat": 53.09784,
          "lng": 17.00478
        },
        {
          "name": "Miedzichowo",
          "lat": 52.37581,
          "lng": 15.95876
        },
        {
          "name": "Międzychód",
          "lat": 52.59882,
          "lng": 15.89696
        },
        {
          "name": "Miejska Górka",
          "lat": 51.65573,
          "lng": 16.95826
        },
        {
          "name": "Mieleszyn",
          "lat": 52.66868,
          "lng": 17.49779
        },
        {
          "name": "Mieścisko",
          "lat": 52.74357,
          "lng": 17.33213
        },
        {
          "name": "Mikstat",
          "lat": 51.53236,
          "lng": 17.97378
        },
        {
          "name": "Miłosław",
          "lat": 52.20318,
          "lng": 17.48955
        },
        {
          "name": "Mosina",
          "lat": 52.24543,
          "lng": 16.84709
        },
        {
          "name": "Murowana Goślina",
          "lat": 52.57463,
          "lng": 17.00933
        },
        {
          "name": "Nekla",
          "lat": 52.36496,
          "lng": 17.41329
        },
        {
          "name": "Niechanowo",
          "lat": 52.46527,
          "lng": 17.67812
        },
        {
          "name": "Nowe Miasto nad Wartą",
          "lat": 52.09007,
          "lng": 17.41114
        },
        {
          "name": "Nowe Skalmierzyce",
          "lat": 51.71038,
          "lng": 17.99337
        },
        {
          "name": "Nowy Tomyśl",
          "lat": 52.3195,
          "lng": 16.12844
        },
        {
          "name": "Oborniki",
          "lat": 52.64739,
          "lng": 16.81406
        },
        {
          "name": "Obrzycko",
          "lat": 52.70338,
          "lng": 16.52807
        },
        {
          "name": "Odolanów",
          "lat": 51.57419,
          "lng": 17.67434
        },
        {
          "name": "Okonek",
          "lat": 53.53618,
          "lng": 16.85158
        },
        {
          "name": "Olszówka",
          "lat": 52.1903,
          "lng": 18.86258
        },
        {
          "name": "Opalenica",
          "lat": 52.30887,
          "lng": 16.41278
        },
        {
          "name": "Opatów",
          "lat": 51.21463,
          "lng": 18.14615
        },
        {
          "name": "Opatówek",
          "lat": 51.73989,
          "lng": 18.21653
        },
        {
          "name": "Orchowo",
          "lat": 52.50938,
          "lng": 18.01578
        },
        {
          "name": "Osieczna",
          "lat": 51.9042,
          "lng": 16.67862
        },
        {
          "name": "Osiek Mały",
          "lat": 52.2763,
          "lng": 18.60234
        },
        {
          "name": "Osiek nad Notecią",
          "lat": 53.1203,
          "lng": 17.29102
        },
        {
          "name": "Ostroróg",
          "lat": 52.6265,
          "lng": 16.44988
        },
        {
          "name": "Ostrów Wielkopolski",
          "lat": 51.65501,
          "lng": 17.80686
        },
        {
          "name": "Ostrowite",
          "lat": 52.38199,
          "lng": 18.0447
        },
        {
          "name": "Ostrzeszów",
          "lat": 51.4264,
          "lng": 17.93355
        },
        {
          "name": "Pakosław",
          "lat": 51.61438,
          "lng": 17.05793
        },
        {
          "name": "Pamiątkowo",
          "lat": 52.55334,
          "lng": 16.68094
        },
        {
          "name": "Pecna",
          "lat": 52.18333,
          "lng": 16.8
        },
        {
          "name": "Pępowo",
          "lat": 51.76569,
          "lng": 17.12661
        },
        {
          "name": "Perzów",
          "lat": 51.27625,
          "lng": 17.8097
        },
        {
          "name": "Piaski",
          "lat": 51.88497,
          "lng": 17.07293
        },
        {
          "name": "Piła",
          "lat": 53.15145,
          "lng": 16.73782
        },
        {
          "name": "Pleszew",
          "lat": 51.89636,
          "lng": 17.78549
        },
        {
          "name": "Plewiska",
          "lat": 52.36706,
          "lng": 16.80985
        },
        {
          "name": "Pniewy",
          "lat": 52.50943,
          "lng": 16.25668
        },
        {
          "name": "Pobiedziska",
          "lat": 52.47753,
          "lng": 17.28767
        },
        {
          "name": "Pogorzela",
          "lat": 51.8222,
          "lng": 17.23017
        },
        {
          "name": "Połajewo",
          "lat": 52.79923,
          "lng": 16.73347
        },
        {
          "name": "Poniec",
          "lat": 51.76343,
          "lng": 16.80867
        },
        {
          "name": "Powidz",
          "lat": 52.41362,
          "lng": 17.91926
        },
        {
          "name": "Przedecz",
          "lat": 52.3344,
          "lng": 18.89915
        },
        {
          "name": "Przemęt",
          "lat": 52.00808,
          "lng": 16.30114
        },
        {
          "name": "Przygodzice",
          "lat": 51.59195,
          "lng": 17.82412
        },
        {
          "name": "Przykona",
          "lat": 51.98171,
          "lng": 18.61247
        },
        {
          "name": "Puszczykowo",
          "lat": 52.2857,
          "lng": 16.84925
        },
        {
          "name": "Pyzdry",
          "lat": 52.17056,
          "lng": 17.69005
        },
        {
          "name": "Rakoniewice",
          "lat": 52.13906,
          "lng": 16.27346
        },
        {
          "name": "Raszków",
          "lat": 51.71828,
          "lng": 17.72571
        },
        {
          "name": "Rawicz",
          "lat": 51.60946,
          "lng": 16.85852
        },
        {
          "name": "Rogalinek",
          "lat": 52.24945,
          "lng": 16.89989
        },
        {
          "name": "Rogoźno",
          "lat": 52.75226,
          "lng": 16.99049
        },
        {
          "name": "Rokietnica",
          "lat": 52.51245,
          "lng": 16.7457
        },
        {
          "name": "Rozdrażew",
          "lat": 51.78218,
          "lng": 17.50491
        },
        {
          "name": "Rychtal",
          "lat": 51.14533,
          "lng": 17.85132
        },
        {
          "name": "Rychwał",
          "lat": 52.07149,
          "lng": 18.1651
        },
        {
          "name": "Ryczywół",
          "lat": 52.81324,
          "lng": 16.83114
        },
        {
          "name": "Rydzyna",
          "lat": 51.78651,
          "lng": 16.66761
        },
        {
          "name": "Rzgów Pierwszy",
          "lat": 52.15134,
          "lng": 18.04976
        },
        {
          "name": "Siedlec",
          "lat": 52.13781,
          "lng": 16.00279
        },
        {
          "name": "Sieraków",
          "lat": 52.65134,
          "lng": 16.08047
        },
        {
          "name": "Sieroszewice",
          "lat": 51.63347,
          "lng": 17.972
        },
        {
          "name": "Skalmierzyce",
          "lat": 51.70097,
          "lng": 17.96333
        },
        {
          "name": "Skoki",
          "lat": 52.67222,
          "lng": 17.16107
        },
        {
          "name": "Skulsk",
          "lat": 52.482,
          "lng": 18.33112
        },
        {
          "name": "Ślesin",
          "lat": 52.37039,
          "lng": 18.30644
        },
        {
          "name": "Słupca",
          "lat": 52.28733,
          "lng": 17.87192
        },
        {
          "name": "Słupia pod Kępnem",
          "lat": 51.23924,
          "lng": 18.04255
        },
        {
          "name": "Śmigiel",
          "lat": 52.01339,
          "lng": 16.52704
        },
        {
          "name": "Śmiłowo",
          "lat": 53.13647,
          "lng": 16.92075
        },
        {
          "name": "Sompolno",
          "lat": 52.38832,
          "lng": 18.50282
        },
        {
          "name": "Sośnie",
          "lat": 51.47315,
          "lng": 17.63383
        },
        {
          "name": "Śrem",
          "lat": 52.08868,
          "lng": 17.01508
        },
        {
          "name": "Środa Wielkopolska",
          "lat": 52.22843,
          "lng": 17.27617
        },
        {
          "name": "Stare Miasto",
          "lat": 52.17972,
          "lng": 18.21499
        },
        {
          "name": "Stawiszyn",
          "lat": 51.91786,
          "lng": 18.11171
        },
        {
          "name": "Stęszew",
          "lat": 52.2837,
          "lng": 16.70085
        },
        {
          "name": "Strzałkowo",
          "lat": 52.30701,
          "lng": 17.81811
        },
        {
          "name": "Suchy Las",
          "lat": 52.47308,
          "lng": 16.87745
        },
        {
          "name": "Sulmierzyce",
          "lat": 51.60594,
          "lng": 17.53053
        },
        {
          "name": "Swarzędz",
          "lat": 52.41289,
          "lng": 17.08503
        },
        {
          "name": "Święciechowa",
          "lat": 51.85503,
          "lng": 16.49805
        },
        {
          "name": "Sypniewo",
          "lat": 53.46823,
          "lng": 16.60583
        },
        {
          "name": "Szamocin",
          "lat": 53.02795,
          "lng": 17.12653
        },
        {
          "name": "Szamotuły",
          "lat": 52.61201,
          "lng": 16.57794
        },
        {
          "name": "Szydłowo",
          "lat": 53.16212,
          "lng": 16.61171
        },
        {
          "name": "Tarnówka",
          "lat": 53.34174,
          "lng": 16.85273
        },
        {
          "name": "Tarnowo Podgórne",
          "lat": 52.46642,
          "lng": 16.66326
        },
        {
          "name": "Trzcianka",
          "lat": 53.04063,
          "lng": 16.45629
        },
        {
          "name": "Trzcinica",
          "lat": 51.16707,
          "lng": 18.00453
        },
        {
          "name": "Trzemeszno",
          "lat": 52.56139,
          "lng": 17.82311
        },
        {
          "name": "Tuliszków",
          "lat": 52.07658,
          "lng": 18.29549
        },
        {
          "name": "Turek",
          "lat": 52.01548,
          "lng": 18.50055
        },
        {
          "name": "Ujście",
          "lat": 53.05339,
          "lng": 16.73201
        },
        {
          "name": "Wągrowiec",
          "lat": 52.80842,
          "lng": 17.19961
        },
        {
          "name": "Wapno",
          "lat": 52.90804,
          "lng": 17.47504
        },
        {
          "name": "Wieleń",
          "lat": 52.89461,
          "lng": 16.17136
        },
        {
          "name": "Wielichowo",
          "lat": 52.11573,
          "lng": 16.3518
        },
        {
          "name": "Wierzbinek",
          "lat": 52.44026,
          "lng": 18.51085
        },
        {
          "name": "Wijewo",
          "lat": 51.91627,
          "lng": 16.18552
        },
        {
          "name": "Wilczogóra",
          "lat": 52.47348,
          "lng": 18.16744
        },
        {
          "name": "Wilczyn",
          "lat": 52.48816,
          "lng": 18.16126
        },
        {
          "name": "Wilkowice",
          "lat": 51.88513,
          "lng": 16.53417
        },
        {
          "name": "Witaszyce",
          "lat": 51.94151,
          "lng": 17.56182
        },
        {
          "name": "Witkowo",
          "lat": 52.43964,
          "lng": 17.77264
        },
        {
          "name": "Władysławów",
          "lat": 52.10313,
          "lng": 18.47626
        },
        {
          "name": "Włoszakowice",
          "lat": 51.92754,
          "lng": 16.36456
        },
        {
          "name": "Wolsztyn",
          "lat": 52.11552,
          "lng": 16.11712
        },
        {
          "name": "Wronki",
          "lat": 52.71051,
          "lng": 16.38044
        },
        {
          "name": "Września",
          "lat": 52.32512,
          "lng": 17.56519
        },
        {
          "name": "Wyrzysk",
          "lat": 53.153,
          "lng": 17.26802
        },
        {
          "name": "Wysoka",
          "lat": 53.18091,
          "lng": 17.08353
        },
        {
          "name": "Zagórów",
          "lat": 52.16835,
          "lng": 17.89561
        },
        {
          "name": "Zakrzewo",
          "lat": 53.41186,
          "lng": 17.15472
        },
        {
          "name": "Zaniemyśl",
          "lat": 52.15561,
          "lng": 17.16228
        },
        {
          "name": "Zbąszyń",
          "lat": 52.2509,
          "lng": 15.9252
        },
        {
          "name": "Zduny",
          "lat": 51.6458,
          "lng": 17.37694
        },
        {
          "name": "Żelazków",
          "lat": 51.85418,
          "lng": 18.1743
        },
        {
          "name": "Żerków",
          "lat": 52.06877,
          "lng": 17.56349
        },
        {
          "name": "Złotniki",
          "lat": 52.49407,
          "lng": 16.84496
        },
        {
          "name": "Złotów",
          "lat": 53.36346,
          "lng": 17.04082
        }
      ]
    },
    {
      "name": "Holy Cross",
      "lat": 50.7504894,
      "lng": 20.7829122,
      "districts": [
        {
          "name": "Kielce",
          "lat": 50.87033,
          "lng": 20.62752
        },
        {
          "name": "Baćkowice",
          "lat": 50.79194,
          "lng": 21.23211
        },
        {
          "name": "Bałtów",
          "lat": 51.01845,
          "lng": 21.54385
        },
        {
          "name": "Bejsce",
          "lat": 50.23903,
          "lng": 20.59834
        },
        {
          "name": "Bieliny",
          "lat": 50.84947,
          "lng": 20.94149
        },
        {
          "name": "Bliżyn",
          "lat": 51.10778,
          "lng": 20.75935
        },
        {
          "name": "Bodzentyn",
          "lat": 50.94115,
          "lng": 20.95719
        },
        {
          "name": "Bogoria",
          "lat": 50.65175,
          "lng": 21.26
        },
        {
          "name": "Brody",
          "lat": 51.02466,
          "lng": 21.22147
        },
        {
          "name": "Brzeziny",
          "lat": 50.77273,
          "lng": 20.57319
        },
        {
          "name": "Busko-Zdrój",
          "lat": 50.47078,
          "lng": 20.71884
        },
        {
          "name": "Chęciny",
          "lat": 50.80021,
          "lng": 20.46229
        },
        {
          "name": "Chmielnik",
          "lat": 50.6144,
          "lng": 20.75206
        },
        {
          "name": "Ćmielów",
          "lat": 50.89028,
          "lng": 21.51426
        },
        {
          "name": "Czarnocin",
          "lat": 50.3408,
          "lng": 20.5162
        },
        {
          "name": "Daleszyce",
          "lat": 50.80229,
          "lng": 20.80791
        },
        {
          "name": "Domaszowice",
          "lat": 50.87488,
          "lng": 20.68288
        },
        {
          "name": "Dwikozy",
          "lat": 50.73613,
          "lng": 21.78864
        },
        {
          "name": "Działoszyce",
          "lat": 50.36534,
          "lng": 20.35226
        },
        {
          "name": "Fałków",
          "lat": 51.13606,
          "lng": 20.1061
        },
        {
          "name": "Gnojno",
          "lat": 50.60263,
          "lng": 20.84913
        },
        {
          "name": "Górno",
          "lat": 50.84774,
          "lng": 20.82501
        },
        {
          "name": "Gowarczów",
          "lat": 51.27845,
          "lng": 20.43835
        },
        {
          "name": "Grzybowa Góra",
          "lat": 51.13326,
          "lng": 20.96174
        },
        {
          "name": "Imielno",
          "lat": 50.58569,
          "lng": 20.44813
        },
        {
          "name": "Iwaniska",
          "lat": 50.73146,
          "lng": 21.2806
        },
        {
          "name": "Jędrzejów",
          "lat": 50.63945,
          "lng": 20.30454
        },
        {
          "name": "Kaniów",
          "lat": 50.98577,
          "lng": 20.66391
        },
        {
          "name": "Kazimierza Wielka",
          "lat": 50.26564,
          "lng": 20.49358
        },
        {
          "name": "Kije",
          "lat": 50.60721,
          "lng": 20.57121
        },
        {
          "name": "Klimontów",
          "lat": 50.65588,
          "lng": 21.45587
        },
        {
          "name": "Końskie",
          "lat": 51.19166,
          "lng": 20.40607
        },
        {
          "name": "Koprzywnica",
          "lat": 50.5934,
          "lng": 21.5838
        },
        {
          "name": "Kostomłoty Drugie",
          "lat": 50.92684,
          "lng": 20.56529
        },
        {
          "name": "Kostomłoty Pierwsze",
          "lat": 50.92322,
          "lng": 20.5949
        },
        {
          "name": "Krasocin",
          "lat": 50.88874,
          "lng": 20.11863
        },
        {
          "name": "Kunów",
          "lat": 50.96156,
          "lng": 21.28058
        },
        {
          "name": "Lipnik",
          "lat": 50.72977,
          "lng": 21.49389
        },
        {
          "name": "Łączna",
          "lat": 51.00231,
          "lng": 20.79712
        },
        {
          "name": "Łagów",
          "lat": 50.77517,
          "lng": 21.08431
        },
        {
          "name": "Łoniów",
          "lat": 50.56443,
          "lng": 21.52599
        },
        {
          "name": "Łopuszno",
          "lat": 50.94864,
          "lng": 20.25081
        },
        {
          "name": "Łubnice",
          "lat": 50.41164,
          "lng": 21.15014
        },
        {
          "name": "Małogoszcz",
          "lat": 50.81214,
          "lng": 20.26407
        },
        {
          "name": "Masłów",
          "lat": 50.90065,
          "lng": 20.72322
        },
        {
          "name": "Michałów",
          "lat": 50.49541,
          "lng": 20.46178
        },
        {
          "name": "Miedziana Góra",
          "lat": 50.9368,
          "lng": 20.55096
        },
        {
          "name": "Mirzec",
          "lat": 51.13466,
          "lng": 21.0571
        },
        {
          "name": "Mniów",
          "lat": 51.01224,
          "lng": 20.48427
        },
        {
          "name": "Morawica",
          "lat": 50.74678,
          "lng": 20.61756
        },
        {
          "name": "Nagłowice",
          "lat": 50.67835,
          "lng": 20.10661
        },
        {
          "name": "Nowa Słupia",
          "lat": 50.86432,
          "lng": 21.09049
        },
        {
          "name": "Nowy Korczyn",
          "lat": 50.30124,
          "lng": 20.80759
        },
        {
          "name": "Obrazów",
          "lat": 50.69276,
          "lng": 21.65045
        },
        {
          "name": "Oksa",
          "lat": 50.72874,
          "lng": 20.10086
        },
        {
          "name": "Oleśnica",
          "lat": 50.45357,
          "lng": 21.06457
        },
        {
          "name": "Opatów",
          "lat": 50.80058,
          "lng": 21.42538
        },
        {
          "name": "Opatowiec",
          "lat": 50.24314,
          "lng": 20.72348
        },
        {
          "name": "Osiedle-Nowiny",
          "lat": 50.8177,
          "lng": 20.54117
        },
        {
          "name": "Osiek",
          "lat": 50.51996,
          "lng": 21.44192
        },
        {
          "name": "Ostrowiec Świętokrzyski",
          "lat": 50.92936,
          "lng": 21.38525
        },
        {
          "name": "Ożarów",
          "lat": 50.88798,
          "lng": 21.66658
        },
        {
          "name": "Pacanów",
          "lat": 50.40031,
          "lng": 21.04148
        },
        {
          "name": "Pawłów",
          "lat": 50.96216,
          "lng": 21.12062
        },
        {
          "name": "Piekoszów",
          "lat": 50.88035,
          "lng": 20.46418
        },
        {
          "name": "Pierzchnica",
          "lat": 50.69754,
          "lng": 20.75489
        },
        {
          "name": "Pińczów",
          "lat": 50.52052,
          "lng": 20.52649
        },
        {
          "name": "Połaniec",
          "lat": 50.43324,
          "lng": 21.2812
        },
        {
          "name": "Radoszyce",
          "lat": 51.07392,
          "lng": 20.25836
        },
        {
          "name": "Raków",
          "lat": 50.67427,
          "lng": 21.04517
        },
        {
          "name": "Rogów",
          "lat": 51.20414,
          "lng": 20.43483
        },
        {
          "name": "Ruda Maleniecka",
          "lat": 51.14592,
          "lng": 20.22377
        },
        {
          "name": "Rytwiany",
          "lat": 50.5292,
          "lng": 21.20636
        },
        {
          "name": "Sadowie",
          "lat": 50.85261,
          "lng": 21.36884
        },
        {
          "name": "Samborzec",
          "lat": 50.64663,
          "lng": 21.64822
        },
        {
          "name": "Sandomierz",
          "lat": 50.68265,
          "lng": 21.74898
        },
        {
          "name": "Secemin",
          "lat": 50.76676,
          "lng": 19.83599
        },
        {
          "name": "Sędziszów",
          "lat": 50.5659,
          "lng": 20.05563
        },
        {
          "name": "Skalbmierz",
          "lat": 50.31993,
          "lng": 20.39929
        },
        {
          "name": "Skarżysko Kościelne",
          "lat": 51.13822,
          "lng": 20.91196
        },
        {
          "name": "Skarżysko-Kamienna",
          "lat": 51.11311,
          "lng": 20.87162
        },
        {
          "name": "Słupia",
          "lat": 50.60073,
          "lng": 19.97435
        },
        {
          "name": "Smyków",
          "lat": 51.04442,
          "lng": 20.40032
        },
        {
          "name": "Sobków",
          "lat": 50.69999,
          "lng": 20.45062
        },
        {
          "name": "Solec-Zdrój",
          "lat": 50.36594,
          "lng": 20.88956
        },
        {
          "name": "Stąporków",
          "lat": 51.13762,
          "lng": 20.57173
        },
        {
          "name": "Starachowice",
          "lat": 51.0374,
          "lng": 21.07126
        },
        {
          "name": "Staszów",
          "lat": 50.56307,
          "lng": 21.16593
        },
        {
          "name": "Stopnica",
          "lat": 50.44018,
          "lng": 20.9378
        },
        {
          "name": "Strawczyn",
          "lat": 50.94177,
          "lng": 20.42135
        },
        {
          "name": "Suchedniów",
          "lat": 51.04776,
          "lng": 20.82922
        },
        {
          "name": "Szydłów",
          "lat": 50.59114,
          "lng": 21.0068
        },
        {
          "name": "Tarłów",
          "lat": 51.0016,
          "lng": 21.71474
        },
        {
          "name": "Tuczępy",
          "lat": 50.51676,
          "lng": 20.99187
        },
        {
          "name": "Wąchock",
          "lat": 51.07391,
          "lng": 21.01243
        },
        {
          "name": "Waśniów",
          "lat": 50.89914,
          "lng": 21.22301
        },
        {
          "name": "Wielka Wieś",
          "lat": 51.07107,
          "lng": 20.96655
        },
        {
          "name": "Wilczyce",
          "lat": 50.74694,
          "lng": 21.65783
        },
        {
          "name": "Wiślica",
          "lat": 50.34891,
          "lng": 20.67438
        },
        {
          "name": "Włoszczowa",
          "lat": 50.85256,
          "lng": 19.96593
        },
        {
          "name": "Wodzisław",
          "lat": 50.52047,
          "lng": 20.1915
        },
        {
          "name": "Wojciechowice",
          "lat": 50.84226,
          "lng": 21.58942
        },
        {
          "name": "Wola Jachowa",
          "lat": 50.84524,
          "lng": 20.85814
        },
        {
          "name": "Zagnańsk",
          "lat": 50.98037,
          "lng": 20.66314
        },
        {
          "name": "Zawichost",
          "lat": 50.80743,
          "lng": 21.85408
        },
        {
          "name": "Złota",
          "lat": 50.3816,
          "lng": 20.59361
        }
      ]
    },
    {
      "name": "Kuyavia-Pomerania",
      "lat": 53.1648363,
      "lng": 18.4834224,
      "districts": [
        {
          "name": "Bydgoszcz",
          "lat": 53.1235,
          "lng": 18.00762
        },
        {
          "name": "Toruń",
          "lat": 53.01375,
          "lng": 18.59814
        },
        {
          "name": "Włocławek",
          "lat": 52.64817,
          "lng": 19.0678
        },
        {
          "name": "Aleksandrów Kujawski",
          "lat": 52.87659,
          "lng": 18.69345
        },
        {
          "name": "Barcin",
          "lat": 52.86607,
          "lng": 17.94625
        },
        {
          "name": "Bartniczka",
          "lat": 53.24776,
          "lng": 19.60433
        },
        {
          "name": "Baruchowo",
          "lat": 52.49412,
          "lng": 19.26496
        },
        {
          "name": "Białe Błota",
          "lat": 53.09516,
          "lng": 17.91621
        },
        {
          "name": "Bobrowniki",
          "lat": 52.78086,
          "lng": 18.96026
        },
        {
          "name": "Bobrowo",
          "lat": 53.28549,
          "lng": 19.27053
        },
        {
          "name": "Boniewo",
          "lat": 52.46532,
          "lng": 18.89116
        },
        {
          "name": "Brodnica",
          "lat": 53.25967,
          "lng": 19.39653
        },
        {
          "name": "Brześć Kujawski",
          "lat": 52.60532,
          "lng": 18.90173
        },
        {
          "name": "Brzozie",
          "lat": 53.32554,
          "lng": 19.60485
        },
        {
          "name": "Brzuze",
          "lat": 53.05458,
          "lng": 19.26195
        },
        {
          "name": "Bukowiec",
          "lat": 53.43383,
          "lng": 18.24048
        },
        {
          "name": "Bytoń",
          "lat": 52.55757,
          "lng": 18.59522
        },
        {
          "name": "Cekcyn",
          "lat": 53.57294,
          "lng": 18.01123
        },
        {
          "name": "Chełmno",
          "lat": 53.34855,
          "lng": 18.4251
        },
        {
          "name": "Chełmża",
          "lat": 53.18463,
          "lng": 18.60466
        },
        {
          "name": "Choceń",
          "lat": 52.48618,
          "lng": 19.01339
        },
        {
          "name": "Chodecz",
          "lat": 52.40513,
          "lng": 19.02759
        },
        {
          "name": "Chrostkowo",
          "lat": 52.94378,
          "lng": 19.25328
        },
        {
          "name": "Ciechocin",
          "lat": 53.05581,
          "lng": 18.92635
        },
        {
          "name": "Ciechocinek",
          "lat": 52.87908,
          "lng": 18.79505
        },
        {
          "name": "Czerniewice",
          "lat": 52.51157,
          "lng": 19.08694
        },
        {
          "name": "Czernikowo",
          "lat": 52.94688,
          "lng": 18.93803
        },
        {
          "name": "Dąbrowa",
          "lat": 52.74668,
          "lng": 17.94342
        },
        {
          "name": "Dąbrowa Chełmińska",
          "lat": 53.17518,
          "lng": 18.30537
        },
        {
          "name": "Dębowa Łąka",
          "lat": 53.25541,
          "lng": 19.09595
        },
        {
          "name": "Dobre",
          "lat": 52.68398,
          "lng": 18.57762
        },
        {
          "name": "Dobrzyń nad Wisłą",
          "lat": 52.63814,
          "lng": 19.31875
        },
        {
          "name": "Drzycim",
          "lat": 53.5052,
          "lng": 18.3094
        },
        {
          "name": "Fabianki",
          "lat": 52.71929,
          "lng": 19.10943
        },
        {
          "name": "Fordon",
          "lat": 53.14821,
          "lng": 18.17036
        },
        {
          "name": "Gąsawa",
          "lat": 52.76757,
          "lng": 17.75579
        },
        {
          "name": "Gniewkowo",
          "lat": 52.89461,
          "lng": 18.40785
        },
        {
          "name": "Golub-Dobrzyń",
          "lat": 53.11087,
          "lng": 19.05381
        },
        {
          "name": "Górzno",
          "lat": 53.19779,
          "lng": 19.64317
        },
        {
          "name": "Gostycyn",
          "lat": 53.49014,
          "lng": 17.80978
        },
        {
          "name": "Grudziądz",
          "lat": 53.48411,
          "lng": 18.75366
        },
        {
          "name": "Gruta",
          "lat": 53.45315,
          "lng": 18.957
        },
        {
          "name": "Inowrocław",
          "lat": 52.79886,
          "lng": 18.26387
        },
        {
          "name": "Izbica Kujawska",
          "lat": 52.42073,
          "lng": 18.7627
        },
        {
          "name": "Jabłonowo Pomorskie",
          "lat": 53.39137,
          "lng": 19.15509
        },
        {
          "name": "Janikowo",
          "lat": 52.75328,
          "lng": 18.11328
        },
        {
          "name": "Janowiec Wielkopolski",
          "lat": 52.75583,
          "lng": 17.48981
        },
        {
          "name": "Jeżewo",
          "lat": 53.51061,
          "lng": 18.49437
        },
        {
          "name": "Jeziora Wielkie",
          "lat": 52.53043,
          "lng": 18.26803
        },
        {
          "name": "Kamień Krajeński",
          "lat": 53.53352,
          "lng": 17.52019
        },
        {
          "name": "Kcynia",
          "lat": 52.99192,
          "lng": 17.4883
        },
        {
          "name": "Kęsowo",
          "lat": 53.55872,
          "lng": 17.7158
        },
        {
          "name": "Kikół",
          "lat": 52.90994,
          "lng": 19.12016
        },
        {
          "name": "Koronowo",
          "lat": 53.3137,
          "lng": 17.93698
        },
        {
          "name": "Kowal",
          "lat": 52.53019,
          "lng": 19.14767
        },
        {
          "name": "Kowalewo Pomorskie",
          "lat": 53.15432,
          "lng": 18.89868
        },
        {
          "name": "Kruszwica",
          "lat": 52.67562,
          "lng": 18.33131
        },
        {
          "name": "Lipno",
          "lat": 52.84436,
          "lng": 19.17852
        },
        {
          "name": "Lisewo",
          "lat": 53.2958,
          "lng": 18.68714
        },
        {
          "name": "Lniano",
          "lat": 53.52801,
          "lng": 18.21267
        },
        {
          "name": "Lubanie",
          "lat": 52.74689,
          "lng": 18.9194
        },
        {
          "name": "Lubicz Dolny",
          "lat": 53.03151,
          "lng": 18.74559
        },
        {
          "name": "Lubicz Górny",
          "lat": 53.02686,
          "lng": 18.771
        },
        {
          "name": "Lubień Kujawski",
          "lat": 52.40574,
          "lng": 19.1644
        },
        {
          "name": "Lubiewo",
          "lat": 53.46542,
          "lng": 18.02994
        },
        {
          "name": "Lubraniec",
          "lat": 52.54178,
          "lng": 18.83254
        },
        {
          "name": "Łabiszyn",
          "lat": 52.9521,
          "lng": 17.91971
        },
        {
          "name": "Łasin",
          "lat": 53.51794,
          "lng": 19.08832
        },
        {
          "name": "Łubianka",
          "lat": 53.13864,
          "lng": 18.48115
        },
        {
          "name": "Łysomice",
          "lat": 53.08629,
          "lng": 18.62002
        },
        {
          "name": "Mogilno",
          "lat": 52.65806,
          "lng": 17.95578
        },
        {
          "name": "Mrocza",
          "lat": 53.24313,
          "lng": 17.60405
        },
        {
          "name": "Nakło nad Notecią",
          "lat": 53.14214,
          "lng": 17.60181
        },
        {
          "name": "Nieszawa",
          "lat": 52.83452,
          "lng": 18.89921
        },
        {
          "name": "Nowa Wieś Wielka",
          "lat": 52.97159,
          "lng": 18.09036
        },
        {
          "name": "Nowe",
          "lat": 53.64906,
          "lng": 18.72716
        },
        {
          "name": "Obrowo",
          "lat": 52.97149,
          "lng": 18.87863
        },
        {
          "name": "Osie",
          "lat": 53.59918,
          "lng": 18.34373
        },
        {
          "name": "Osięciny",
          "lat": 52.62926,
          "lng": 18.72208
        },
        {
          "name": "Osiek",
          "lat": 52.92629,
          "lng": 18.80765
        },
        {
          "name": "Osielsko",
          "lat": 53.18505,
          "lng": 18.08418
        },
        {
          "name": "Ostrowite",
          "lat": 53.06917,
          "lng": 19.29337
        },
        {
          "name": "Pakość",
          "lat": 52.80178,
          "lng": 18.0853
        },
        {
          "name": "Piotrków Kujawski",
          "lat": 52.55111,
          "lng": 18.49905
        },
        {
          "name": "Płużnica",
          "lat": 53.29672,
          "lng": 18.77692
        },
        {
          "name": "Pruszcz",
          "lat": 53.33021,
          "lng": 18.19894
        },
        {
          "name": "Raciążek",
          "lat": 52.8565,
          "lng": 18.81334
        },
        {
          "name": "Radomin",
          "lat": 53.0867,
          "lng": 19.19415
        },
        {
          "name": "Radziejów",
          "lat": 52.62481,
          "lng": 18.52771
        },
        {
          "name": "Radzyń Chełmiński",
          "lat": 53.38509,
          "lng": 18.93725
        },
        {
          "name": "Rogowo",
          "lat": 52.72449,
          "lng": 17.65117
        },
        {
          "name": "Rogóźno",
          "lat": 53.53587,
          "lng": 18.92859
        },
        {
          "name": "Rypin",
          "lat": 53.06603,
          "lng": 19.40941
        },
        {
          "name": "Sadki",
          "lat": 53.16036,
          "lng": 17.44912
        },
        {
          "name": "Sępólno Krajeńskie",
          "lat": 53.45198,
          "lng": 17.53169
        },
        {
          "name": "Sicienko",
          "lat": 53.20387,
          "lng": 17.80051
        },
        {
          "name": "Skępe",
          "lat": 52.86798,
          "lng": 19.35604
        },
        {
          "name": "Skrwilno",
          "lat": 53.01607,
          "lng": 19.62364
        },
        {
          "name": "Ślesin",
          "lat": 53.16514,
          "lng": 17.70258
        },
        {
          "name": "Śliwice",
          "lat": 53.70875,
          "lng": 18.1737
        },
        {
          "name": "Solec Kujawski",
          "lat": 53.08371,
          "lng": 18.22572
        },
        {
          "name": "Sośno",
          "lat": 53.38922,
          "lng": 17.68713
        },
        {
          "name": "Strzelno",
          "lat": 52.62789,
          "lng": 18.17246
        },
        {
          "name": "Świecie",
          "lat": 53.40953,
          "lng": 18.44742
        },
        {
          "name": "Świecie nad Osą",
          "lat": 53.444,
          "lng": 19.10171
        },
        {
          "name": "Świedziebnia",
          "lat": 53.15207,
          "lng": 19.55463
        },
        {
          "name": "Świekatowo",
          "lat": 53.41864,
          "lng": 18.09731
        },
        {
          "name": "Sypniewo",
          "lat": 53.36981,
          "lng": 17.3269
        },
        {
          "name": "Szubin",
          "lat": 53.00967,
          "lng": 17.74
        },
        {
          "name": "Tłuchowo",
          "lat": 52.74715,
          "lng": 19.46563
        },
        {
          "name": "Topólka",
          "lat": 52.50327,
          "lng": 18.71246
        },
        {
          "name": "Tuchola",
          "lat": 53.58792,
          "lng": 17.85905
        },
        {
          "name": "Unisław",
          "lat": 53.21241,
          "lng": 18.38622
        },
        {
          "name": "Wąbrzeźno",
          "lat": 53.27989,
          "lng": 18.94773
        },
        {
          "name": "Waganiec",
          "lat": 52.8012,
          "lng": 18.87589
        },
        {
          "name": "Wąpielsk",
          "lat": 53.13761,
          "lng": 19.27792
        },
        {
          "name": "Warlubie",
          "lat": 53.58751,
          "lng": 18.63444
        },
        {
          "name": "Więcbork",
          "lat": 53.35384,
          "lng": 17.49064
        },
        {
          "name": "Wielgie",
          "lat": 52.74076,
          "lng": 19.2635
        },
        {
          "name": "Wielka Nieszawka",
          "lat": 52.99619,
          "lng": 18.50973
        },
        {
          "name": "Wierzchosławice",
          "lat": 52.86923,
          "lng": 18.35609
        },
        {
          "name": "Zbójno",
          "lat": 53.00848,
          "lng": 19.1575
        },
        {
          "name": "Zławieś Wielka",
          "lat": 53.09562,
          "lng": 18.32897
        },
        {
          "name": "Złotniki Kujawskie",
          "lat": 52.89943,
          "lng": 18.14564
        },
        {
          "name": "Żnin",
          "lat": 52.84958,
          "lng": 17.71992
        }
      ]
    },
    {
      "name": "Lesser Poland",
      "lat": 49.790952,
      "lng": 20.3793521,
      "districts": [
        {
          "name": "Kraków",
          "lat": 50.07262,
          "lng": 19.9325
        },
        {
          "name": "Tarnów",
          "lat": 50.01381,
          "lng": 20.98698
        },
        {
          "name": "Alwernia",
          "lat": 50.06056,
          "lng": 19.53953
        },
        {
          "name": "Andrychów",
          "lat": 49.85497,
          "lng": 19.33834
        },
        {
          "name": "Babice",
          "lat": 50.05565,
          "lng": 19.19955
        },
        {
          "name": "Bachowice",
          "lat": 49.95812,
          "lng": 19.49369
        },
        {
          "name": "Balice",
          "lat": 50.08799,
          "lng": 19.79462
        },
        {
          "name": "Balin",
          "lat": 50.16799,
          "lng": 19.3834
        },
        {
          "name": "Barwałd Górny",
          "lat": 49.86211,
          "lng": 19.61746
        },
        {
          "name": "Barwałd Średni",
          "lat": 49.86632,
          "lng": 19.5936
        },
        {
          "name": "Bębło",
          "lat": 50.18053,
          "lng": 19.78741
        },
        {
          "name": "Bęczarka",
          "lat": 49.87793,
          "lng": 19.86723
        },
        {
          "name": "Białka",
          "lat": 49.69306,
          "lng": 19.67033
        },
        {
          "name": "Białka Tatrzańska",
          "lat": 49.38975,
          "lng": 20.10507
        },
        {
          "name": "Biały Dunajec",
          "lat": 49.3738,
          "lng": 20.00898
        },
        {
          "name": "Biecz",
          "lat": 49.73596,
          "lng": 21.26301
        },
        {
          "name": "Bieńkówka",
          "lat": 49.776,
          "lng": 19.77179
        },
        {
          "name": "Binarowa",
          "lat": 49.75621,
          "lng": 21.22816
        },
        {
          "name": "Biskupice Radłowskie",
          "lat": 50.12069,
          "lng": 20.85943
        },
        {
          "name": "Bobowa",
          "lat": 49.70866,
          "lng": 20.94767
        },
        {
          "name": "Bochnia",
          "lat": 49.96905,
          "lng": 20.43028
        },
        {
          "name": "Bolechowice",
          "lat": 50.14831,
          "lng": 19.79273
        },
        {
          "name": "Bolęcin",
          "lat": 50.1175,
          "lng": 19.48116
        },
        {
          "name": "Bolesław",
          "lat": 50.29729,
          "lng": 19.48073
        },
        {
          "name": "Borek",
          "lat": 50.01778,
          "lng": 20.53087
        },
        {
          "name": "Borzęcin",
          "lat": 50.0654,
          "lng": 20.71103
        },
        {
          "name": "Borzęta",
          "lat": 49.86228,
          "lng": 19.97924
        },
        {
          "name": "Brodła",
          "lat": 50.04331,
          "lng": 19.58879
        },
        {
          "name": "Brody",
          "lat": 49.86742,
          "lng": 19.69746
        },
        {
          "name": "Brzączowice",
          "lat": 49.87478,
          "lng": 20.03709
        },
        {
          "name": "Brzesko",
          "lat": 49.96911,
          "lng": 20.60606
        },
        {
          "name": "Brzeszcze",
          "lat": 49.98203,
          "lng": 19.15157
        },
        {
          "name": "Brzezinka",
          "lat": 50.04237,
          "lng": 19.1902
        },
        {
          "name": "Brzeźnica",
          "lat": 49.96497,
          "lng": 19.61952
        },
        {
          "name": "Budzów",
          "lat": 49.77622,
          "lng": 19.67274
        },
        {
          "name": "Bukowina Tatrzańska",
          "lat": 49.34302,
          "lng": 20.10807
        },
        {
          "name": "Bukowno",
          "lat": 50.26474,
          "lng": 19.45962
        },
        {
          "name": "Bulowice",
          "lat": 49.8765,
          "lng": 19.28873
        },
        {
          "name": "Bystra",
          "lat": 49.64796,
          "lng": 19.77994
        },
        {
          "name": "Chełmek",
          "lat": 50.10163,
          "lng": 19.24801
        },
        {
          "name": "Chełmiec",
          "lat": 49.63051,
          "lng": 20.66425
        },
        {
          "name": "Chocznia",
          "lat": 49.87417,
          "lng": 19.45438
        },
        {
          "name": "Chrzanów",
          "lat": 50.13546,
          "lng": 19.40203
        },
        {
          "name": "Chyżne",
          "lat": 49.42672,
          "lng": 19.66956
        },
        {
          "name": "Ciężkowice",
          "lat": 49.78575,
          "lng": 20.97324
        },
        {
          "name": "Czarna Góra",
          "lat": 49.37662,
          "lng": 20.13047
        },
        {
          "name": "Czarnochowice",
          "lat": 50.00471,
          "lng": 20.0679
        },
        {
          "name": "Czarny Dunajec",
          "lat": 49.43663,
          "lng": 19.85161
        },
        {
          "name": "Czchów",
          "lat": 49.83726,
          "lng": 20.68056
        },
        {
          "name": "Czernichów",
          "lat": 49.9892,
          "lng": 19.68115
        },
        {
          "name": "Czułów",
          "lat": 50.05956,
          "lng": 19.70106
        },
        {
          "name": "Dąbrowa Tarnowska",
          "lat": 50.17462,
          "lng": 20.98633
        },
        {
          "name": "Dębno",
          "lat": 49.96701,
          "lng": 20.71979
        },
        {
          "name": "Dobczyce",
          "lat": 49.88109,
          "lng": 20.08936
        },
        {
          "name": "Dobra",
          "lat": 49.71793,
          "lng": 20.25347
        },
        {
          "name": "Dziewin",
          "lat": 50.07554,
          "lng": 20.45491
        },
        {
          "name": "Filipowice",
          "lat": 50.15573,
          "lng": 19.56579
        },
        {
          "name": "Frydman",
          "lat": 49.44927,
          "lng": 20.22961
        },
        {
          "name": "Frydrychowice",
          "lat": 49.90481,
          "lng": 19.41936
        },
        {
          "name": "Gdów",
          "lat": 49.90818,
          "lng": 20.19879
        },
        {
          "name": "Giebułtów",
          "lat": 50.14556,
          "lng": 19.87856
        },
        {
          "name": "Gierałtowice",
          "lat": 49.94426,
          "lng": 19.3907
        },
        {
          "name": "Głogoczów",
          "lat": 49.89452,
          "lng": 19.8741
        },
        {
          "name": "Gnojnik",
          "lat": 49.89397,
          "lng": 20.60863
        },
        {
          "name": "Gorenice",
          "lat": 50.208,
          "lng": 19.62038
        },
        {
          "name": "Gorlice",
          "lat": 49.65563,
          "lng": 21.16035
        },
        {
          "name": "Gręboszów",
          "lat": 50.24501,
          "lng": 20.77669
        },
        {
          "name": "Grojec",
          "lat": 49.98147,
          "lng": 19.23792
        },
        {
          "name": "Gromnik",
          "lat": 49.83843,
          "lng": 20.96123
        },
        {
          "name": "Gruszów Wielki",
          "lat": 50.19163,
          "lng": 21.03144
        },
        {
          "name": "Grybów",
          "lat": 49.62439,
          "lng": 20.94797
        },
        {
          "name": "Grzechynia",
          "lat": 49.7136,
          "lng": 19.64561
        },
        {
          "name": "Harbutowice",
          "lat": 49.81235,
          "lng": 19.78045
        },
        {
          "name": "Inwałd",
          "lat": 49.86355,
          "lng": 19.39276
        },
        {
          "name": "Iwkowa",
          "lat": 49.81716,
          "lng": 20.59018
        },
        {
          "name": "Izdebnik",
          "lat": 49.87218,
          "lng": 19.76801
        },
        {
          "name": "Jabłonka",
          "lat": 49.47968,
          "lng": 19.6937
        },
        {
          "name": "Jadowniki",
          "lat": 49.95884,
          "lng": 20.64434
        },
        {
          "name": "Jadowniki Mokre",
          "lat": 50.16546,
          "lng": 20.72845
        },
        {
          "name": "Janowice",
          "lat": 49.89154,
          "lng": 20.86081
        },
        {
          "name": "Jaroszowice",
          "lat": 49.86267,
          "lng": 19.51962
        },
        {
          "name": "Jasień",
          "lat": 49.96988,
          "lng": 20.5719
        },
        {
          "name": "Jasienica",
          "lat": 49.82281,
          "lng": 19.84191
        },
        {
          "name": "Jastrzębia",
          "lat": 49.79733,
          "lng": 20.88089
        },
        {
          "name": "Jawornik",
          "lat": 49.8558,
          "lng": 19.89315
        },
        {
          "name": "Jerzmanowice",
          "lat": 50.21267,
          "lng": 19.74672
        },
        {
          "name": "Jodłówka",
          "lat": 49.99295,
          "lng": 20.54821
        },
        {
          "name": "Jodłówka-Wałki",
          "lat": 50.04992,
          "lng": 21.13332
        },
        {
          "name": "Jordanów",
          "lat": 49.64935,
          "lng": 19.82981
        },
        {
          "name": "Juszczyn",
          "lat": 49.6929,
          "lng": 19.69128
        },
        {
          "name": "Kalwaria Zebrzydowska",
          "lat": 49.86759,
          "lng": 19.6772
        },
        {
          "name": "Kamień",
          "lat": 50.01215,
          "lng": 19.58536
        },
        {
          "name": "Kamienica",
          "lat": 49.57533,
          "lng": 20.34505
        },
        {
          "name": "Kamionka Wielka",
          "lat": 49.56848,
          "lng": 20.82364
        },
        {
          "name": "Kasina Wielka",
          "lat": 49.72969,
          "lng": 20.13554
        },
        {
          "name": "Kaszów",
          "lat": 50.03884,
          "lng": 19.71934
        },
        {
          "name": "Kęty",
          "lat": 49.88214,
          "lng": 19.22333
        },
        {
          "name": "Klecza Dolna",
          "lat": 49.88291,
          "lng": 19.53764
        },
        {
          "name": "Klikuszowa",
          "lat": 49.5193,
          "lng": 19.9849
        },
        {
          "name": "Klimontów",
          "lat": 50.22843,
          "lng": 20.3199
        },
        {
          "name": "Klucze",
          "lat": 50.33565,
          "lng": 19.56236
        },
        {
          "name": "Kluszkowce",
          "lat": 49.451,
          "lng": 20.30179
        },
        {
          "name": "Kłaj",
          "lat": 49.99246,
          "lng": 20.29904
        },
        {
          "name": "Kobylanka",
          "lat": 49.66891,
          "lng": 21.22293
        },
        {
          "name": "Kokotów",
          "lat": 50.01254,
          "lng": 20.07829
        },
        {
          "name": "Korzenna",
          "lat": 49.68635,
          "lng": 20.84355
        },
        {
          "name": "Kościelisko",
          "lat": 49.29073,
          "lng": 19.88929
        },
        {
          "name": "Koszyce",
          "lat": 49.97226,
          "lng": 20.94166
        },
        {
          "name": "Koszyce Wielkie",
          "lat": 49.98076,
          "lng": 20.94552
        },
        {
          "name": "Kozłów",
          "lat": 50.48394,
          "lng": 20.02456
        },
        {
          "name": "Krościenko nad Dunajcem",
          "lat": 49.44081,
          "lng": 20.42624
        },
        {
          "name": "Krośnica",
          "lat": 49.44787,
          "lng": 20.33956
        },
        {
          "name": "Krynica-Zdrój",
          "lat": 49.42225,
          "lng": 20.95942
        },
        {
          "name": "Kryspinów",
          "lat": 50.0438,
          "lng": 19.79822
        },
        {
          "name": "Krzczonów",
          "lat": 49.73813,
          "lng": 19.91821
        },
        {
          "name": "Krzęcin",
          "lat": 49.94316,
          "lng": 19.74157
        },
        {
          "name": "Krzeczów",
          "lat": 49.98876,
          "lng": 20.48779
        },
        {
          "name": "Krzeszów",
          "lat": 49.75915,
          "lng": 19.48915
        },
        {
          "name": "Krzeszowice",
          "lat": 50.14248,
          "lng": 19.63223
        },
        {
          "name": "Krzyszkowice",
          "lat": 49.88346,
          "lng": 19.92285
        },
        {
          "name": "Krzywaczka",
          "lat": 49.89353,
          "lng": 19.83221
        },
        {
          "name": "Kuków",
          "lat": 49.73252,
          "lng": 19.48485
        },
        {
          "name": "Kwaczała",
          "lat": 50.06408,
          "lng": 19.49215
        },
        {
          "name": "Lachowice",
          "lat": 49.71555,
          "lng": 19.47455
        },
        {
          "name": "Lanckorona",
          "lat": 49.84496,
          "lng": 19.71578
        },
        {
          "name": "Lasek",
          "lat": 49.50883,
          "lng": 19.98078
        },
        {
          "name": "Laskowa",
          "lat": 49.76147,
          "lng": 20.45045
        },
        {
          "name": "Leńcze",
          "lat": 49.89895,
          "lng": 19.73539
        },
        {
          "name": "Leśnica",
          "lat": 49.40092,
          "lng": 20.06001
        },
        {
          "name": "Libertów",
          "lat": 49.97242,
          "lng": 19.89461
        },
        {
          "name": "Libiąż",
          "lat": 50.10396,
          "lng": 19.31568
        },
        {
          "name": "Limanowa",
          "lat": 49.70594,
          "lng": 20.42204
        },
        {
          "name": "Lipinki",
          "lat": 49.67296,
          "lng": 21.29288
        },
        {
          "name": "Lipnica Mała",
          "lat": 49.51507,
          "lng": 19.63497
        },
        {
          "name": "Lipnica Wielka",
          "lat": 49.70489,
          "lng": 20.86844
        },
        {
          "name": "Lipnik",
          "lat": 49.78902,
          "lng": 20.08455
        },
        {
          "name": "Lisia Góra",
          "lat": 50.08039,
          "lng": 21.04397
        },
        {
          "name": "Liszki",
          "lat": 50.03884,
          "lng": 19.76835
        },
        {
          "name": "Lubień",
          "lat": 49.71921,
          "lng": 19.97847
        },
        {
          "name": "Lubomierz",
          "lat": 49.60854,
          "lng": 20.20214
        },
        {
          "name": "Ludźmierz",
          "lat": 49.46656,
          "lng": 19.9825
        },
        {
          "name": "Luszowice",
          "lat": 50.17415,
          "lng": 19.40426
        },
        {
          "name": "Łabowa",
          "lat": 49.52766,
          "lng": 20.85497
        },
        {
          "name": "Łącko",
          "lat": 49.55757,
          "lng": 20.43586
        },
        {
          "name": "Łączany",
          "lat": 49.98407,
          "lng": 19.57867
        },
        {
          "name": "Łapanów",
          "lat": 49.86538,
          "lng": 20.29149
        },
        {
          "name": "Łapczyca",
          "lat": 49.95994,
          "lng": 20.38445
        },
        {
          "name": "Łapsze Niżne",
          "lat": 49.39807,
          "lng": 20.24343
        },
        {
          "name": "Łętownia",
          "lat": 49.69745,
          "lng": 19.87109
        },
        {
          "name": "Łopuszna",
          "lat": 49.47281,
          "lng": 20.13021
        },
        {
          "name": "Łososina Dolna",
          "lat": 49.74977,
          "lng": 20.63129
        },
        {
          "name": "Łukowa",
          "lat": 50.093,
          "lng": 20.97548
        },
        {
          "name": "Łukowica",
          "lat": 49.6111,
          "lng": 20.48289
        },
        {
          "name": "Łużna",
          "lat": 49.71288,
          "lng": 21.04637
        },
        {
          "name": "Maków Podhalański",
          "lat": 49.73008,
          "lng": 19.67711
        },
        {
          "name": "Malec",
          "lat": 49.92106,
          "lng": 19.2453
        },
        {
          "name": "Maniowy",
          "lat": 49.45976,
          "lng": 20.26454
        },
        {
          "name": "Maszkienice",
          "lat": 49.9892,
          "lng": 20.68657
        },
        {
          "name": "Mędrzechów",
          "lat": 50.28221,
          "lng": 20.94749
        },
        {
          "name": "Mętków",
          "lat": 50.05251,
          "lng": 19.37525
        },
        {
          "name": "Michałowice",
          "lat": 50.15898,
          "lng": 19.98044
        },
        {
          "name": "Miechów",
          "lat": 50.35648,
          "lng": 20.02788
        },
        {
          "name": "Miechów Charsznica",
          "lat": 50.39599,
          "lng": 19.95031
        },
        {
          "name": "Miękinia",
          "lat": 50.15557,
          "lng": 19.60871
        },
        {
          "name": "Mników",
          "lat": 50.06044,
          "lng": 19.72595
        },
        {
          "name": "Modlnica",
          "lat": 50.12958,
          "lng": 19.86461
        },
        {
          "name": "Modlniczka",
          "lat": 50.11739,
          "lng": 19.8553
        },
        {
          "name": "Mogilany",
          "lat": 49.9389,
          "lng": 19.88972
        },
        {
          "name": "Moszczenica",
          "lat": 49.73668,
          "lng": 21.09238
        },
        {
          "name": "Mszana Dolna",
          "lat": 49.67432,
          "lng": 20.07992
        },
        {
          "name": "Mszana Górna",
          "lat": 49.66202,
          "lng": 20.09734
        },
        {
          "name": "Muszyna",
          "lat": 49.35661,
          "lng": 20.89718
        },
        {
          "name": "Myślachowice",
          "lat": 50.18514,
          "lng": 19.48116
        },
        {
          "name": "Myślenice",
          "lat": 49.83383,
          "lng": 19.9383
        },
        {
          "name": "Naprawa",
          "lat": 49.64657,
          "lng": 19.87916
        },
        {
          "name": "Nawojowa",
          "lat": 49.56686,
          "lng": 20.73927
        },
        {
          "name": "Nidek",
          "lat": 49.90492,
          "lng": 19.32461
        },
        {
          "name": "Niedomice",
          "lat": 50.10737,
          "lng": 20.89548
        },
        {
          "name": "Niedzica",
          "lat": 49.41008,
          "lng": 20.30273
        },
        {
          "name": "Niedźwiedź",
          "lat": 49.621,
          "lng": 20.07794
        },
        {
          "name": "Niepołomice",
          "lat": 50.04066,
          "lng": 20.22257
        },
        {
          "name": "Nowa Góra",
          "lat": 50.17305,
          "lng": 19.5912
        },
        {
          "name": "Nowa Wieś",
          "lat": 49.90746,
          "lng": 19.21646
        },
        {
          "name": "Nowe Brzesko",
          "lat": 50.13222,
          "lng": 20.37663
        },
        {
          "name": "Nowy Sącz",
          "lat": 49.62177,
          "lng": 20.69705
        },
        {
          "name": "Nowy Targ",
          "lat": 49.47783,
          "lng": 20.03228
        },
        {
          "name": "Nowy Wiśnicz",
          "lat": 49.91465,
          "lng": 20.46109
        },
        {
          "name": "Ochojno",
          "lat": 49.95255,
          "lng": 19.97452
        },
        {
          "name": "Ochotnica Dolna",
          "lat": 49.52682,
          "lng": 20.34265
        },
        {
          "name": "Okocim",
          "lat": 49.9489,
          "lng": 20.6016
        },
        {
          "name": "Olesno",
          "lat": 50.20152,
          "lng": 20.92578
        },
        {
          "name": "Olkusz",
          "lat": 50.2813,
          "lng": 19.56503
        },
        {
          "name": "Olszana",
          "lat": 49.56748,
          "lng": 20.52126
        },
        {
          "name": "Olszówka",
          "lat": 49.61455,
          "lng": 20.02885
        },
        {
          "name": "Ołpiny",
          "lat": 49.80686,
          "lng": 21.20464
        },
        {
          "name": "Osieczany",
          "lat": 49.84252,
          "lng": 19.98207
        },
        {
          "name": "Osiek",
          "lat": 50.24353,
          "lng": 19.60047
        },
        {
          "name": "Osielec",
          "lat": 49.68079,
          "lng": 19.78243
        },
        {
          "name": "Ostrężnica",
          "lat": 50.19262,
          "lng": 19.57077
        },
        {
          "name": "Ostrowsko",
          "lat": 49.47616,
          "lng": 20.10052
        },
        {
          "name": "Oświęcim",
          "lat": 50.03437,
          "lng": 19.21037
        },
        {
          "name": "Palcza",
          "lat": 49.80454,
          "lng": 19.74389
        },
        {
          "name": "Pawlikowice",
          "lat": 49.9531,
          "lng": 20.05486
        },
        {
          "name": "Pcim",
          "lat": 49.75166,
          "lng": 19.97108
        },
        {
          "name": "Piekary",
          "lat": 50.02495,
          "lng": 19.79616
        },
        {
          "name": "Piekielnik",
          "lat": 49.47688,
          "lng": 19.7681
        },
        {
          "name": "Piwniczna-Zdrój",
          "lat": 49.44056,
          "lng": 20.71423
        },
        {
          "name": "Pleśna",
          "lat": 49.92642,
          "lng": 20.94526
        },
        {
          "name": "Płaza",
          "lat": 50.09988,
          "lng": 19.46451
        },
        {
          "name": "Podegrodzie",
          "lat": 49.57688,
          "lng": 20.58855
        },
        {
          "name": "Podłęże",
          "lat": 50.01458,
          "lng": 20.16781
        },
        {
          "name": "Podwilk",
          "lat": 49.5476,
          "lng": 19.73874
        },
        {
          "name": "Pogórska Wola",
          "lat": 50.01855,
          "lng": 21.15795
        },
        {
          "name": "Pogorzyce",
          "lat": 50.10186,
          "lng": 19.42228
        },
        {
          "name": "Polanka Wielka",
          "lat": 49.98501,
          "lng": 19.32615
        },
        {
          "name": "Ponikiew",
          "lat": 49.83311,
          "lng": 19.46571
        },
        {
          "name": "Porąbka Uszewska",
          "lat": 49.9426,
          "lng": 20.69052
        },
        {
          "name": "Poręba",
          "lat": 49.79645,
          "lng": 20.01718
        },
        {
          "name": "Poręba Spytkowska",
          "lat": 49.93995,
          "lng": 20.55405
        },
        {
          "name": "Poręba Wielka",
          "lat": 50.01116,
          "lng": 19.28375
        },
        {
          "name": "Poronin",
          "lat": 49.33781,
          "lng": 20.00291
        },
        {
          "name": "Proszowice",
          "lat": 50.19275,
          "lng": 20.28909
        },
        {
          "name": "Przecieszyn",
          "lat": 49.97838,
          "lng": 19.17046
        },
        {
          "name": "Przeciszów",
          "lat": 50.00647,
          "lng": 19.37576
        },
        {
          "name": "Przeginia",
          "lat": 50.23831,
          "lng": 19.68853
        },
        {
          "name": "Przyborów",
          "lat": 50.03035,
          "lng": 20.66279
        },
        {
          "name": "Przytkowice",
          "lat": 49.91785,
          "lng": 19.6857
        },
        {
          "name": "Psary",
          "lat": 50.17242,
          "lng": 19.52953
        },
        {
          "name": "Raba Wyżna",
          "lat": 49.56681,
          "lng": 19.87967
        },
        {
          "name": "Rabka-Zdrój",
          "lat": 49.60889,
          "lng": 19.96654
        },
        {
          "name": "Racławice",
          "lat": 50.19344,
          "lng": 19.67686
        },
        {
          "name": "Rączna",
          "lat": 50.00984,
          "lng": 19.76784
        },
        {
          "name": "Radgoszcz",
          "lat": 50.2058,
          "lng": 21.11315
        },
        {
          "name": "Radłów",
          "lat": 50.08419,
          "lng": 20.84967
        },
        {
          "name": "Radocza",
          "lat": 49.91774,
          "lng": 19.47498
        },
        {
          "name": "Radziszów",
          "lat": 49.93531,
          "lng": 19.81522
        },
        {
          "name": "Rajsko",
          "lat": 50.01193,
          "lng": 19.19294
        },
        {
          "name": "Regulice",
          "lat": 50.08314,
          "lng": 19.52785
        },
        {
          "name": "Roczyny",
          "lat": 49.8537,
          "lng": 19.31568
        },
        {
          "name": "Rokiciny",
          "lat": 49.57243,
          "lng": 19.92302
        },
        {
          "name": "Ropa",
          "lat": 49.59146,
          "lng": 21.04431
        },
        {
          "name": "Rudawa",
          "lat": 50.12151,
          "lng": 19.71239
        },
        {
          "name": "Rudnik",
          "lat": 49.85243,
          "lng": 19.8474
        },
        {
          "name": "Rusocice",
          "lat": 49.99604,
          "lng": 19.60648
        },
        {
          "name": "Ryczów",
          "lat": 49.98103,
          "lng": 19.55017
        },
        {
          "name": "Ryglice",
          "lat": 49.87887,
          "lng": 21.13748
        },
        {
          "name": "Rytro",
          "lat": 49.48904,
          "lng": 20.66631
        },
        {
          "name": "Rząska",
          "lat": 50.09713,
          "lng": 19.84509
        },
        {
          "name": "Rzepiennik Strzyżewski",
          "lat": 49.80542,
          "lng": 21.03599
        },
        {
          "name": "Rzeszotary",
          "lat": 49.94625,
          "lng": 19.9728
        },
        {
          "name": "Rzezawa",
          "lat": 49.98997,
          "lng": 20.51508
        },
        {
          "name": "Rzozów",
          "lat": 49.95398,
          "lng": 19.79668
        },
        {
          "name": "Rzyki",
          "lat": 49.81129,
          "lng": 19.39619
        },
        {
          "name": "Sanka",
          "lat": 50.06871,
          "lng": 19.64596
        },
        {
          "name": "Sąspów",
          "lat": 50.22887,
          "lng": 19.77007
        },
        {
          "name": "Sękowa",
          "lat": 49.62217,
          "lng": 21.19769
        },
        {
          "name": "Sidzina",
          "lat": 49.59146,
          "lng": 19.71119
        },
        {
          "name": "Siedliska",
          "lat": 49.87163,
          "lng": 20.99625
        },
        {
          "name": "Siemiechów",
          "lat": 49.85359,
          "lng": 20.90595
        },
        {
          "name": "Sieniawa",
          "lat": 49.53947,
          "lng": 19.93014
        },
        {
          "name": "Siepraw",
          "lat": 49.91437,
          "lng": 19.95864
        },
        {
          "name": "Sieradza",
          "lat": 50.13499,
          "lng": 20.92947
        },
        {
          "name": "Skała",
          "lat": 50.23052,
          "lng": 19.85363
        },
        {
          "name": "Skawica",
          "lat": 49.67718,
          "lng": 19.62321
        },
        {
          "name": "Skawina",
          "lat": 49.97524,
          "lng": 19.82869
        },
        {
          "name": "Skawinki",
          "lat": 49.82281,
          "lng": 19.71256
        },
        {
          "name": "Skomielna Czarna",
          "lat": 49.72709,
          "lng": 19.83633
        },
        {
          "name": "Skrzydlna",
          "lat": 49.75343,
          "lng": 20.18618
        },
        {
          "name": "Skrzyszów",
          "lat": 49.99373,
          "lng": 21.06139
        },
        {
          "name": "Słomniki",
          "lat": 50.24012,
          "lng": 20.08224
        },
        {
          "name": "Słopnice",
          "lat": 49.68496,
          "lng": 20.34325
        },
        {
          "name": "Słupiec",
          "lat": 50.32787,
          "lng": 21.19374
        },
        {
          "name": "Smęgorzów",
          "lat": 50.22843,
          "lng": 21.00414
        },
        {
          "name": "Sosnowice",
          "lat": 49.93995,
          "lng": 19.71514
        },
        {
          "name": "Spytkowice",
          "lat": 49.99671,
          "lng": 19.51103
        },
        {
          "name": "Stanisław Dolny",
          "lat": 49.9047,
          "lng": 19.65334
        },
        {
          "name": "Stanisław Górny",
          "lat": 49.91155,
          "lng": 19.62931
        },
        {
          "name": "Stanisławice",
          "lat": 49.9855,
          "lng": 20.35123
        },
        {
          "name": "Stary Sącz",
          "lat": 49.56364,
          "lng": 20.63496
        },
        {
          "name": "Stary Wiśnicz",
          "lat": 49.92548,
          "lng": 20.48641
        },
        {
          "name": "Stronie",
          "lat": 49.83056,
          "lng": 19.67497
        },
        {
          "name": "Stróża",
          "lat": 49.79628,
          "lng": 19.92379
        },
        {
          "name": "Stryszawa",
          "lat": 49.71327,
          "lng": 19.52185
        },
        {
          "name": "Stryszów",
          "lat": 49.82569,
          "lng": 19.61763
        },
        {
          "name": "Sucha Beskidzka",
          "lat": 49.74188,
          "lng": 19.59429
        },
        {
          "name": "Sulęcin",
          "lat": 52.44429,
          "lng": 15.11676
        },
        {
          "name": "Sułkowice",
          "lat": 49.84053,
          "lng": 19.80097
        },
        {
          "name": "Sułoszowa",
          "lat": 50.26789,
          "lng": 19.73282
        },
        {
          "name": "Świątniki Górne",
          "lat": 49.93429,
          "lng": 19.95364
        },
        {
          "name": "Szaflary",
          "lat": 49.42655,
          "lng": 20.02713
        },
        {
          "name": "Szarów",
          "lat": 49.99505,
          "lng": 20.2696
        },
        {
          "name": "Szczawnica",
          "lat": 49.42437,
          "lng": 20.48487
        },
        {
          "name": "Szczucin",
          "lat": 50.30957,
          "lng": 21.07444
        },
        {
          "name": "Szczurowa",
          "lat": 50.11915,
          "lng": 20.6361
        },
        {
          "name": "Szerzyny",
          "lat": 49.80919,
          "lng": 21.2467
        },
        {
          "name": "Szynwałd",
          "lat": 49.96767,
          "lng": 21.12293
        },
        {
          "name": "Targanice",
          "lat": 49.80575,
          "lng": 19.32444
        },
        {
          "name": "Targowisko",
          "lat": 49.98473,
          "lng": 20.29346
        },
        {
          "name": "Tarnowiec",
          "lat": 49.98164,
          "lng": 20.98655
        },
        {
          "name": "Tenczynek",
          "lat": 50.11986,
          "lng": 19.61308
        },
        {
          "name": "Tokarnia",
          "lat": 49.7272,
          "lng": 19.87161
        },
        {
          "name": "Tomaszkowice",
          "lat": 49.97918,
          "lng": 20.09966
        },
        {
          "name": "Tomice",
          "lat": 49.89773,
          "lng": 19.48357
        },
        {
          "name": "Toporzysko",
          "lat": 49.62495,
          "lng": 19.80226
        },
        {
          "name": "Trąbki",
          "lat": 49.96226,
          "lng": 20.1424
        },
        {
          "name": "Trzciana",
          "lat": 49.84485,
          "lng": 20.37415
        },
        {
          "name": "Trzebinia",
          "lat": 50.15931,
          "lng": 19.46966
        },
        {
          "name": "Trzebunia",
          "lat": 49.79146,
          "lng": 19.84715
        },
        {
          "name": "Trzemeśnia",
          "lat": 49.82752,
          "lng": 20.02207
        },
        {
          "name": "Tuchów",
          "lat": 49.89485,
          "lng": 21.05407
        },
        {
          "name": "Tylicz",
          "lat": 49.39598,
          "lng": 21.02368
        },
        {
          "name": "Tymbark",
          "lat": 49.72859,
          "lng": 20.32539
        },
        {
          "name": "Uście Gorlickie",
          "lat": 49.52192,
          "lng": 21.13821
        },
        {
          "name": "Wadowice",
          "lat": 49.88335,
          "lng": 19.49292
        },
        {
          "name": "Waksmund",
          "lat": 49.48207,
          "lng": 20.07563
        },
        {
          "name": "Wawrzeńczyce",
          "lat": 50.11012,
          "lng": 20.31612
        },
        {
          "name": "Węglówka",
          "lat": 49.73424,
          "lng": 20.08575
        },
        {
          "name": "Węgrzce Wielkie",
          "lat": 50.01491,
          "lng": 20.11082
        },
        {
          "name": "Wieliczka",
          "lat": 49.98738,
          "lng": 20.06473
        },
        {
          "name": "Wielka Wieś",
          "lat": 49.93631,
          "lng": 20.82304
        },
        {
          "name": "Wieprz",
          "lat": 49.89093,
          "lng": 19.35688
        },
        {
          "name": "Wierzchosławice",
          "lat": 50.02478,
          "lng": 20.85677
        },
        {
          "name": "Wietrzychowice",
          "lat": 50.19097,
          "lng": 20.76502
        },
        {
          "name": "Wiśniowa",
          "lat": 49.7878,
          "lng": 20.11502
        },
        {
          "name": "Witanowice",
          "lat": 49.91796,
          "lng": 19.52579
        },
        {
          "name": "Witkowice",
          "lat": 49.90746,
          "lng": 19.27963
        },
        {
          "name": "Włosienica",
          "lat": 50.01822,
          "lng": 19.31671
        },
        {
          "name": "Wojnicz",
          "lat": 49.958,
          "lng": 20.83785
        },
        {
          "name": "Wola Batorska",
          "lat": 50.05262,
          "lng": 20.26617
        },
        {
          "name": "Wola Dębińska",
          "lat": 49.98214,
          "lng": 20.68777
        },
        {
          "name": "Wola Filipowska",
          "lat": 50.13433,
          "lng": 19.58013
        },
        {
          "name": "Wola Radziszowska",
          "lat": 49.90558,
          "lng": 19.78827
        },
        {
          "name": "Wola Zabierzowska",
          "lat": 50.07257,
          "lng": 20.33217
        },
        {
          "name": "Wolbrom",
          "lat": 50.37957,
          "lng": 19.75831
        },
        {
          "name": "Wołowice",
          "lat": 49.98876,
          "lng": 19.7263
        },
        {
          "name": "Woźniki",
          "lat": 49.93774,
          "lng": 19.49078
        },
        {
          "name": "Wrząsowice",
          "lat": 49.95862,
          "lng": 19.94654
        },
        {
          "name": "Wysoka",
          "lat": 49.90713,
          "lng": 19.60356
        },
        {
          "name": "Zabierzów",
          "lat": 50.11425,
          "lng": 19.79788
        },
        {
          "name": "Zabierzów Bocheński",
          "lat": 50.06821,
          "lng": 20.31896
        },
        {
          "name": "Żabno",
          "lat": 50.13334,
          "lng": 20.88615
        },
        {
          "name": "Zaborze",
          "lat": 50.02175,
          "lng": 19.24067
        },
        {
          "name": "Zagórnik",
          "lat": 49.8371,
          "lng": 19.37868
        },
        {
          "name": "Zagórze",
          "lat": 50.09449,
          "lng": 19.40357
        },
        {
          "name": "Zakliczyn",
          "lat": 49.85589,
          "lng": 20.80935
        },
        {
          "name": "Zakopane",
          "lat": 49.29899,
          "lng": 19.94885
        },
        {
          "name": "Zakrzów",
          "lat": 49.82558,
          "lng": 19.64973
        },
        {
          "name": "Zalas",
          "lat": 50.08033,
          "lng": 19.62132
        },
        {
          "name": "Żarki",
          "lat": 50.08259,
          "lng": 19.35199
        },
        {
          "name": "Zarzecze",
          "lat": 50.36715,
          "lng": 19.69591
        },
        {
          "name": "Zator",
          "lat": 49.99604,
          "lng": 19.43799
        },
        {
          "name": "Zawoja",
          "lat": 49.64396,
          "lng": 19.54227
        },
        {
          "name": "Zebrzydowice",
          "lat": 49.89032,
          "lng": 19.67291
        },
        {
          "name": "Żegocina",
          "lat": 49.81395,
          "lng": 20.41964
        },
        {
          "name": "Zembrzyce",
          "lat": 49.77517,
          "lng": 19.6012
        },
        {
          "name": "Zielonki",
          "lat": 50.12091,
          "lng": 19.92156
        },
        {
          "name": "Złota",
          "lat": 49.88059,
          "lng": 20.69326
        },
        {
          "name": "Zubrzyca Dolna",
          "lat": 49.52688,
          "lng": 19.67342
        },
        {
          "name": "Zubrzyca Górna",
          "lat": 49.56174,
          "lng": 19.64973
        },
        {
          "name": "Żurowa",
          "lat": 49.82636,
          "lng": 21.16894
        }
      ]
    },
    {
      "name": "Lower Silesia",
      "lat": 50.9206028,
      "lng": 16.4946351,
      "districts": [
        {
          "name": "Wałbrzych",
          "lat": 50.77141,
          "lng": 16.28432
        },
        {
          "name": "Wrocław",
          "lat": 51.1081,
          "lng": 17.03859
        },
        {
          "name": "Bardo",
          "lat": 50.50589,
          "lng": 16.73986
        },
        {
          "name": "Bielany Wrocławskie",
          "lat": 51.0361,
          "lng": 16.9677
        },
        {
          "name": "Bielawa",
          "lat": 50.69075,
          "lng": 16.623
        },
        {
          "name": "Bierutów",
          "lat": 51.12443,
          "lng": 17.54607
        },
        {
          "name": "Biskupin",
          "lat": 51.10097,
          "lng": 17.10442
        },
        {
          "name": "Bogatynia",
          "lat": 50.90747,
          "lng": 14.95634
        },
        {
          "name": "Boguszów-Gorce",
          "lat": 50.75514,
          "lng": 16.20494
        },
        {
          "name": "Bolesławiec",
          "lat": 51.26418,
          "lng": 15.5697
        },
        {
          "name": "Bolków",
          "lat": 50.92203,
          "lng": 16.10111
        },
        {
          "name": "Bozkow",
          "lat": 50.51315,
          "lng": 16.57528
        },
        {
          "name": "Brzeg Dolny",
          "lat": 51.27299,
          "lng": 16.70815
        },
        {
          "name": "Budzów",
          "lat": 50.59337,
          "lng": 16.71038
        },
        {
          "name": "Bystrzyca",
          "lat": 50.96048,
          "lng": 17.39702
        },
        {
          "name": "Bystrzyca Kłodzka",
          "lat": 50.30179,
          "lng": 16.64231
        },
        {
          "name": "Chocianów",
          "lat": 51.41867,
          "lng": 15.90172
        },
        {
          "name": "Chojnów",
          "lat": 51.27373,
          "lng": 15.93661
        },
        {
          "name": "Ciechów",
          "lat": 51.13218,
          "lng": 16.56773
        },
        {
          "name": "Cieplice Śląskie Zdrój",
          "lat": 50.86545,
          "lng": 15.68367
        },
        {
          "name": "Ciepłowody",
          "lat": 50.67477,
          "lng": 16.90871
        },
        {
          "name": "Cieszków",
          "lat": 51.63104,
          "lng": 17.35726
        },
        {
          "name": "Czarny Bór",
          "lat": 50.77083,
          "lng": 16.1305
        },
        {
          "name": "Czernica",
          "lat": 51.04609,
          "lng": 17.2451
        },
        {
          "name": "Dąbie",
          "lat": 51.10573,
          "lng": 17.08108
        },
        {
          "name": "Długołęka",
          "lat": 51.17902,
          "lng": 17.19137
        },
        {
          "name": "Dobroszyce",
          "lat": 51.26776,
          "lng": 17.34205
        },
        {
          "name": "Duszniki-Zdrój",
          "lat": 50.40327,
          "lng": 16.39091
        },
        {
          "name": "Dziadowa Kłoda",
          "lat": 51.23543,
          "lng": 17.70919
        },
        {
          "name": "Dziećmorowice",
          "lat": 50.76947,
          "lng": 16.35212
        },
        {
          "name": "Dzierżoniów",
          "lat": 50.7282,
          "lng": 16.65141
        },
        {
          "name": "Gądów Mały",
          "lat": 51.11853,
          "lng": 16.98596
        },
        {
          "name": "Gaworzyce",
          "lat": 51.62773,
          "lng": 15.88198
        },
        {
          "name": "Głogów",
          "lat": 51.66361,
          "lng": 16.0845
        },
        {
          "name": "Głuszyca",
          "lat": 50.68743,
          "lng": 16.37173
        },
        {
          "name": "Głuszyca Górna",
          "lat": 50.66606,
          "lng": 16.37585
        },
        {
          "name": "Gniechowice",
          "lat": 50.98804,
          "lng": 16.83363
        },
        {
          "name": "Góra",
          "lat": 51.66638,
          "lng": 16.53494
        },
        {
          "name": "Grabiszyn",
          "lat": 51.09369,
          "lng": 16.97819
        },
        {
          "name": "Grabiszynek",
          "lat": 51.08703,
          "lng": 16.98629
        },
        {
          "name": "Grębocice",
          "lat": 51.59909,
          "lng": 16.16741
        },
        {
          "name": "Gromadka",
          "lat": 51.36063,
          "lng": 15.76452
        },
        {
          "name": "Gryfów Śląski",
          "lat": 51.03081,
          "lng": 15.42017
        },
        {
          "name": "Henryków",
          "lat": 50.65327,
          "lng": 17.01027
        },
        {
          "name": "Janowice Wielkie",
          "lat": 50.87569,
          "lng": 15.92322
        },
        {
          "name": "Jarnołtów-Jerzmanowo",
          "lat": 51.12163,
          "lng": 16.86621
        },
        {
          "name": "Jawor",
          "lat": 51.05132,
          "lng": 16.19347
        },
        {
          "name": "Jaworzyna Śląska",
          "lat": 50.9134,
          "lng": 16.43241
        },
        {
          "name": "Jedlina-Zdrój",
          "lat": 50.72005,
          "lng": 16.34645
        },
        {
          "name": "Jelcz",
          "lat": 51.02102,
          "lng": 17.32095
        },
        {
          "name": "Jelcz Laskowice",
          "lat": 51.02134,
          "lng": 17.31649
        },
        {
          "name": "Jelenia Góra",
          "lat": 50.89973,
          "lng": 15.72899
        },
        {
          "name": "Jeżów Sudecki",
          "lat": 50.93507,
          "lng": 15.74306
        },
        {
          "name": "Jordanów Śląski",
          "lat": 50.86421,
          "lng": 16.86873
        },
        {
          "name": "Jugów",
          "lat": 50.62758,
          "lng": 16.51812
        },
        {
          "name": "Kamieniec Wrocławski",
          "lat": 51.07182,
          "lng": 17.18193
        },
        {
          "name": "Kamieniec Ząbkowicki",
          "lat": 50.52541,
          "lng": 16.87921
        },
        {
          "name": "Kamienna Góra",
          "lat": 50.78314,
          "lng": 16.03037
        },
        {
          "name": "Karłowice",
          "lat": 51.14132,
          "lng": 17.05212
        },
        {
          "name": "Karpacz",
          "lat": 50.77669,
          "lng": 15.75594
        },
        {
          "name": "Kąty Wrocławskie",
          "lat": 51.03098,
          "lng": 16.76767
        },
        {
          "name": "Kiełczów",
          "lat": 51.13999,
          "lng": 17.17798
        },
        {
          "name": "Kłodzko",
          "lat": 50.43488,
          "lng": 16.66145
        },
        {
          "name": "Kobierzyce",
          "lat": 50.97054,
          "lng": 16.93508
        },
        {
          "name": "Kotla",
          "lat": 51.74542,
          "lng": 16.03575
        },
        {
          "name": "Kowale-Popiele",
          "lat": 51.1309,
          "lng": 17.10175
        },
        {
          "name": "Kowary",
          "lat": 50.79313,
          "lng": 15.83559
        },
        {
          "name": "Kozanów",
          "lat": 51.14447,
          "lng": 16.96937
        },
        {
          "name": "Krośnice",
          "lat": 51.47641,
          "lng": 17.35917
        },
        {
          "name": "Krzeszów",
          "lat": 50.73434,
          "lng": 16.06991
        },
        {
          "name": "Krzyki",
          "lat": 51.07085,
          "lng": 16.99475
        },
        {
          "name": "Księże Małe-Księże Wielkie",
          "lat": 51.07293,
          "lng": 17.08881
        },
        {
          "name": "Kudowa-Zdrój",
          "lat": 50.44297,
          "lng": 16.24397
        },
        {
          "name": "Kunice",
          "lat": 51.22231,
          "lng": 16.24809
        },
        {
          "name": "Lądek-Zdrój",
          "lat": 50.34371,
          "lng": 16.87946
        },
        {
          "name": "Legnica",
          "lat": 51.21006,
          "lng": 16.1619
        },
        {
          "name": "Legnickie Pole",
          "lat": 51.14419,
          "lng": 16.24208
        },
        {
          "name": "Leśna",
          "lat": 51.02431,
          "lng": 15.26413
        },
        {
          "name": "Leśnica-Ratyń-Pustki",
          "lat": 51.14228,
          "lng": 16.84773
        },
        {
          "name": "Lewin Kłodzki",
          "lat": 50.40559,
          "lng": 16.29101
        },
        {
          "name": "Lubań",
          "lat": 51.12014,
          "lng": 15.28768
        },
        {
          "name": "Lubawka",
          "lat": 50.70456,
          "lng": 16.00026
        },
        {
          "name": "Lubin",
          "lat": 51.40089,
          "lng": 16.20149
        },
        {
          "name": "Lubomierz",
          "lat": 51.01278,
          "lng": 15.50969
        },
        {
          "name": "Ludwikowice Kłodzkie",
          "lat": 50.62464,
          "lng": 16.46052
        },
        {
          "name": "Lwówek Śląski",
          "lat": 51.11074,
          "lng": 15.58582
        },
        {
          "name": "Łagiewniki",
          "lat": 50.79088,
          "lng": 16.84457
        },
        {
          "name": "Łagów",
          "lat": 51.15835,
          "lng": 15.04372
        },
        {
          "name": "Malczyce",
          "lat": 51.22038,
          "lng": 16.49365
        },
        {
          "name": "Marciszów",
          "lat": 50.8447,
          "lng": 16.02116
        },
        {
          "name": "Marszowice",
          "lat": 51.17198,
          "lng": 16.88441
        },
        {
          "name": "Maślice Małe",
          "lat": 51.14937,
          "lng": 16.94191
        },
        {
          "name": "Maślice Wielkie",
          "lat": 51.16333,
          "lng": 16.92837
        },
        {
          "name": "Międzybórz",
          "lat": 51.39626,
          "lng": 17.6661
        },
        {
          "name": "Międzylesie",
          "lat": 50.14778,
          "lng": 16.66712
        },
        {
          "name": "Miękinia",
          "lat": 51.18844,
          "lng": 16.73595
        },
        {
          "name": "Mieroszów",
          "lat": 50.66589,
          "lng": 16.18883
        },
        {
          "name": "Milicz",
          "lat": 51.5277,
          "lng": 17.27137
        },
        {
          "name": "Miłkowice",
          "lat": 51.25601,
          "lng": 16.07231
        },
        {
          "name": "Mirków",
          "lat": 51.16105,
          "lng": 17.17026
        },
        {
          "name": "Mirsk",
          "lat": 50.97054,
          "lng": 15.38567
        },
        {
          "name": "Mrozów",
          "lat": 51.18817,
          "lng": 16.78831
        },
        {
          "name": "Mysłakowice",
          "lat": 50.84123,
          "lng": 15.77894
        },
        {
          "name": "Niemcza",
          "lat": 50.72007,
          "lng": 16.83573
        },
        {
          "name": "Nowa Ruda",
          "lat": 50.58008,
          "lng": 16.50164
        },
        {
          "name": "Nowogrodziec",
          "lat": 51.19543,
          "lng": 15.39854
        },
        {
          "name": "Oborniki Śląskie",
          "lat": 51.30137,
          "lng": 16.91465
        },
        {
          "name": "Oleśnica",
          "lat": 51.21338,
          "lng": 17.38986
        },
        {
          "name": "Olszanica",
          "lat": 51.20672,
          "lng": 15.8004
        },
        {
          "name": "Olszyna",
          "lat": 51.0671,
          "lng": 15.37228
        },
        {
          "name": "Oława",
          "lat": 50.9466,
          "lng": 17.2926
        },
        {
          "name": "Osiedle Henrykowskie",
          "lat": 51.08999,
          "lng": 17.05289
        },
        {
          "name": "Osiedle Kosmonautów",
          "lat": 51.12753,
          "lng": 16.96186
        },
        {
          "name": "Osiek",
          "lat": 51.36717,
          "lng": 16.2338
        },
        {
          "name": "Ostroszowice",
          "lat": 50.64576,
          "lng": 16.63965
        },
        {
          "name": "Partynice",
          "lat": 51.06798,
          "lng": 17.01394
        },
        {
          "name": "Paszowice",
          "lat": 51.01078,
          "lng": 16.15273
        },
        {
          "name": "Pawłowice-Kłokoczyce",
          "lat": 51.16495,
          "lng": 17.09822
        },
        {
          "name": "Piechowice",
          "lat": 50.84963,
          "lng": 15.59887
        },
        {
          "name": "Pieńsk",
          "lat": 51.249,
          "lng": 15.04685
        },