{
  "name": "South Africa",
  "lat": -29,
  "lng": 24,
  "cities": [
    {
      "name": "Eastern Cape",
      "lat": -32.2171831,
      "lng": 26.6386401,
      "districts": [
        {
          "name": "Alfred Nzo",
          "lat": -30.66803,
          "lng": 29.1549
        },
        {
          "name": "Amathole",
          "lat": -32.55895,
          "lng": 27.45919
        },
        {
          "name": "Bhisho",
          "lat": -32.84721,
          "lng": 27.44218
        },
        {
          "name": "Buffalo City Metropolitan",
          "lat": -32.95141,
          "lng": 27.61164
        },
        {
          "name": "Chris Hani",
          "lat": -31.79033,
          "lng": 26.43965
        },
        {
          "name": "East London",
          "lat": -33.01529,
          "lng": 27.91162
        },
        {
          "name": "Joe Gqabi",
          "lat": -30.94178,
          "lng": 27.06053
        },
        {
          "name": "Mthatha",
          "lat": -31.58893,
          "lng": 28.78443
        },
        {
          "name": "Nelson Mandela Bay Metropolitan",
          "lat": -33.80399,
          "lng": 25.49213
        },
        {
          "name": "OR Tambo",
          "lat": -31.4674,
          "lng": 29.05247
        },
        {
          "name": "Port Elizabeth",
          "lat": -33.96109,
          "lng": 25.61494
        },
        {
          "name": "Queenstown",
          "lat": -31.89756,
          "lng": 26.87533
        },
        {
          "name": "Uitenhage",
          "lat": -33.75757,
          "lng": 25.3971
        },
        {
          "name": "Adelaide",
          "lat": -32.70747,
          "lng": 26.29564
        },
        {
          "name": "Alice",
          "lat": -32.78749,
          "lng": 26.8344
        },
        {
          "name": "Aliwal North",
          "lat": -30.69366,
          "lng": 26.71141
        },
        {
          "name": "Burgersdorp",
          "lat": -30.99766,
          "lng": 26.32862
        },
        {
          "name": "Butterworth",
          "lat": -32.33083,
          "lng": 28.14981
        },
        {
          "name": "Cacadu",
          "lat": -33.06583,
          "lng": 24.77583
        },
        {
          "name": "Cradock",
          "lat": -32.16422,
          "lng": 25.61918
        },
        {
          "name": "Dordrecht",
          "lat": -31.372,
          "lng": 27.04878
        },
        {
          "name": "Elliot",
          "lat": -31.33333,
          "lng": 27.85
        },
        {
          "name": "Fort Beaufort",
          "lat": -32.77477,
          "lng": 26.63376
        },
        {
          "name": "Graaff-Reinet",
          "lat": -32.25215,
          "lng": 24.53075
        },
        {
          "name": "Grahamstown",
          "lat": -33.30422,
          "lng": 26.53276
        },
        {
          "name": "Ilinge",
          "lat": -31.97676,
          "lng": 27.04267
        },
        {
          "name": "Kirkwood",
          "lat": -33.39829,
          "lng": 25.44279
        },
        {
          "name": "Kruisfontein",
          "lat": -34.00333,
          "lng": 24.73142
        },
        {
          "name": "Lady Frere",
          "lat": -31.70312,
          "lng": 27.2329
        },
        {
          "name": "Middelburg",
          "lat": -31.49285,
          "lng": 25.00633
        },
        {
          "name": "Molteno",
          "lat": -31.39675,
          "lng": 26.36246
        },
        {
          "name": "Port Alfred",
          "lat": -33.58601,
          "lng": 26.88329
        },
        {
          "name": "Port Saint John’s",
          "lat": -31.62291,
          "lng": 29.54477
        },
        {
          "name": "Queensdale",
          "lat": -31.87101,
          "lng": 26.97862
        },
        {
          "name": "Somerset East",
          "lat": -32.72173,
          "lng": 25.58804
        },
        {
          "name": "Stutterheim",
          "lat": -32.57076,
          "lng": 27.42396
        },
        {
          "name": "Whittlesea",
          "lat": -32.17588,
          "lng": 26.82437
        },
        {
          "name": "Willowmore",
          "lat": -33.29265,
          "lng": 23.48954
        }
      ]
    },
    {
      "name": "Free State",
      "lat": -28.7853618,
      "lng": 26.4978933,
      "districts": [
        {
          "name": "Bloemfontein",
          "lat": -29.12107,
          "lng": 26.214
        },
        {
          "name": "Botshabelo",
          "lat": -29.26737,
          "lng": 26.72595
        },
        {
          "name": "Fezile Dabi",
          "lat": -27.33918,
          "lng": 27.71927
        },
        {
          "name": "Kroonstad",
          "lat": -27.65036,
          "lng": 27.23488
        },
        {
          "name": "Lejweleputswa",
          "lat": -28.23982,
          "lng": 26.12649
        },
        {
          "name": "Mangaung Metropolitan",
          "lat": -29.15627,
          "lng": 26.35116
        },
        {
          "name": "Sasolburg",
          "lat": -26.81358,
          "lng": 27.81695
        },
        {
          "name": "Thabo Mofutsanyana",
          "lat": -28.24378,
          "lng": 28.34077
        },
        {
          "name": "Virginia",
          "lat": -28.10391,
          "lng": 26.86593
        },
        {
          "name": "Welkom",
          "lat": -27.97742,
          "lng": 26.73506
        },
        {
          "name": "Xhariep",
          "lat": -29.84311,
          "lng": 25.83286
        },
        {
          "name": "Allanridge",
          "lat": -27.75431,
          "lng": 26.64382
        },
        {
          "name": "Bethlehem",
          "lat": -28.23078,
          "lng": 28.30707
        },
        {
          "name": "Bothaville",
          "lat": -27.3887,
          "lng": 26.61701
        },
        {
          "name": "Brandfort",
          "lat": -28.70008,
          "lng": 26.45968
        },
        {
          "name": "Clocolan",
          "lat": -28.91367,
          "lng": 27.56555
        },
        {
          "name": "Deneysville",
          "lat": -26.8908,
          "lng": 28.09707
        },
        {
          "name": "Frankfort",
          "lat": -27.27888,
          "lng": 28.49696
        },
        {
          "name": "Harrismith",
          "lat": -28.27276,
          "lng": 29.12946
        },
        {
          "name": "Heilbron",
          "lat": -27.28115,
          "lng": 27.9709
        },
        {
          "name": "Hennenman",
          "lat": -27.97654,
          "lng": 27.02423
        },
        {
          "name": "Hoopstad",
          "lat": -27.83273,
          "lng": 25.90833
        },
        {
          "name": "Koppies",
          "lat": -27.24179,
          "lng": 27.57422
        },
        {
          "name": "Kutloanong",
          "lat": -27.83333,
          "lng": 26.75
        },
        {
          "name": "Ladybrand",
          "lat": -29.19448,
          "lng": 27.45739
        },
        {
          "name": "Lindley",
          "lat": -27.8791,
          "lng": 27.91348
        },
        {
          "name": "Marquard",
          "lat": -28.66449,
          "lng": 27.43048
        },
        {
          "name": "Parys",
          "lat": -26.9033,
          "lng": 27.45727
        },
        {
          "name": "Phuthaditjhaba",
          "lat": -28.52423,
          "lng": 28.81582
        },
        {
          "name": "Reitz",
          "lat": -27.80138,
          "lng": 28.42726
        },
        {
          "name": "Senekal",
          "lat": -28.31971,
          "lng": 27.62082
        },
        {
          "name": "Thaba Nchu",
          "lat": -29.20932,
          "lng": 26.83898
        },
        {
          "name": "Theunissen",
          "lat": -28.41098,
          "lng": 26.70107
        },
        {
          "name": "Ventersburg",
          "lat": -28.08561,
          "lng": 27.13814
        },
        {
          "name": "Viljoenskroon",
          "lat": -27.20841,
          "lng": 26.94855
        },
        {
          "name": "Villiers",
          "lat": -27.03026,
          "lng": 28.60061
        },
        {
          "name": "Vrede",
          "lat": -27.42573,
          "lng": 29.16585
        },
        {
          "name": "Vredefort",
          "lat": -27.00805,
          "lng": 27.3646
        },
        {
          "name": "Wesselsbron",
          "lat": -27.8549,
          "lng": 26.36583
        },
        {
          "name": "Winburg",
          "lat": -28.51805,
          "lng": 27.00933
        },
        {
          "name": "Zastron",
          "lat": -30.30225,
          "lng": 27.08395
        }
      ]
    },
    {
      "name": "Gauteng",
      "lat": -25.9363439,
      "lng": 28.0813105,
      "districts": [
        {
          "name": "Alberton",
          "lat": -26.26786,
          "lng": 28.12225
        },
        {
          "name": "Benoni",
          "lat": -26.18848,
          "lng": 28.32078
        },
        {
          "name": "Boksburg",
          "lat": -26.21197,
          "lng": 28.25958
        },
        {
          "name": "Brakpan",
          "lat": -26.23656,
          "lng": 28.36938
        },
        {
          "name": "Carletonville",
          "lat": -26.36094,
          "lng": 27.39767
        },
        {
          "name": "Centurion",
          "lat": -25.85891,
          "lng": 28.18577
        },
        {
          "name": "City of Johannesburg Metropolitan",
          "lat": -26.17673,
          "lng": 27.96353
        },
        {
          "name": "City of Tshwane Metropolitan",
          "lat": -25.65985,
          "lng": 28.44343
        },
        {
          "name": "Diepsloot",
          "lat": -25.93312,
          "lng": 28.01213
        },
        {
          "name": "Johannesburg",
          "lat": -26.20227,
          "lng": 28.04363
        },
        {
          "name": "Krugersdorp",
          "lat": -26.08577,
          "lng": 27.77515
        },
        {
          "name": "Mabopane",
          "lat": -25.49768,
          "lng": 28.10065
        },
        {
          "name": "Nigel",
          "lat": -26.43138,
          "lng": 28.47713
        },
        {
          "name": "Pretoria",
          "lat": -25.74486,
          "lng": 28.18783,
          "iscapital": true
        },
        {
          "name": "Randburg",
          "lat": -26.0941,
          "lng": 28.00123
        },
        {
          "name": "Randfontein",
          "lat": -26.1844,
          "lng": 27.70203
        },
        {
          "name": "Roodepoort",
          "lat": -26.1625,
          "lng": 27.8725
        },
        {
          "name": "Sedibeng",
          "lat": -26.56686,
          "lng": 28.18277
        },
        {
          "name": "Soweto",
          "lat": -26.26781,
          "lng": 27.85849
        },
        {
          "name": "Springs",
          "lat": -26.25,
          "lng": 28.4
        },
        {
          "name": "Tembisa",
          "lat": -25.99636,
          "lng": 28.2268
        },
        {
          "name": "Vanderbijlpark",
          "lat": -26.71171,
          "lng": 27.83795
        },
        {
          "name": "Vereeniging",
          "lat": -26.67313,
          "lng": 27.92615
        },
        {
          "name": "West Rand",
          "lat": -26.24565,
          "lng": 27.55538
        },
        {
          "name": "Westonaria",
          "lat": -26.31905,
          "lng": 27.6486
        },
        {
          "name": "Bronkhorstspruit",
          "lat": -25.81015,
          "lng": 28.74248
        },
        {
          "name": "Cullinan",
          "lat": -25.67088,
          "lng": 28.52364
        },
        {
          "name": "Eastleigh",
          "lat": -26.12965,
          "lng": 28.15541
        },
        {
          "name": "Eden Glen",
          "lat": -26.1323,
          "lng": 28.16859
        },
        {
          "name": "Eden Glen Ext 60",
          "lat": -26.12593,
          "lng": 28.165
        },
        {
          "name": "Edenvale",
          "lat": -26.14095,
          "lng": 28.15247
        },
        {
          "name": "Ekangala",
          "lat": -25.69619,
          "lng": 28.74918
        },
        {
          "name": "Ekurhuleni Metropolitan",
          "lat": -26.1989,
          "lng": 28.31262
        },
        {
          "name": "Heidelberg",
          "lat": -26.50476,
          "lng": 28.35921
        },
        {
          "name": "Midrand",
          "lat": -25.98953,
          "lng": 28.12843
        },
        {
          "name": "Midstream",
          "lat": -25.91849,
          "lng": 28.19881
        },
        {
          "name": "Modderfontein",
          "lat": -26.08909,
          "lng": 28.16534
        },
        {
          "name": "Muldersdriseloop",
          "lat": -26.03673,
          "lng": 27.83798
        },
        {
          "name": "Orange Farm",
          "lat": -26.48333,
          "lng": 27.86667
        }
      ]
    },
    {
      "name": "KwaZulu-Natal",
      "lat": -28.503833,
      "lng": 30.8875009,
      "districts": [
        {
          "name": "Amajuba",
          "lat": -27.73558,
          "lng": 30.13537
        },
        {
          "name": "Durban",
          "lat": -29.8579,
          "lng": 31.0292
        },
        {
          "name": "eThekwini Metropolitan",
          "lat": -29.8667,
          "lng": 31.0167
        },
        {
          "name": "KwaDukuza",
          "lat": -29.32816,
          "lng": 31.28954
        },
        {
          "name": "Mpumalanga",
          "lat": -29.81292,
          "lng": 30.63646
        },
        {
          "name": "Newcastle",
          "lat": -27.75796,
          "lng": 29.9318
        },
        {
          "name": "Pietermaritzburg",
          "lat": -29.61679,
          "lng": 30.39278
        },
        {
          "name": "Richards Bay",
          "lat": -28.78301,
          "lng": 32.03768
        },
        {
          "name": "Ugu",
          "lat": -30.54365,
          "lng": 30.2748
        },
        {
          "name": "uMkhanyakude",
          "lat": -27.62236,
          "lng": 32.32945
        },
        {
          "name": "uMzinyathi",
          "lat": -28.5857,
          "lng": 30.55883
        },
        {
          "name": "uThukela",
          "lat": -28.7192,
          "lng": 29.65799
        },
        {
          "name": "Vryheid",
          "lat": -27.76952,
          "lng": 30.79165
        },
        {
          "name": "Zululand",
          "lat": -27.81139,
          "lng": 31.29426
        },
        {
          "name": "Ballito",
          "lat": -29.53897,
          "lng": 31.21439
        },
        {
          "name": "Berea",
          "lat": -29.85185,
          "lng": 30.99337
        },
        {
          "name": "Dundee",
          "lat": -28.16678,
          "lng": 30.23371
        },
        {
          "name": "Ekuvukeni",
          "lat": -28.46752,
          "lng": 30.15513
        },
        {
          "name": "eMkhomazi",
          "lat": -30.20674,
          "lng": 30.79776
        },
        {
          "name": "Empangeni",
          "lat": -28.76197,
          "lng": 31.89329
        },
        {
          "name": "Eshowe",
          "lat": -28.88649,
          "lng": 31.4699
        },
        {
          "name": "eSikhaleni",
          "lat": -28.87097,
          "lng": 31.89961
        },
        {
          "name": "Glencoe",
          "lat": -28.17827,
          "lng": 30.14702
        },
        {
          "name": "Greytown",
          "lat": -29.06415,
          "lng": 30.59279
        },
        {
          "name": "Hluhluwe",
          "lat": -28.01895,
          "lng": 32.26762
        },
        {
          "name": "Howick",
          "lat": -29.47795,
          "lng": 30.23057
        },
        {
          "name": "iLembe",
          "lat": -29.27326,
          "lng": 31.14253
        },
        {
          "name": "Kokstad",
          "lat": -30.54723,
          "lng": 29.42412
        },
        {
          "name": "Margate",
          "lat": -30.8636,
          "lng": 30.37052
        },
        {
          "name": "Mondlo",
          "lat": -27.98299,
          "lng": 30.71769
        },
        {
          "name": "Mooirivier",
          "lat": -29.20824,
          "lng": 29.9946
        },
        {
          "name": "Mpophomeni",
          "lat": -29.56822,
          "lng": 30.18618
        },
        {
          "name": "Mtubatuba",
          "lat": -28.41789,
          "lng": 32.18483
        },
        {
          "name": "Ndwedwe",
          "lat": -29.51686,
          "lng": 30.92687
        },
        {
          "name": "Port Shepstone",
          "lat": -30.74137,
          "lng": 30.45499
        },
        {
          "name": "Richmond",
          "lat": -29.87196,
          "lng": 30.27235
        },
        {
          "name": "Scottburgh",
          "lat": -30.28666,
          "lng": 30.75316
        },
        {
          "name": "Sisonke",
          "lat": -30.11082,
          "lng": 29.66009
        },
        {
          "name": "Sundumbili",
          "lat": -29.13371,
          "lng": 31.39752
        },
        {
          "name": "Ulundi",
          "lat": -28.33523,
          "lng": 31.41617
        },
        {
          "name": "uMgungundlovu",
          "lat": -29.50927,
          "lng": 30.19838
        },
        {
          "name": "uThungulu",
          "lat": -28.70046,
          "lng": 31.51527
        },
        {
          "name": "Utrecht",
          "lat": -27.65862,
          "lng": 30.32166
        }
      ]
    },
    {
      "name": "Limpopo",
      "lat": -23.4735288,
      "lng": 29.3959199,
      "districts": [
        {
          "name": "Capricorn",
          "lat": -23.48163,
          "lng": 29.1835
        },
        {
          "name": "Mokopane",
          "lat": -24.19436,
          "lng": 29.00974
        },
        {
          "name": "Mopani",
          "lat": -23.76661,
          "lng": 30.836
        },
        {
          "name": "Phalaborwa",
          "lat": -23.94299,
          "lng": 31.14107
        },
        {
          "name": "Polokwane",
          "lat": -23.90449,
          "lng": 29.46885
        },
        {
          "name": "Sekhukhune",
          "lat": -24.82806,
          "lng": 29.83803
        },
        {
          "name": "Thohoyandou",
          "lat": -22.94564,
          "lng": 30.48497
        },
        {
          "name": "Vhembe",
          "lat": -22.75467,
          "lng": 30.1936
        },
        {
          "name": "Waterberg",
          "lat": -24.20514,
          "lng": 27.9787
        },
        {
          "name": "Bochum",
          "lat": -23.28609,
          "lng": 29.13964
        },
        {
          "name": "Duiwelskloof",
          "lat": -23.69339,
          "lng": 30.14002
        },
        {
          "name": "Ga-Kgapane",
          "lat": -23.64378,
          "lng": 30.22324
        },
        {
          "name": "Giyani",
          "lat": -23.30246,
          "lng": 30.71868
        },
        {
          "name": "Lebowakgomo",
          "lat": -24.2,
          "lng": 29.5
        },
        {
          "name": "Louis Trichardt",
          "lat": -23.04385,
          "lng": 29.90319
        },
        {
          "name": "Mankoeng",
          "lat": -23.9,
          "lng": 29.81667
        },
        {
          "name": "Modimolle",
          "lat": -24.7,
          "lng": 28.4
        },
        {
          "name": "Musina",
          "lat": -22.34881,
          "lng": 30.04074
        },
        {
          "name": "Nkowakowa",
          "lat": -23.88782,
          "lng": 30.28708
        },
        {
          "name": "Thabazimbi",
          "lat": -24.59165,
          "lng": 27.41155
        },
        {
          "name": "Thulamahashi",
          "lat": -24.72459,
          "lng": 31.19939
        },
        {
          "name": "Tzaneen",
          "lat": -23.83322,
          "lng": 30.16351
        },
        {
          "name": "Warmbaths",
          "lat": -24.88333,
          "lng": 28.28333
        }
      ]
    },
    {
      "name": "Mpumalanga",
      "lat": -26.276849,
      "lng": 30.1500153,
      "districts": [
        {
          "name": "Ehlanzeni",
          "lat": -25.351,
          "lng": 31.361
        },
        {
          "name": "eMbalenhle",
          "lat": -26.53333,
          "lng": 29.06667
        },
        {
          "name": "Ermelo",
          "lat": -26.53333,
          "lng": 29.98333
        },
        {
          "name": "Gert Sibande",
          "lat": -26.671,
          "lng": 29.92953
        },
        {
          "name": "Middelburg",
          "lat": -25.77507,
          "lng": 29.46482
        },
        {
          "name": "Nkangala",
          "lat": -25.71222,
          "lng": 29.42431
        },
        {
          "name": "Standerton",
          "lat": -26.93366,
          "lng": 29.24152
        },
        {
          "name": "Witbank",
          "lat": -25.87133,
          "lng": 29.23323
        },
        {
          "name": "Balfour",
          "lat": -26.66331,
          "lng": 28.59016
        },
        {
          "name": "Barberton",
          "lat": -25.78842,
          "lng": 31.05319
        },
        {
          "name": "Belfast",
          "lat": -25.68991,
          "lng": 30.03504
        },
        {
          "name": "Bethal",
          "lat": -26.45794,
          "lng": 29.46553
        },
        {
          "name": "Breyten",
          "lat": -26.30176,
          "lng": 29.98696
        },
        {
          "name": "Carolina",
          "lat": -26.06927,
          "lng": 30.11489
        },
        {
          "name": "Delmas",
          "lat": -26.1466,
          "lng": 28.68322
        },
        {
          "name": "Driefontein",
          "lat": -27.0177,
          "lng": 30.44979
        },
        {
          "name": "Hendrina",
          "lat": -26.15881,
          "lng": 29.71528
        },
        {
          "name": "Komatipoort",
          "lat": -25.43321,
          "lng": 31.95478
        },
        {
          "name": "Kriel",
          "lat": -26.27391,
          "lng": 29.2253
        },
        {
          "name": "Lydenburg",
          "lat": -25.09598,
          "lng": 30.44393
        },
        {
          "name": "Nelspruit",
          "lat": -25.47448,
          "lng": 30.97033
        },
        {
          "name": "Piet Retief",
          "lat": -27.00706,
          "lng": 30.81323
        },
        {
          "name": "Secunda",
          "lat": -26.55,
          "lng": 29.16667
        },
        {
          "name": "Siyabuswa",
          "lat": -25.11319,
          "lng": 29.04454
        },
        {
          "name": "Volksrust",
          "lat": -27.36541,
          "lng": 29.88175
        },
        {
          "name": "White River",
          "lat": -25.33177,
          "lng": 31.01166
        }
      ]
    },
    {
      "name": "North West",
      "lat": -26.1347819,
      "lng": 25.6546729,
      "districts": [
        {
          "name": "Bojanala Platinum",
          "lat": -25.42612,
          "lng": 27.2243
        },
        {
          "name": "Brits",
          "lat": -25.63473,
          "lng": 27.78022
        },
        {
          "name": "Dr Kenneth Kaunda",
          "lat": -26.80678,
          "lng": 26.56926
        },
        {
          "name": "Dr Ruth Segomotsi Mompati",
          "lat": -26.63765,
          "lng": 24.27462
        },
        {
          "name": "Klerksdorp",
          "lat": -26.85213,
          "lng": 26.66672
        },
        {
          "name": "Ngaka Modiri Molema",
          "lat": -25.95559,
          "lng": 25.80782
        },
        {
          "name": "Orkney",
          "lat": -26.98023,
          "lng": 26.67272
        },
        {
          "name": "Potchefstroom",
          "lat": -26.71667,
          "lng": 27.1
        },
        {
          "name": "Rustenburg",
          "lat": -25.66756,
          "lng": 27.24208
        },
        {
          "name": "Bloemhof",
          "lat": -27.64685,
          "lng": 25.60697
        },
        {
          "name": "Christiana",
          "lat": -27.91402,
          "lng": 25.16111
        },
        {
          "name": "Fochville",
          "lat": -26.48862,
          "lng": 27.49387
        },
        {
          "name": "Ga-Rankuwa",
          "lat": -25.61692,
          "lng": 27.99471
        },
        {
          "name": "Jan Kempdorp",
          "lat": -27.92246,
          "lng": 24.83051
        },
        {
          "name": "Koster",
          "lat": -25.86301,
          "lng": 26.89756
        },
        {
          "name": "Lichtenburg",
          "lat": -26.152,
          "lng": 26.15968
        },
        {
          "name": "Mahikeng",
          "lat": -25.86522,
          "lng": 25.64421
        },
        {
          "name": "Maile",
          "lat": -25.44152,
          "lng": 27.28165
        },
        {
          "name": "Mmabatho",
          "lat": -25.85,
          "lng": 25.63333
        },
        {
          "name": "Schweizer-Reneke",
          "lat": -27.18871,
          "lng": 25.32931
        },
        {
          "name": "Stilfontein",
          "lat": -26.84493,
          "lng": 26.76829
        },
        {
          "name": "Vryburg",
          "lat": -26.95659,
          "lng": 24.7284
        },
        {
          "name": "Wolmaransstad",
          "lat": -27.1974,
          "lng": 25.98311
        },
        {
          "name": "Zeerust",
          "lat": -25.53695,
          "lng": 26.07512
        }
      ]
    },
    {
      "name": "Northern Cape",
      "lat": -29.573402,
      "lng": 21.2051361,
      "districts": [
        {
          "name": "Frances Baard",
          "lat": -28.30003,
          "lng": 24.38188
        },
        {
          "name": "John Taolo Gaetsewe",
          "lat": -27.04549,
          "lng": 23.04706
        },
        {
          "name": "Kimberley",
          "lat": -28.73226,
          "lng": 24.76232
        },
        {
          "name": "Namakwa",
          "lat": -30.53561,
          "lng": 19.42892
        },
        {
          "name": "Pixley ka Seme",
          "lat": -30.2892,
          "lng": 23.25818
        },
        {
          "name": "Barkly West",
          "lat": -28.53537,
          "lng": 24.52151
        },
        {
          "name": "Brandvlei",
          "lat": -30.46532,
          "lng": 20.48659
        },
        {
          "name": "Calvinia",
          "lat": -31.47069,
          "lng": 19.77601
        },
        {
          "name": "Carnarvon",
          "lat": -30.96827,
          "lng": 22.13303
        },
        {
          "name": "Colesberg",
          "lat": -30.71999,
          "lng": 25.09718
        },
        {
          "name": "Daniëlskuil",
          "lat": -28.18873,
          "lng": 23.53951
        },
        {
          "name": "De Aar",
          "lat": -30.64966,
          "lng": 24.0123
        },
        {
          "name": "Fraserburg",
          "lat": -31.91566,
          "lng": 21.51335
        },
        {
          "name": "Kathu",
          "lat": -27.69569,
          "lng": 23.04929
        },
        {
          "name": "Kenhardt",
          "lat": -29.34574,
          "lng": 21.15786
        },
        {
          "name": "Kuruman",
          "lat": -27.4524,
          "lng": 23.43246
        },
        {
          "name": "Noupoort",
          "lat": -31.18736,
          "lng": 24.94991
        },
        {
          "name": "Orania",
          "lat": -29.81381,
          "lng": 24.41205
        },
        {
          "name": "Pampierstad",
          "lat": -27.78324,
          "lng": 24.68768
        },
        {
          "name": "Pofadder",
          "lat": -29.1283,
          "lng": 19.39492
        },
        {
          "name": "Postmasburg",
          "lat": -28.33392,
          "lng": 23.06541
        },
        {
          "name": "Prieska",
          "lat": -29.66803,
          "lng": 22.74251
        },
        {
          "name": "Ritchie",
          "lat": -29.03801,
          "lng": 24.60278
        },
        {
          "name": "Siyanda",
          "lat": -28.00013,
          "lng": 21.18459
        },
        {
          "name": "Springbok",
          "lat": -29.66434,
          "lng": 17.8865
        },
        {
          "name": "Upington",
          "lat": -28.44776,
          "lng": 21.25612
        },
        {
          "name": "Van Wyksvlei",
          "lat": -30.35101,
          "lng": 21.82498
        },
        {
          "name": "Warrenton",
          "lat": -28.11396,
          "lng": 24.84753
        }
      ]
    },
    {
      "name": "Western Cape",
      "lat": -33.546977,
      "lng": 20.72753,
      "districts": [
        {
          "name": "Cape Town",
          "lat": -33.92584,
          "lng": 18.42322
        },
        {
          "name": "Cape Winelands",
          "lat": -33.32249,
          "lng": 19.68998
        },
        {
          "name": "City of Cape Town",
          "lat": -33.91667,
          "lng": 18.41667
        },
        {
          "name": "George",
          "lat": -33.963,
          "lng": 22.46173
        },
        {
          "name": "Overberg",
          "lat": -34.26131,
          "lng": 19.93985
        },
        {
          "name": "Paarl",
          "lat": -33.73378,
          "lng": 18.97523
        },
        {
          "name": "West Coast",
          "lat": -32.09506,
          "lng": 18.62695
        },
        {
          "name": "Worcester",
          "lat": -33.64651,
          "lng": 19.44852
        },
        {
          "name": "Albertina",
          "lat": -34.20544,
          "lng": 21.58001
        },
        {
          "name": "Arniston",
          "lat": -34.66739,
          "lng": 20.23086
        },
        {
          "name": "Atlantis",
          "lat": -33.56668,
          "lng": 18.48335
        },
        {
          "name": "Beaufort West",
          "lat": -32.35671,
          "lng": 22.58295
        },
        {
          "name": "Bergvliet",
          "lat": -34.04746,
          "lng": 18.4525
        },
        {
          "name": "Bredasdorp",
          "lat": -34.53215,
          "lng": 20.04031
        },
        {
          "name": "Caledon",
          "lat": -34.22997,
          "lng": 19.4265
        },
        {
          "name": "Calitzdorp",
          "lat": -33.52755,
          "lng": 21.6762
        },
        {
          "name": "Central Karoo",
          "lat": -32.62812,
          "lng": 22.21192
        },
        {
          "name": "Ceres",
          "lat": -33.36889,
          "lng": 19.31095
        },
        {
          "name": "Clanwilliam",
          "lat": -32.18173,
          "lng": 18.89217
        },
        {
          "name": "Claremont",
          "lat": -33.98056,
          "lng": 18.46528
        },
        {
          "name": "Constantia",
          "lat": -34.03139,
          "lng": 18.41833
        },
        {
          "name": "De Rust",
          "lat": -33.49035,
          "lng": 22.53523
        },
        {
          "name": "Eden",
          "lat": -33.82139,
          "lng": 22.01263
        },
        {
          "name": "Grabouw",
          "lat": -34.15152,
          "lng": 19.01509
        },
        {
          "name": "Hardys Memories of Africa",
          "lat": -33.90539,
          "lng": 20.7169
        },
        {
          "name": "Hermanus",
          "lat": -34.4187,
          "lng": 19.23446
        },
        {
          "name": "Knysna",
          "lat": -34.03627,
          "lng": 23.04713
        },
        {
          "name": "Kraaifontein",
          "lat": -33.84808,
          "lng": 18.71723
        },
        {
          "name": "Ladismith",
          "lat": -33.49331,
          "lng": 21.26755
        },
        {
          "name": "Lansdowne",
          "lat": -33.98735,
          "lng": 18.49746
        },
        {
          "name": "Malmesbury",
          "lat": -33.4608,
          "lng": 18.72714
        },
        {
          "name": "Montagu",
          "lat": -33.78664,
          "lng": 20.12106
        },
        {
          "name": "Moorreesburg",
          "lat": -33.15388,
          "lng": 18.66031
        },
        {
          "name": "Mossel Bay",
          "lat": -34.18307,
          "lng": 22.14605
        },
        {
          "name": "Newlands",
          "lat": -33.97846,
          "lng": 18.4481
        },
        {
          "name": "Oudtshoorn",
          "lat": -33.60047,
          "lng": 22.19955
        },
        {
          "name": "Piketberg",
          "lat": -32.90323,
          "lng": 18.75704
        },
        {
          "name": "Plettenberg Bay",
          "lat": -34.05274,
          "lng": 23.3716
        },
        {
          "name": "Prince Albert",
          "lat": -33.22476,
          "lng": 22.02673
        },
        {
          "name": "Retreat",
          "lat": -34.05515,
          "lng": 18.47617
        },
        {
          "name": "Riversdale",
          "lat": -34.09345,
          "lng": 21.25725
        },
        {
          "name": "Robertson",
          "lat": -33.80342,
          "lng": 19.88537
        },
        {
          "name": "Rondebosch",
          "lat": -33.96333,
          "lng": 18.47639
        },
        {
          "name": "Rosebank",
          "lat": -33.95556,
          "lng": 18.47417
        },
        {
          "name": "Saldanha",
          "lat": -33.01167,
          "lng": 17.9442
        },
        {
          "name": "Stellenbosch",
          "lat": -33.93462,
          "lng": 18.86676
        },
        {
          "name": "Sunset Beach",
          "lat": -33.85395,
          "lng": 18.49231
        },
        {
          "name": "Swellendam",
          "lat": -34.02262,
          "lng": 20.44171
        },
        {
          "name": "Vredenburg",
          "lat": -32.90719,
          "lng": 17.98997
        },
        {
          "name": "Vredendal",
          "lat": -31.66833,
          "lng": 18.50119
        },
        {
          "name": "Wellington",
          "lat": -33.63981,
          "lng": 19.0112
        },
        {
          "name": "Zoar",
          "lat": -33.4956,
          "lng": 21.44373
        }
      ]
    }
  ]
}
