{
  "name": "Venezuela",
  "lat": 8,
  "lng": -66,
  "cities": [
    {
      "name": "Amazonas",
      "lat": 3.422575,
      "lng": -65.723231,
      "districts": [
        {
          "name": "Puerto Ayacucho",
          "lat": 5.66049,
          "lng": -67.58343
        },
        {
          "name": "Maroa",
          "lat": 2.7188,
          "lng": -67.56046
        },
        {
          "name": "Municipio Autónomo Alto Orinoco",
          "lat": 2.73456,
          "lng": -64.83032
        },
        {
          "name": "San Carlos de Río Negro",
          "lat": 1.92027,
          "lng": -67.06089
        },
        {
          "name": "San Fernando de Atabapo",
          "lat": 4.04564,
          "lng": -67.69934
        },
        {
          "name": "San Juan de Manapiare",
          "lat": 5.32665,
          "lng": -66.05402
        }
      ]
    },
    {
      "name": "Anzoátegui",
      "lat": 9.0197925,
      "lng": -64.2168001,
      "districts": [
        {
          "name": "Anaco",
          "lat": 9.42958,
          "lng": -64.46428
        },
        {
          "name": "Barcelona",
          "lat": 10.13625,
          "lng": -64.68618
        },
        {
          "name": "El Tigre",
          "lat": 8.88902,
          "lng": -64.2527
        },
        {
          "name": "Puerto La Cruz",
          "lat": 10.21382,
          "lng": -64.6328
        },
        {
          "name": "Aragua de Barcelona",
          "lat": 9.45588,
          "lng": -64.82928
        },
        {
          "name": "Cantaura",
          "lat": 9.30571,
          "lng": -64.35841
        },
        {
          "name": "Municipio José Gregorio Monagas",
          "lat": 7.73874,
          "lng": -64.71876
        },
        {
          "name": "Onoto",
          "lat": 9.59714,
          "lng": -65.1935
        },
        {
          "name": "Puerto Píritu",
          "lat": 10.05896,
          "lng": -65.03698
        },
        {
          "name": "San José de Guanipa",
          "lat": 8.88724,
          "lng": -64.16512
        }
      ]
    },
    {
      "name": "Apure",
      "lat": 7.0735781,
      "lng": -68.8202025,
      "districts": [
        {
          "name": "San Fernando de Apure",
          "lat": 7.8726693,
          "lng": -67.4819328
        }
      ]
    },
    {
      "name": "Aragua",
      "lat": 9.9897564,
      "lng": -67.0839257,
      "districts": [
        {
          "name": "Cagua",
          "lat": 10.18634,
          "lng": -67.45935
        },
        {
          "name": "El Limón",
          "lat": 10.30589,
          "lng": -67.63212
        },
        {
          "name": "La Victoria",
          "lat": 10.22677,
          "lng": -67.33122
        },
        {
          "name": "Maracay",
          "lat": 10.23535,
          "lng": -67.59113
        },
        {
          "name": "Palo Negro",
          "lat": 10.17389,
          "lng": -67.54194
        },
        {
          "name": "Turmero",
          "lat": 10.22856,
          "lng": -67.47421
        },
        {
          "name": "Las Tejerías",
          "lat": 10.25416,
          "lng": -67.17333
        },
        {
          "name": "San Mateo",
          "lat": 10.21302,
          "lng": -67.42365
        },
        {
          "name": "Santa Rita",
          "lat": 10.2054,
          "lng": -67.55948
        },
        {
          "name": "Villa de Cura",
          "lat": 10.03863,
          "lng": -67.48938
        }
      ]
    },
    {
      "name": "Barinas",
      "lat": 8.6182737,
      "lng": -70.2274065,
      "districts": [
        {
          "name": "Alto Barinas",
          "lat": 8.5931,
          "lng": -70.2261
        },
        {
          "name": "Barinas",
          "lat": 8.62261,
          "lng": -70.20749
        },
        {
          "name": "Municipio Barinas",
          "lat": 8.61497,
          "lng": -70.19852
        },
        {
          "name": "Barinitas",
          "lat": 8.76171,
          "lng": -70.41199
        }
      ]
    },
    {
      "name": "Bolívar",
      "lat": 8.0018709,
      "lng": -66.1109318,
      "districts": [
        {
          "name": "Ciudad Bolívar",
          "lat": 8.12923,
          "lng": -63.54086
        },
        {
          "name": "Ciudad Guayana",
          "lat": 8.35122,
          "lng": -62.64102
        },
        {
          "name": "Municipio Padre Pedro Chien",
          "lat": 8.02455,
          "lng": -61.88187
        },
        {
          "name": "Santa Elena de Uairén",
          "lat": 4.60226,
          "lng": -61.11025
        },
        {
          "name": "Upata",
          "lat": 8.0162,
          "lng": -62.40561
        }
      ]
    },
    {
      "name": "Carabobo",
      "lat": 10.2137258,
      "lng": -68.0396345,
      "districts": [
        {
          "name": "Guacara",
          "lat": 10.22609,
          "lng": -67.877
        },
        {
          "name": "Mariara",
          "lat": 10.29532,
          "lng": -67.7177
        },
        {
          "name": "Puerto Cabello",
          "lat": 10.47306,
          "lng": -68.0125
        },
        {
          "name": "Valencia",
          "lat": 10.16202,
          "lng": -68.00765
        },
        {
          "name": "Güigüe",
          "lat": 10.08344,
          "lng": -67.77799
        },
        {
          "name": "Los Guayos",
          "lat": 10.18932,
          "lng": -67.93828
        },
        {
          "name": "Morón",
          "lat": 10.48715,
          "lng": -68.20078
        },
        {
          "name": "San Joaquín",
          "lat": 10.26061,
          "lng": -67.79348
        },
        {
          "name": "Tacarigua",
          "lat": 10.08621,
          "lng": -67.91982
        },
        {
          "name": "Tocuyito",
          "lat": 10.11347,
          "lng": -68.06783
        }
      ]
    },
    {
      "name": "Cojedes",
      "lat": 9.3094457,
      "lng": -68.3590546,
      "districts": [
        {
          "name": "San Carlos",
          "lat": 9.66124,
          "lng": -68.58268
        },
        {
          "name": "Tinaquillo",
          "lat": 9.91861,
          "lng": -68.30472
        }
      ]
    },
    {
      "name": "Delta Amacuro",
      "lat": 8.9414599,
      "lng": -61.3403273,
      "districts": [
        {
          "name": "Tucupita",
          "lat": 9.05806,
          "lng": -62.05
        }
      ]
    },
    {
      "name": "Distrito Capital",
      "lat": 10.4749543,
      "lng": -66.9708041,
      "districts": [
        {
          "name": "Caracas",
          "lat": 10.5,
          "lng": -66.93333333,
          "iscapital": true
        }
      ]
    },
    {
      "name": "Falcón",
      "lat": 11.273946,
      "lng": -69.5834205,
      "districts": [
        {
          "name": "Coro",
          "lat": 11.4045,
          "lng": -69.67344
        },
        {
          "name": "Municipio Miranda",
          "lat": 11.31667,
          "lng": -69.86667
        },
        {
          "name": "Punta Cardón",
          "lat": 11.65806,
          "lng": -70.215
        },
        {
          "name": "Punto Fijo",
          "lat": 11.69152,
          "lng": -70.19918
        },
        {
          "name": "Chichiriviche",
          "lat": 10.92872,
          "lng": -68.27283
        },
        {
          "name": "Municipio Los Taques",
          "lat": 11.82308,
          "lng": -70.25353
        },
        {
          "name": "Tucacas",
          "lat": 10.79006,
          "lng": -68.32564
        }
      ]
    },
    {
      "name": "Guárico",
      "lat": 8.8378585,
      "lng": -66.3821,
      "districts": [
        {
          "name": "Calabozo",
          "lat": 8.92416,
          "lng": -67.42929
        },
        {
          "name": "San Juan de los Morros",
          "lat": 9.91152,
          "lng": -67.35381
        },
        {
          "name": "Valle de La Pascua",
          "lat": 9.21554,
          "lng": -66.00734
        },
        {
          "name": "Altagracia de Orituco",
          "lat": 9.86005,
          "lng": -66.38139
        },
        {
          "name": "Zaraza",
          "lat": 9.35029,
          "lng": -65.32452
        }
      ]
    },
    {
      "name": "La Guaira",
      "lat": 10.6000384,
      "lng": -66.9296405,
      "districts": [
        {
          "name": "Catia La Mar",
          "lat": 10.60545,
          "lng": -67.03238
        },
        {
          "name": "Caraballeda",
          "lat": 10.61216,
          "lng": -66.85192
        },
        {
          "name": "La Guaira",
          "lat": 10.60156,
          "lng": -66.93293
        },
        {
          "name": "Maiquetía",
          "lat": 10.5945,
          "lng": -66.95624
        }
      ]
    },
    {
      "name": "Lara",
      "lat": 10.0714266,
      "lng": -70.0163241,
      "districts": [
        {
          "name": "Barquisimeto",
          "lat": 10.0647,
          "lng": -69.35703
        },
        {
          "name": "Cabudare",
          "lat": 10.02658,
          "lng": -69.26203
        },
        {
          "name": "Carora",
          "lat": 10.17283,
          "lng": -70.081
        },
        {
          "name": "Los Rastrojos",
          "lat": 10.02588,
          "lng": -69.24166
        },
        {
          "name": "El Tocuyo",
          "lat": 9.78709,
          "lng": -69.79294
        },
        {
          "name": "Quíbor",
          "lat": 9.92866,
          "lng": -69.6201
        }
      ]
    },
    {
      "name": "Mérida",
      "lat": 8.4911705,
      "lng": -71.3043439,
      "districts": [
        {
          "name": "Ejido",
          "lat": 8.54665,
          "lng": -71.24087
        },
        {
          "name": "El Vigía",
          "lat": 8.6135,
          "lng": -71.65702
        },
        {
          "name": "Mérida",
          "lat": 8.58972,
          "lng": -71.15611
        },
        {
          "name": "Mucumpiz",
          "lat": 8.41667,
          "lng": -71.13333
        },
        {
          "name": "Municipio Libertador",
          "lat": 8.33333,
          "lng": -71.11667
        }
      ]
    },
    {
      "name": "Miranda",
      "lat": 10.323351,
      "lng": -66.4842121,
      "districts": [
        {
          "name": "Baruta",
          "lat": 10.43424,
          "lng": -66.87558
        },
        {
          "name": "Charallave",
          "lat": 10.24247,
          "lng": -66.85723
        },
        {
          "name": "Cúa",
          "lat": 10.16245,
          "lng": -66.88248
        },
        {
          "name": "Guarenas",
          "lat": 10.47027,
          "lng": -66.61934
        },
        {
          "name": "Guatire",
          "lat": 10.474,
          "lng": -66.54241
        },
        {
          "name": "Los Teques",
          "lat": 10.34447,
          "lng": -67.04325
        },
        {
          "name": "Ocumare del Tuy",
          "lat": 10.1182,
          "lng": -66.77513
        },
        {
          "name": "Petare",
          "lat": 10.47679,
          "lng": -66.80786
        },
        {
          "name": "Santa Teresa del Tuy",
          "lat": 10.23291,
          "lng": -66.66474
        },
        {
          "name": "Carrizal",
          "lat": 10.34985,
          "lng": -66.98632
        },
        {
          "name": "Caucaguita",
          "lat": 10.35782,
          "lng": -66.80252
        },
        {
          "name": "Caucagüito",
          "lat": 10.48666,
          "lng": -66.73799
        },
        {
          "name": "Chacao",
          "lat": 10.49581,
          "lng": -66.85367
        },
        {
          "name": "El Cafetal",
          "lat": 10.46541,
          "lng": -66.82951
        },
        {
          "name": "El Hatillo",
          "lat": 10.42411,
          "lng": -66.82581
        },
        {
          "name": "La Dolorita",
          "lat": 10.4883,
          "lng": -66.78608
        },
        {
          "name": "Los Dos Caminos",
          "lat": 10.49389,
          "lng": -66.82863
        },
        {
          "name": "San Antonio de Los Altos",
          "lat": 10.38853,
          "lng": -66.95179
        }
      ]
    },
    {
      "name": "Monagas",
      "lat": 9.3437846,
      "lng": -63.1589318,
      "districts": [
        {
          "name": "Maturín",
          "lat": 9.74569,
          "lng": -63.18323
        },
        {
          "name": "Municipio Maturín",
          "lat": 9.4,
          "lng": -63.03333
        },
        {
          "name": "Caripito",
          "lat": 10.11135,
          "lng": -63.09985
        },
        {
          "name": "Municipio Uracoa",
          "lat": 8.9996,
          "lng": -62.35164
        }
      ]
    },
    {
      "name": "Nueva Esparta",
      "lat": 10.9645415,
      "lng": -64.0975447,
      "districts": [
        {
          "name": "Porlamar",
          "lat": 10.95771,
          "lng": -63.86971
        },
        {
          "name": "Juan Griego",
          "lat": 11.08172,
          "lng": -63.96549
        },
        {
          "name": "La Asunción",
          "lat": 11.03333,
          "lng": -63.86278
        }
      ]
    },
    {
      "name": "Portuguesa",
      "lat": 8.9674808,
      "lng": -69.3915205,
      "districts": [
        {
          "name": "Acarigua",
          "lat": 9.55451,
          "lng": -69.19564
        },
        {
          "name": "Araure",
          "lat": 9.58144,
          "lng": -69.23851
        },
        {
          "name": "Guanare",
          "lat": 9.04183,
          "lng": -69.74206
        },
        {
          "name": "Villa Bruzual",
          "lat": 9.33186,
          "lng": -69.11968
        }
      ]
    },
    {
      "name": "Sucre",
      "lat": 10.429015,
      "lng": -63.5649999,
      "districts": [
        {
          "name": "Carúpano",
          "lat": 10.66516,
          "lng": -63.25387
        },
        {
          "name": "Cumaná",
          "lat": 10.45397,
          "lng": -64.18256
        },
        {
          "name": "Güiria",
          "lat": 10.57721,
          "lng": -62.29841
        },
        {
          "name": "Municipio Valdez",
          "lat": 10.57945,
          "lng": -62.30029
        }
      ]
    },
    {
      "name": "Táchira",
      "lat": 8.0219748,
      "lng": -72.0205763,
      "districts": [
        {
          "name": "San Cristóbal",
          "lat": 7.76694,
          "lng": -72.225
        },
        {
          "name": "Táriba",
          "lat": 7.8188,
          "lng": -72.22427
        },
        {
          "name": "Colón",
          "lat": 8.03125,
          "lng": -72.26053
        },
        {
          "name": "La Fría",
          "lat": 8.21523,
          "lng": -72.24888
        },
        {
          "name": "La Grita",
          "lat": 8.13316,
          "lng": -71.9839
        },
        {
          "name": "Municipio José María Vargas",
          "lat": 8.03514,
          "lng": -72.05675
        },
        {
          "name": "Rubio",
          "lat": 7.70131,
          "lng": -72.35569
        },
        {
          "name": "San Antonio del Táchira",
          "lat": 7.81454,
          "lng": -72.4431
        }
      ]
    },
    {
      "name": "Trujillo",
      "lat": 9.4958129,
      "lng": -70.7688907,
      "districts": [
        {
          "name": "Valera",
          "lat": 9.31778,
          "lng": -70.60361
        },
        {
          "name": "Boconó",
          "lat": 9.25385,
          "lng": -70.25105
        },
        {
          "name": "Municipio Pampanito",
          "lat": 9.41147,
          "lng": -70.49592
        },
        {
          "name": "Municipio San Rafael de Carvajal",
          "lat": 9.30756,
          "lng": -70.58965
        },
        {
          "name": "Trujillo",
          "lat": 9.36583,
          "lng": -70.43694
        }
      ]
    },
    {
      "name": "Venezuela",
      "lat": 8.0018709,
      "lng": -66.1109318,
      "districts": []
    },
    {
      "name": "Yaracuy",
      "lat": 10.3040312,
      "lng": -68.7014018,
      "districts": [
        {
          "name": "San Felipe",
          "lat": 10.33991,
          "lng": -68.74247
        },
        {
          "name": "Yaritagua",
          "lat": 10.08081,
          "lng": -69.1242
        },
        {
          "name": "Chivacoa",
          "lat": 10.15951,
          "lng": -68.89453
        },
        {
          "name": "Municipio Independencia",
          "lat": 10.33472,
          "lng": -68.75555
        },
        {
          "name": "Nirgua",
          "lat": 10.15039,
          "lng": -68.56478
        }
      ]
    },
    {
      "name": "Zulia",
      "lat": 10.1065099,
      "lng": -71.8641307,
      "districts": [
        {
          "name": "Cabimas",
          "lat": 10.39907,
          "lng": -71.45206
        },
        {
          "name": "Ciudad Ojeda",
          "lat": 10.20161,
          "lng": -71.3148
        },
        {
          "name": "Machiques",
          "lat": 10.06077,
          "lng": -72.55212
        },
        {
          "name": "Maracaibo",
          "lat": 10.66663,
          "lng": -71.61245
        },
        {
          "name": "San Carlos del Zulia",
          "lat": 9.00098,
          "lng": -71.92683
        },
        {
          "name": "La Villa del Rosario",
          "lat": 10.3258,
          "lng": -72.31343
        },
        {
          "name": "Lagunillas",
          "lat": 10.13008,
          "lng": -71.25946
        },
        {
          "name": "Santa Rita",
          "lat": 10.53642,
          "lng": -71.51104
        }
      ]
    }
  ]
}
